[
    {
        "id": 42,
        "name": "Queens - Church of Corona (100-10 Astoria Blvd) -- Pfizer",
        "address": "100-10 Astoria Boulevard",
        "suite": "",
        "city": "Queens",
        "state": "NY",
        "zip": "11369",
        "county": "Queens",
        "latitude": "40.7615",
        "longitude": "-73.8689",
        "program_url": "https://northwellvaccine.force.com/s/?id=a1T4x000007TfP9EAK",
        "vaccine_manufacturer": "Pfizer",
        "distance": null
    },
    {
        "id": 30,
        "name": "Nassau - Elmont (2150 Hempstead Tpk) -- Pfizer",
        "address": "2150 Hempstead Turnpike",
        "suite": "",
        "city": "Elmont",
        "state": "NY",
        "zip": "11003",
        "county": "Nassau",
        "latitude": "40.7095",
        "longitude": "-73.7204",
        "program_url": "https://northwellvaccine.force.com/s/?id=a1T4x000007TWHNEA4",
        "vaccine_manufacturer": "Pfizer",
        "distance": null
    },
    {
        "id": 14,
        "name": "Manhattan - Lenox Health Greenwich Village (200 W. 13th) -- Pfizer",
        "address": "200 West 13th Street",
        "suite": "",
        "city": "New York",
        "state": "NY",
        "zip": "10011",
        "county": "New York",
        "latitude": "40.7379",
        "longitude": "-74.0008",
        "program_url": "https://northwellvaccine.force.com/s/?id=a1T4x000007TWHNEA4",
        "vaccine_manufacturer": "Pfizer",
        "distance": null
    }
]