[
    {
        "id": 70,
        "name": "Suffolk - Sunken Meadow State Park (State Highway 25A) -- J&J",
        "address": "1 Sunken Meadow Road",
        "suite": "",
        "city": "Kings Park",
        "state": "NY",
        "zip": "11754",
        "county": "Suffolk",
        "latitude": "40.9055",
        "longitude": "-73.2593",
        "program_url": "https://northwellvaccine.force.com/s/?id=a1T4x000007ToTUEA0",
        "vaccine_manufacturer": "Johnson & Johnson (Janssen)",
        "distance": null
    },
    {
        "id": 69,
        "name": "Nassau - Hempstead Lake State Park (1000 Lake Drive) -- J&J",
        "address": "1000 Lake Drive",
        "suite": "",
        "city": "West Hempstead",
        "state": "NY",
        "zip": "11552",
        "county": "Nassau",
        "latitude": "40.6766",
        "longitude": "-73.6483",
        "program_url": "https://northwellvaccine.force.com/s/?id=a1T4x000007ToRYEA0",
        "vaccine_manufacturer": "Johnson & Johnson (Janssen)",
        "distance": null
    },
    {
        "id": 68,
        "name": "Suffolk - Robert Moses State Park (600 Robert Moses State Parkway) -- J & J",
        "address": "600 Robert Moses State Parkway",
        "suite": "",
        "city": "Babylon",
        "state": "NY",
        "zip": "11702",
        "county": "Suffolk",
        "latitude": "40.6244",
        "longitude": "-73.2826",
        "program_url": "https://northwellvaccine.force.com/s/?id=a1T4x000007ToTFEA0",
        "vaccine_manufacturer": "Johnson & Johnson (Janssen)",
        "distance": null
    },
    {
        "id": 67,
        "name": "Suffolk - Belmont Lake State Park (625 Belmont Ave) -- J&J",
        "address": "625 Belmont Avenue",
        "suite": "",
        "city": "West Babylon",
        "state": "NY",
        "zip": "11704",
        "county": "Suffolk",
        "latitude": "40.7342",
        "longitude": "-73.3445",
        "program_url": "https://northwellvaccine.force.com/s/?id=a1T4x000007ToRdEAK",
        "vaccine_manufacturer": "Johnson & Johnson (Janssen)",
        "distance": null
    },
    {
        "id": 66,
        "name": "Suffolk - Heckscher State Park (1 Heckscher State Pkwy) -- J&J",
        "address": "1 Heckscher State Parkway",
        "suite": "",
        "city": "East Islip",
        "state": "NY",
        "zip": "11730",
        "county": "Suffolk",
        "latitude": "40.7106",
        "longitude": "-73.1659",
        "program_url": "https://northwellvaccine.force.com/s/?id=a1T4x000007ToRTEA0",
        "vaccine_manufacturer": "Johnson & Johnson (Janssen)",
        "distance": null
    },
    {
        "id": 64,
        "name": "Suffolk - Bohemia Babies R Us (5181 Sunrise Hwy) -- Moderna",
        "address": "5181 Sunrise Highway",
        "suite": "",
        "city": "Bohemia",
        "state": "NY",
        "zip": "11716",
        "county": "Suffolk",
        "latitude": "40.7648",
        "longitude": "-73.0926",
        "program_url": "https://northwellvaccine.force.com/s/?id=a1T4x000007TWHNEA4",
        "vaccine_manufacturer": "Moderna",
        "distance": null
    },
    {
        "id": 61,
        "name": "Suffolk - Sunken Meadow State Park (NYS Reference Rte 908K) -- J&J",
        "address": "1 Sunken Meadow Road",
        "suite": "",
        "city": "Kings Park",
        "state": "NY",
        "zip": "11754",
        "county": "Suffolk",
        "latitude": "40.9055",
        "longitude": "-73.2593",
        "program_url": "https://northwellvaccine.force.com/s/?id=a1T4x000007TlRGEA0",
        "vaccine_manufacturer": "Johnson & Johnson (Janssen)",
        "distance": null
    },
    {
        "id": 59,
        "name": "Suffolk - Cherry Grove Community House (180 Bayview Walk) -- J&J",
        "address": "1701 Sunrise Highway",
        "suite": "",
        "city": "Bay Shore",
        "state": "NY",
        "zip": "11706",
        "county": "",
        "latitude": "40.7396",
        "longitude": "-73.2467",
        "program_url": "https://northwellvaccine.force.com/s/?id=a1T4x000007TktiEAC",
        "vaccine_manufacturer": "Johnson & Johnson (Janssen)",
        "distance": null
    },
    {
        "id": 58,
        "name": "Suffolk - Bohemia Babies R Us (5181 Sunrise Hwy) -- Pfizer",
        "address": "5181 Sunrise Highway",
        "suite": "",
        "city": "Bohemia",
        "state": "NY",
        "zip": "11716",
        "county": "Suffolk",
        "latitude": "40.7648",
        "longitude": "-73.0926",
        "program_url": "https://northwellvaccine.force.com/s/?id=a1T4x000007TfOLEA0",
        "vaccine_manufacturer": "Pfizer",
        "distance": null
    },
    {
        "id": 56,
        "name": "Suffolk - Riverhead Entenmann (4 West 2nd St) -- Pfizer",
        "address": "4 West 2nd Street",
        "suite": "",
        "city": "Riverhead",
        "state": "NY",
        "zip": "11901",
        "county": "Suffolk",
        "latitude": "40.9188",
        "longitude": "-72.664",
        "program_url": "https://northwellvaccine.force.com/s/?id=a1T4x000007TT2OEAW",
        "vaccine_manufacturer": "Pfizer",
        "distance": null
    }
]