{"name": "Eastside Integrated Primary Care - Covid Vaccine Site", "date": "08/20/2021", "address": "13353 Bel-Red Rd, Ste 105, Bellevue Washington, 98406", "vaccines": "Moderna COVID-19 Vaccine, Pfizer-BioNTech COVID-19 Vaccine", "ages": "All Ages", "info": "", "hours": "09:30 am - 03:30 pm", "available": "120", "special": "If you are signing up for a second dose, you must get the same vaccine brand as your first dose.", "clinic_id": "6270"}
{"name": "6M Geriatrics and Hospital Medicine - COVID Vaccine Clinic", "date": "08/21/2021", "address": "8825 Rainier Ave S, Seattle WA, 98118", "vaccines": "Janssen COVID-19 Vaccine, Moderna COVID-19 Vaccine, Pfizer-BioNTech COVID-19 Vaccine", "ages": "Children, Adults, Seniors", "info": "Be a part of \"Big Day of Play\" at the Rainier Beach Playground.  FREE vaccinations near the Rainier Beach Community Center.\nAdditional \"Big Day to Play\" event info - copy and paste into your browser:  https://www.bigdayofplay.org/event-info", "hours": "12:00 pm - 04:00 pm", "available": "300", "special": "If you are signing up for a second dose, you must get the same vaccine brand as your first dose.", "clinic_id": "6347"}
{"name": "Kaiser Partner Clinics", "date": "08/21/2021", "address": "18080 NE 68th St, Redmond WA, 98052", "vaccines": "Pfizer-BioNTech COVID-19 Vaccine", "ages": "Adults", "info": "", "hours": "09:00 am - 05:00 pm", "available": "50", "special": "If you are signing up for a second dose, you must get the same vaccine brand as your first dose.", "clinic_id": "6612"}
{"name": "6M Geriatrics and Hospital Medicine - COVID Vaccine Clinic", "date": "08/23/2021", "address": "PHKC-CE Highline College  2400 S 240th ST, Des Moines WA, 98198", "vaccines": "Janssen COVID-19 Vaccine, Moderna COVID-19 Vaccine, Pfizer-BioNTech COVID-19 Vaccine", "ages": "Children, Adults, Seniors", "info": "Highline College", "hours": "10:00 am - 03:00 pm", "available": "600", "special": "If you are signing up for a second dose, you must get the same vaccine brand as your first dose.", "clinic_id": "6472"}
{"name": "Eastside Integrated Primary Care - Covid Vaccine Site", "date": "08/27/2021", "address": "13353 Bel-Red Rd, Ste 105, Bellevue Washington, 98406", "vaccines": "Moderna COVID-19 Vaccine, Pfizer-BioNTech COVID-19 Vaccine", "ages": "All Ages", "info": "", "hours": "09:30 am - 03:30 pm", "available": "120", "special": "If you are signing up for a second dose, you must get the same vaccine brand as your first dose.", "clinic_id": "6271"}
{"name": "Bird's Eye Medical COVID Vaccine Site", "date": "08/29/2021", "address": "7000 35th Ave SW, Seattle WA, 98126", "vaccines": "Contact Clinic Site", "ages": "All Ages", "info": "", "hours": "11:30 am - 03:00 pm", "available": "84", "special": "If you are signing up for a second dose, you must get the same vaccine brand as your first dose.", "clinic_id": "5946"}
{"name": "6M Geriatrics and Hospital Medicine - COVID Vaccine Clinic", "date": "08/30/2021", "address": "PHKC-CE Highline College  2400 S 240th ST, Des Moines WA, 98198", "vaccines": "Janssen COVID-19 Vaccine, Moderna COVID-19 Vaccine, Pfizer-BioNTech COVID-19 Vaccine", "ages": "Children, Adults, Seniors", "info": "Highline College", "hours": "10:00 am - 03:00 pm", "available": "600", "special": "If you are signing up for a second dose, you must get the same vaccine brand as your first dose.", "clinic_id": "6473"}
{"name": "Cambia Partner Clinics", "date": "09/07/2021", "address": "19920 68th Ave W, Lynnwood WA, 98036", "vaccines": "Pfizer-BioNTech COVID-19 Vaccine", "ages": "Adults", "info": "", "hours": "09:00 am - 03:00 pm", "available": "72", "special": "If you are signing up for a second dose, you must get the same vaccine brand as your first dose.", "clinic_id": "6480"}
