{"name": "Eastside Integrated Primary Care - Covid Vaccine Site", "date": "08/27/2021", "address": "13353 Bel-Red Rd, Ste 105, Bellevue Washington, 98406", "vaccines": "Moderna COVID-19 Vaccine, Pfizer-BioNTech COVID-19 Vaccine", "ages": "All Ages", "info": "", "hours": "09:30 am - 03:30 pm", "available": "120", "special": "If you are signing up for a second dose, you must get the same vaccine brand as your first dose.", "clinic_id": "6271"}
{"name": "Bird's Eye Medical COVID Vaccine Site", "date": "08/27/2021", "address": "2915 29th Ave SW Unit A, Tumwater WA, 98512", "vaccines": "Janssen COVID-19 Vaccine, Moderna COVID-19 Vaccine, Pfizer-BioNTech COVID-19 Vaccine", "ages": "All Ages", "info": "Located at Bird's Eye Medical Office", "hours": "05:00 pm - 08:00 pm", "available": "60", "special": "If you are signing up for a second dose, you must get the same vaccine brand as your first dose.", "clinic_id": "6741"}
{"name": "Bird's Eye Medical Covid-19 Mobile Vaccination Clinic (PCDEM)", "date": "08/28/2021", "address": "5326 176th St SW, Lynnwood WA, 98037", "vaccines": "Janssen COVID-19 Vaccine, Pfizer-BioNTech COVID-19 Vaccine", "ages": "All Ages", "info": "This clinic is located at the Afrolatino Festival at Silver Creek Family Church.", "hours": "12:00 pm - 06:00 pm", "available": "72", "special": "If you are signing up for a second dose, you must get the same vaccine brand as your first dose.", "clinic_id": "6729"}
{"name": "Bird's Eye Medical COVID Vaccine Site", "date": "08/29/2021", "address": "7000 35th Ave SW, Seattle WA, 98126", "vaccines": "Contact Clinic Site", "ages": "All Ages", "info": "", "hours": "11:30 am - 03:00 pm", "available": "84", "special": "If you are signing up for a second dose, you must get the same vaccine brand as your first dose.", "clinic_id": "5946"}
{"name": "6M Geriatrics and Hospital Medicine - COVID Vaccine Clinic", "date": "08/30/2021", "address": "PHKC-CE Highline College  2400 S 240th ST, Des Moines WA, 98198", "vaccines": "Janssen COVID-19 Vaccine, Moderna COVID-19 Vaccine, Pfizer-BioNTech COVID-19 Vaccine", "ages": "Children, Adults, Seniors", "info": "Highline College - East side of building 6 \"Student Services\" - by the East Parking Lot.  Free - All are welcomed.", "hours": "10:00 am - 02:30 pm", "available": "544", "special": "If you are signing up for a second dose, you must get the same vaccine brand as your first dose.", "clinic_id": "6473"}
{"name": "Bird's Eye Medical COVID Vaccine Site", "date": "09/03/2021", "address": "2915 29th Ave SW Unit A, Tumwater WA, 98512", "vaccines": "Janssen COVID-19 Vaccine, Moderna COVID-19 Vaccine, Pfizer-BioNTech COVID-19 Vaccine", "ages": "All Ages", "info": "Located at Bird's Eye Medical Office", "hours": "05:00 pm - 08:00 pm", "available": "60", "special": "If you are signing up for a second dose, you must get the same vaccine brand as your first dose.", "clinic_id": "6742"}
{"name": "Cambia Partner Clinics", "date": "09/07/2021", "address": "19920 68th Ave W, Lynnwood WA, 98036", "vaccines": "Pfizer-BioNTech COVID-19 Vaccine", "ages": "Adults", "info": "", "hours": "09:00 am - 03:00 pm", "available": "72", "special": "If you are signing up for a second dose, you must get the same vaccine brand as your first dose.", "clinic_id": "6480"}
{"name": "Bird's Eye Medical Covid-19 Mobile Vaccination Clinic (PCDEM)", "date": "09/10/2021", "address": "200 120th St SW, Everett WA, 98204", "vaccines": "Contact Clinic Site", "ages": "All Ages", "info": "", "hours": "04:00 pm - 07:00 pm", "available": "36", "special": "If you are signing up for a second dose, you must get the same vaccine brand as your first dose.", "clinic_id": "6730"}
{"name": "Bird's Eye Medical COVID Vaccine Site", "date": "09/10/2021", "address": "2915 29th Ave SW Unit A, Tumwater WA, 98512", "vaccines": "Janssen COVID-19 Vaccine, Moderna COVID-19 Vaccine, Pfizer-BioNTech COVID-19 Vaccine", "ages": "All Ages", "info": "Located at Bird's Eye Medical Office", "hours": "05:00 pm - 08:00 pm", "available": "60", "special": "If you are signing up for a second dose, you must get the same vaccine brand as your first dose.", "clinic_id": "6743"}
{"name": "Bird's Eye Medical Covid-19 Mobile Vaccination Clinic (PCDEM)", "date": "09/12/2021", "address": "30525 8th Ave S, Federal Way WA, 98003", "vaccines": "Pfizer-BioNTech COVID-19 Vaccine", "ages": "All Ages", "info": "St. Vincent Catholic Church mobile clinic", "hours": "10:00 am - 01:00 pm", "available": "36", "special": "If you are signing up for a second dose, you must get the same vaccine brand as your first dose.", "clinic_id": "6656"}
