{"name": "Dayton General Hospital - COVID Vaccine Clinic", "date": "07/13/2021", "address": "Public Health Office, 112 N 2nd Street, DAYTON Washington, 99328", "vaccines": "Janssen COVID-19 Vaccine, Moderna COVID-19 Vaccine", "ages": "Other", "info": "This covid vaccination clinic will be held at the Public Health offices in Dayton.", "hours": "04:00 pm - 06:00 pm", "available": "24", "special": "If you are signing up for a second dose, you must get the same vaccine brand as your first dose.", "clinic_id": "4697"}
{"name": "Discovery Health MD, Puyallup COVID Vaccine Site", "date": "07/14/2021", "address": "3551 9th St SW, Puyallup WA, 98373", "vaccines": "Janssen COVID-19 Vaccine, Moderna COVID-19 Vaccine, Pfizer-BioNTech COVID-19 Vaccine", "ages": "Children, Adults, Seniors", "info": "7/14 Puyallup", "hours": "11:00 am - 06:45 pm", "available": "1500", "special": "If you are signing up for a second dose, you must get the same vaccine brand as your first dose.", "clinic_id": "5431"}
{"name": "Discovery Health MD, Puyallup COVID Vaccine Site", "date": "07/15/2021", "address": "3551 9th St SW, Puyallup WA, 98373", "vaccines": "Janssen COVID-19 Vaccine, Moderna COVID-19 Vaccine, Pfizer-BioNTech COVID-19 Vaccine", "ages": "Children, Adults, Seniors", "info": "7/15 Puyallup", "hours": "11:00 am - 06:45 pm", "available": "1500", "special": "If you are signing up for a second dose, you must get the same vaccine brand as your first dose.", "clinic_id": "5432"}
{"name": "Eastside Integrated Primary Care - Covid Vaccine Site", "date": "07/16/2021", "address": "13353 Bel-Red Rd, Ste 102, BELLEVUE WA, 98005", "vaccines": "Moderna COVID-19 Vaccine, Pfizer-BioNTech COVID-19 Vaccine", "ages": "All Ages", "info": "", "hours": "01:15 pm - 04:15 pm", "available": "58", "special": "If you are signing up for a second dose, you must get the same vaccine brand as your first dose.", "clinic_id": "4986"}
{"name": "Discovery Health MD, Puyallup COVID Vaccine Site", "date": "07/16/2021", "address": "3551 9th St SW, Puyallup WA, 98373", "vaccines": "Janssen COVID-19 Vaccine, Moderna COVID-19 Vaccine, Pfizer-BioNTech COVID-19 Vaccine", "ages": "Children, Adults, Seniors", "info": "7/16 Puyallup", "hours": "11:00 am - 06:45 pm", "available": "1500", "special": "If you are signing up for a second dose, you must get the same vaccine brand as your first dose.", "clinic_id": "5433"}
{"name": "SRHD Strike Team COVID Vaccine Venue", "date": "07/17/2021", "address": "Feed Medical Lake, 223 South Hallett Street, Medical Lake WA, 99022", "vaccines": "Janssen COVID-19 Vaccine, Pfizer-BioNTech COVID-19 Vaccine", "ages": "All Ages", "info": "Spokane Regional Health District assures nondiscrimination in accordance with Title VI of the Civil Rights Act of 1964 and the Americans with Disabilities Act. To file a complaint or to request more information, reasonable accommodations, or language translations, contact 509.324.1501 (TDD 509.324.1464) or visit srhd.org.", "hours": "10:00 am - 02:00 pm", "available": "50", "special": "If you are signing up for a second dose, you must get the same vaccine brand as your first dose.", "clinic_id": "5069"}
{"name": "Discovery Health MD, Puyallup COVID Vaccine Site", "date": "07/17/2021", "address": "3551 9th St SW, Puyallup WA, 98373", "vaccines": "Janssen COVID-19 Vaccine, Moderna COVID-19 Vaccine, Pfizer-BioNTech COVID-19 Vaccine", "ages": "Children, Adults, Seniors", "info": "7/17 Puyallup", "hours": "11:00 am - 06:45 pm", "available": "1500", "special": "If you are signing up for a second dose, you must get the same vaccine brand as your first dose.", "clinic_id": "5434"}
{"name": "Medical Teams International COVID Vaccine Clinic", "date": "07/20/2021", "address": "5215 196th St SW, Lynnwood WA, 98036", "vaccines": "Moderna COVID-19 Vaccine", "ages": "Adults", "info": "", "hours": "06:00 pm - 08:00 pm", "available": "30", "special": "If you are signing up for a second dose, you must get the same vaccine brand as your first dose.", "clinic_id": "5126"}
{"name": "Discovery Health MD, Puyallup COVID Vaccine Site", "date": "07/21/2021", "address": "3551 9th St SW, Puyallup WA, 98373", "vaccines": "Janssen COVID-19 Vaccine, Moderna COVID-19 Vaccine, Pfizer-BioNTech COVID-19 Vaccine", "ages": "Children, Adults, Seniors", "info": "7/21 Puyallup", "hours": "11:00 am - 06:45 pm", "available": "1500", "special": "If you are signing up for a second dose, you must get the same vaccine brand as your first dose.", "clinic_id": "5436"}
{"name": "Discovery Health MD, Puyallup COVID Vaccine Site", "date": "07/22/2021", "address": "3551 9th St SW, Puyallup WA, 98373", "vaccines": "Janssen COVID-19 Vaccine, Moderna COVID-19 Vaccine, Pfizer-BioNTech COVID-19 Vaccine", "ages": "Children, Adults, Seniors", "info": "7/22 Puyallup", "hours": "11:00 am - 06:45 pm", "available": "1500", "special": "If you are signing up for a second dose, you must get the same vaccine brand as your first dose.", "clinic_id": "5437"}
