{"name": "Kaiser Partner Clinics", "date": "08/21/2021", "address": "18080 NE 68th St, Redmond WA, 98052", "vaccines": "Pfizer-BioNTech COVID-19 Vaccine", "ages": "Adults", "info": "", "hours": "09:00 am - 05:00 pm", "available": "49", "special": "If you are signing up for a second dose, you must get the same vaccine brand as your first dose.", "clinic_id": "6612"}
{"name": "Care-A-Van Skamania County Fair", "date": "08/21/2021", "address": "710 SW Rock Creek Dr, Stevenson, WA 98648, USA, Stevenson WA, 98648", "vaccines": "Contact Clinic Site", "ages": "All Ages", "info": "This clinic is located at Skamania County Fairgrounds, 710 SW Rock Creek Dr, Stevenson, WA 98648, USA.", "hours": "12:00 pm - 10:00 pm", "available": "120", "special": "If you are signing up for a second dose, you must get the same vaccine brand as your first dose.", "clinic_id": "6721"}
{"name": "Care-A-Van From My Heart to Yours", "date": "08/21/2021", "address": "766 S Mission St, Wenatchee WA, 98801", "vaccines": "Contact Clinic Site", "ages": "All Ages", "info": "This clinic is located at 766 S Mission St, Wenatchee, WA 98801.", "hours": "01:00 pm - 04:30 pm", "available": "42", "special": "If you are signing up for a second dose, you must get the same vaccine brand as your first dose.", "clinic_id": "6725"}
{"name": "Bird's Eye Medical Covid-19 Mobile Vaccination Clinic (PCDEM)", "date": "08/21/2021", "address": "935 Peterson Rd, Burlington WA, 98233", "vaccines": "Contact Clinic Site", "ages": "All Ages", "info": "This clinic is located at St. Charles church in Burlington, Washington.", "hours": "08:00 am - 03:00 pm", "available": "84", "special": "If you are signing up for a second dose, you must get the same vaccine brand as your first dose.", "clinic_id": "6726"}
{"name": "Bird's Eye Medical Covid-19 Mobile Vaccination Clinic (PCDEM)", "date": "08/22/2021", "address": "5140 S Morgan St, Seattle WA, 98118", "vaccines": "Contact Clinic Site", "ages": "All Ages", "info": "", "hours": "01:30 pm - 05:00 pm", "available": "42", "special": "If you are signing up for a second dose, you must get the same vaccine brand as your first dose.", "clinic_id": "6727"}
{"name": "Care-A-Van - St. Joseph", "date": "08/22/2021", "address": "400 NE Anderson St, Vancouver WA, 98665", "vaccines": "Contact Clinic Site", "ages": "All Ages", "info": "This clinic is located at St. Joseph Church.", "hours": "01:00 am - 04:30 pm", "available": "186", "special": "If you are signing up for a second dose, you must get the same vaccine brand as your first dose.", "clinic_id": "6728"}
{"name": "6M Geriatrics and Hospital Medicine - COVID Vaccine Clinic", "date": "08/23/2021", "address": "PHKC-CE Highline College  2400 S 240th ST, Des Moines WA, 98198", "vaccines": "Janssen COVID-19 Vaccine, Moderna COVID-19 Vaccine, Pfizer-BioNTech COVID-19 Vaccine", "ages": "Children, Adults, Seniors", "info": "Highline College - East side of building 6 \"Student Services\" - by the East Parking Lot.  Free - All are welcomed.", "hours": "10:00 am - 02:30 pm", "available": "540", "special": "If you are signing up for a second dose, you must get the same vaccine brand as your first dose.", "clinic_id": "6472"}
{"name": "Eastside Integrated Primary Care - Covid Vaccine Site", "date": "08/27/2021", "address": "13353 Bel-Red Rd, Ste 105, Bellevue Washington, 98406", "vaccines": "Moderna COVID-19 Vaccine, Pfizer-BioNTech COVID-19 Vaccine", "ages": "All Ages", "info": "", "hours": "09:30 am - 03:30 pm", "available": "120", "special": "If you are signing up for a second dose, you must get the same vaccine brand as your first dose.", "clinic_id": "6271"}
{"name": "Bird's Eye Medical COVID Vaccine Site", "date": "08/27/2021", "address": "2915 29th Ave SW Unit A, Tumwater WA, 98512", "vaccines": "Janssen COVID-19 Vaccine, Moderna COVID-19 Vaccine, Pfizer-BioNTech COVID-19 Vaccine", "ages": "All Ages", "info": "Located at Bird's Eye Medical Office", "hours": "05:00 pm - 08:00 pm", "available": "60", "special": "If you are signing up for a second dose, you must get the same vaccine brand as your first dose.", "clinic_id": "6741"}
{"name": "Bird's Eye Medical Covid-19 Mobile Vaccination Clinic (PCDEM)", "date": "08/28/2021", "address": "5326 176th St SW, Lynnwood WA, 98037", "vaccines": "Janssen COVID-19 Vaccine, Pfizer-BioNTech COVID-19 Vaccine", "ages": "All Ages", "info": "This clinic is located at the Afrolatino Festival at Silver Creek Family Church.", "hours": "12:00 pm - 06:00 pm", "available": "72", "special": "If you are signing up for a second dose, you must get the same vaccine brand as your first dose.", "clinic_id": "6729"}
