{"id": "ca_metrolink:pomona_fairplex__gate_15__pomona", "name": "Pomona Fairplex (Gate 15)", "address": {"street1": "2352 Arrow Hwy.", "street2": null, "city": "Pomona", "state": "CA", "zip": null}, "location": null, "contact": null, "languages": null, "opening_dates": null, "opening_hours": null, "availability": null, "inventory": null, "access": null, "parent_organization": null, "links": null, "notes": ["ca_metrolink_directions: Near the Pomona - North station on the San Bernardino line."], "active": null, "source": {"source": "ca_metrolink", "id": "pomona_fairplex__gate_15__pomona", "fetched_from_uri": "https://register.metrolinktrains.com/web-assets/vax-sites/index.php", "fetched_at": "2021-05-22T19:52:22.499161", "published_at": null, "data": {"name": "Pomona Fairplex (Gate 15)", "address": "2352 Arrow Hwy.", "city": "Pomona", "metrolink_line": "San Bernardino", "metrolink_station": "Pomona - North"}}}
{"id": "ca_metrolink:cal_state_northridge_northridge", "name": "Cal State Northridge", "address": {"street1": "18343 Plummer Street", "street2": null, "city": "Northridge", "state": "CA", "zip": null}, "location": null, "contact": null, "languages": null, "opening_dates": null, "opening_hours": null, "availability": null, "inventory": null, "access": null, "parent_organization": null, "links": null, "notes": ["ca_metrolink_directions: Near the Northridge station on the Ventura County line."], "active": null, "source": {"source": "ca_metrolink", "id": "cal_state_northridge_northridge", "fetched_from_uri": "https://register.metrolinktrains.com/web-assets/vax-sites/index.php", "fetched_at": "2021-05-22T19:52:22.499161", "published_at": null, "data": {"name": "Cal State Northridge", "address": "18343 Plummer Street", "city": "Northridge", "metrolink_line": "Ventura County", "metrolink_station": "Northridge"}}}
{"id": "ca_metrolink:el_sereno_recreation_center_los_angeles", "name": "El Sereno Recreation Center", "address": {"street1": "4721 Klamath St.", "street2": null, "city": "Los Angeles", "state": "CA", "zip": null}, "location": null, "contact": null, "languages": null, "opening_dates": null, "opening_hours": null, "availability": null, "inventory": null, "access": null, "parent_organization": null, "links": null, "notes": ["ca_metrolink_directions: Near the Cal State L.A. station on the San Bernardino line."], "active": null, "source": {"source": "ca_metrolink", "id": "el_sereno_recreation_center_los_angeles", "fetched_from_uri": "https://register.metrolinktrains.com/web-assets/vax-sites/index.php", "fetched_at": "2021-05-22T19:52:22.499161", "published_at": null, "data": {"name": "El Sereno Recreation Center", "address": "4721 Klamath St.", "city": "Los Angeles", "metrolink_line": "San Bernardino", "metrolink_station": "Cal State L.A."}}}
{"id": "ca_metrolink:st__john_s_well_child_and_family-lincoln_los_angeles", "name": "St. John's Well Child and Family-Lincoln", "address": {"street1": "2515 Alta St.", "street2": null, "city": "Los Angeles", "state": "CA", "zip": null}, "location": null, "contact": null, "languages": null, "opening_dates": null, "opening_hours": null, "availability": null, "inventory": null, "access": null, "parent_organization": null, "links": null, "notes": ["ca_metrolink_directions: Near the Union Station station on the Union Station line."], "active": null, "source": {"source": "ca_metrolink", "id": "st__john_s_well_child_and_family-lincoln_los_angeles", "fetched_from_uri": "https://register.metrolinktrains.com/web-assets/vax-sites/index.php", "fetched_at": "2021-05-22T19:52:22.499161", "published_at": null, "data": {"name": "St. John's Well Child and Family-Lincoln", "address": "2515 Alta St.", "city": "Los Angeles", "metrolink_line": "Union Station", "metrolink_station": "Union Station"}}}
{"id": "ca_metrolink:henry_mayo_newhall_hospital_valencia", "name": "Henry Mayo Newhall Hospital", "address": {"street1": "23845 McBean Parkway", "street2": null, "city": "Valencia", "state": "CA", "zip": null}, "location": null, "contact": null, "languages": null, "opening_dates": null, "opening_hours": null, "availability": null, "inventory": null, "access": null, "parent_organization": null, "links": null, "notes": ["ca_metrolink_directions: Near the Newhall station on the Antelope Valley line."], "active": null, "source": {"source": "ca_metrolink", "id": "henry_mayo_newhall_hospital_valencia", "fetched_from_uri": "https://register.metrolinktrains.com/web-assets/vax-sites/index.php", "fetched_at": "2021-05-22T19:52:22.499161", "published_at": null, "data": {"name": "Henry Mayo Newhall Hospital", "address": "23845 McBean Parkway", "city": "Valencia", "metrolink_line": "Antelope Valley", "metrolink_station": "Newhall"}}}
{"id": "ca_metrolink:east_valley_community_health_center-pomona_pomona", "name": "East Valley Community Health Center-Pomona", "address": {"street1": "1555 S. Garey Ave.", "street2": null, "city": "Pomona", "state": "CA", "zip": null}, "location": null, "contact": null, "languages": null, "opening_dates": null, "opening_hours": null, "availability": null, "inventory": null, "access": null, "parent_organization": null, "links": null, "notes": ["ca_metrolink_directions: Near the Pomona - Downtown station on the Riverside line."], "active": null, "source": {"source": "ca_metrolink", "id": "east_valley_community_health_center-pomona_pomona", "fetched_from_uri": "https://register.metrolinktrains.com/web-assets/vax-sites/index.php", "fetched_at": "2021-05-22T19:52:22.499161", "published_at": null, "data": {"name": "East Valley Community Health Center-Pomona", "address": "1555 S. Garey Ave.", "city": "Pomona", "metrolink_line": "Riverside", "metrolink_station": "Pomona - Downtown"}}}
{"id": "ca_metrolink:east_valley_community_health_center-west_covina_west_covina", "name": "East Valley Community Health Center-West Covina", "address": {"street1": "420 S. Glendora", "street2": null, "city": "West Covina", "state": "CA", "zip": null}, "location": null, "contact": null, "languages": null, "opening_dates": null, "opening_hours": null, "availability": null, "inventory": null, "access": null, "parent_organization": null, "links": null, "notes": ["ca_metrolink_directions: Near the Covina station on the San Bernardino line."], "active": null, "source": {"source": "ca_metrolink", "id": "east_valley_community_health_center-west_covina_west_covina", "fetched_from_uri": "https://register.metrolinktrains.com/web-assets/vax-sites/index.php", "fetched_at": "2021-05-22T19:52:22.499161", "published_at": null, "data": {"name": "East Valley Community Health Center-West Covina", "address": "420 S. Glendora", "city": "West Covina", "metrolink_line": "San Bernardino", "metrolink_station": "Covina"}}}
{"id": "ca_metrolink:east_valley_community_health_center-_covina_covina", "name": "East Valley Community Health Center- Covina", "address": {"street1": "276 W. College St.", "street2": null, "city": "Covina", "state": "CA", "zip": null}, "location": null, "contact": null, "languages": null, "opening_dates": null, "opening_hours": null, "availability": null, "inventory": null, "access": null, "parent_organization": null, "links": null, "notes": ["ca_metrolink_directions: Near the Covina station on the San Bernardino line."], "active": null, "source": {"source": "ca_metrolink", "id": "east_valley_community_health_center-_covina_covina", "fetched_from_uri": "https://register.metrolinktrains.com/web-assets/vax-sites/index.php", "fetched_at": "2021-05-22T19:52:22.499161", "published_at": null, "data": {"name": "East Valley Community Health Center- Covina", "address": "276 W. College St.", "city": "Covina", "metrolink_line": "San Bernardino", "metrolink_station": "Covina"}}}
{"id": "ca_metrolink:cha_hollywood_presbyterian_medical_center_los_angeles", "name": "CHA Hollywood Presbyterian Medical Center", "address": {"street1": "1300 N Vermont Ave.", "street2": null, "city": "Los Angeles", "state": "CA", "zip": null}, "location": null, "contact": null, "languages": null, "opening_dates": null, "opening_hours": null, "availability": null, "inventory": null, "access": null, "parent_organization": null, "links": null, "notes": ["ca_metrolink_directions: Near the Union Station station on the Union Station line."], "active": null, "source": {"source": "ca_metrolink", "id": "cha_hollywood_presbyterian_medical_center_los_angeles", "fetched_from_uri": "https://register.metrolinktrains.com/web-assets/vax-sites/index.php", "fetched_at": "2021-05-22T19:52:22.499161", "published_at": null, "data": {"name": "CHA Hollywood Presbyterian Medical Center", "address": "1300 N Vermont Ave.", "city": "Los Angeles", "metrolink_line": "Union Station", "metrolink_station": "Union Station"}}}
{"id": "ca_metrolink:jwch_wesley_health_center-lancaster_lancaster", "name": "JWCH Wesley Health Center-Lancaster", "address": {"street1": "45104 W 10th St.", "street2": null, "city": "Lancaster", "state": "CA", "zip": null}, "location": null, "contact": null, "languages": null, "opening_dates": null, "opening_hours": null, "availability": null, "inventory": null, "access": null, "parent_organization": null, "links": null, "notes": ["ca_metrolink_directions: Near the Lancaster station on the Antelope Valley line."], "active": null, "source": {"source": "ca_metrolink", "id": "jwch_wesley_health_center-lancaster_lancaster", "fetched_from_uri": "https://register.metrolinktrains.com/web-assets/vax-sites/index.php", "fetched_at": "2021-05-22T19:52:22.499161", "published_at": null, "data": {"name": "JWCH Wesley Health Center-Lancaster", "address": "45104 W 10th St.", "city": "Lancaster", "metrolink_line": "Antelope Valley", "metrolink_station": "Lancaster"}}}
{"id": "ca_metrolink:dodger_stadium__gate_c__los_angeles", "name": "Dodger Stadium (Gate C)", "address": {"street1": "Academy Road", "street2": null, "city": "Los Angeles", "state": "CA", "zip": null}, "location": null, "contact": null, "languages": null, "opening_dates": null, "opening_hours": null, "availability": null, "inventory": null, "access": null, "parent_organization": null, "links": null, "notes": ["ca_metrolink_directions: Near the Union Station station on the Union Station line."], "active": null, "source": {"source": "ca_metrolink", "id": "dodger_stadium__gate_c__los_angeles", "fetched_from_uri": "https://register.metrolinktrains.com/web-assets/vax-sites/index.php", "fetched_at": "2021-05-22T19:52:22.499161", "published_at": null, "data": {"name": "Dodger Stadium (Gate C)", "address": "Academy Road", "city": "Los Angeles", "metrolink_line": "Union Station", "metrolink_station": "Union Station"}}}
{"id": "ca_metrolink:san_fernando_clinic_san_fernando", "name": "San Fernando Clinic", "address": {"street1": "208 Park Ave.", "street2": null, "city": "San Fernando", "state": "CA", "zip": null}, "location": null, "contact": null, "languages": null, "opening_dates": null, "opening_hours": null, "availability": null, "inventory": null, "access": null, "parent_organization": null, "links": null, "notes": ["ca_metrolink_directions: Near the Sylmar/San Fernando station on the Antelope Valley line."], "active": null, "source": {"source": "ca_metrolink", "id": "san_fernando_clinic_san_fernando", "fetched_from_uri": "https://register.metrolinktrains.com/web-assets/vax-sites/index.php", "fetched_at": "2021-05-22T19:52:22.499161", "published_at": null, "data": {"name": "San Fernando Clinic", "address": "208 Park Ave.", "city": "San Fernando", "metrolink_line": "Antelope Valley", "metrolink_station": "Sylmar/San Fernando"}}}
{"id": "ca_metrolink:lincoln_park_clinic_los_angeles", "name": "Lincoln Park Clinic", "address": {"street1": "3501 Valley Blvd.", "street2": null, "city": "Los Angeles", "state": "CA", "zip": null}, "location": null, "contact": null, "languages": null, "opening_dates": null, "opening_hours": null, "availability": null, "inventory": null, "access": null, "parent_organization": null, "links": null, "notes": ["ca_metrolink_directions: Near the Cal State L.A. station on the San Bernardino line."], "active": null, "source": {"source": "ca_metrolink", "id": "lincoln_park_clinic_los_angeles", "fetched_from_uri": "https://register.metrolinktrains.com/web-assets/vax-sites/index.php", "fetched_at": "2021-05-22T19:52:22.499161", "published_at": null, "data": {"name": "Lincoln Park Clinic", "address": "3501 Valley Blvd.", "city": "Los Angeles", "metrolink_line": "San Bernardino", "metrolink_station": "Cal State L.A."}}}
{"id": "ca_metrolink:albertsons_san_dimas", "name": "Albertsons", "address": {"street1": "220 E Bonita Ave.", "street2": null, "city": "San Dimas", "state": "CA", "zip": null}, "location": null, "contact": null, "languages": null, "opening_dates": null, "opening_hours": null, "availability": null, "inventory": null, "access": null, "parent_organization": null, "links": null, "notes": ["ca_metrolink_directions: Near the Pomona - North station on the San Bernardino line."], "active": null, "source": {"source": "ca_metrolink", "id": "albertsons_san_dimas", "fetched_from_uri": "https://register.metrolinktrains.com/web-assets/vax-sites/index.php", "fetched_at": "2021-05-22T19:52:22.499161", "published_at": null, "data": {"name": "Albertsons", "address": "220 E Bonita Ave.", "city": "San Dimas", "metrolink_line": "San Bernardino", "metrolink_station": "Pomona - North"}}}
{"id": "ca_metrolink:albertsons_alhambra", "name": "Albertsons", "address": {"street1": "2400 W Commonwealth Ave.", "street2": null, "city": "Alhambra", "state": "CA", "zip": null}, "location": null, "contact": null, "languages": null, "opening_dates": null, "opening_hours": null, "availability": null, "inventory": null, "access": null, "parent_organization": null, "links": null, "notes": ["ca_metrolink_directions: Near the Cal State L.A. station on the San Bernardino line."], "active": null, "source": {"source": "ca_metrolink", "id": "albertsons_alhambra", "fetched_from_uri": "https://register.metrolinktrains.com/web-assets/vax-sites/index.php", "fetched_at": "2021-05-22T19:52:22.499161", "published_at": null, "data": {"name": "Albertsons", "address": "2400 W Commonwealth Ave.", "city": "Alhambra", "metrolink_line": "San Bernardino", "metrolink_station": "Cal State L.A."}}}
{"id": "ca_metrolink:albertsons_glendora", "name": "Albertsons", "address": {"street1": "133 W Rte 66", "street2": null, "city": "Glendora", "state": "CA", "zip": null}, "location": null, "contact": null, "languages": null, "opening_dates": null, "opening_hours": null, "availability": null, "inventory": null, "access": null, "parent_organization": null, "links": null, "notes": ["ca_metrolink_directions: Near the Covina station on the San Bernardino line."], "active": null, "source": {"source": "ca_metrolink", "id": "albertsons_glendora", "fetched_from_uri": "https://register.metrolinktrains.com/web-assets/vax-sites/index.php", "fetched_at": "2021-05-22T19:52:22.499161", "published_at": null, "data": {"name": "Albertsons", "address": "133 W Rte 66", "city": "Glendora", "metrolink_line": "San Bernardino", "metrolink_station": "Covina"}}}
{"id": "ca_metrolink:albertsons_lancaster", "name": "Albertsons", "address": {"street1": "43543 20th St W.", "street2": null, "city": "Lancaster", "state": "CA", "zip": null}, "location": null, "contact": null, "languages": null, "opening_dates": null, "opening_hours": null, "availability": null, "inventory": null, "access": null, "parent_organization": null, "links": null, "notes": ["ca_metrolink_directions: Near the Lancaster station on the Antelope Valley line."], "active": null, "source": {"source": "ca_metrolink", "id": "albertsons_lancaster", "fetched_from_uri": "https://register.metrolinktrains.com/web-assets/vax-sites/index.php", "fetched_at": "2021-05-22T19:52:22.499161", "published_at": null, "data": {"name": "Albertsons", "address": "43543 20th St W.", "city": "Lancaster", "metrolink_line": "Antelope Valley", "metrolink_station": "Lancaster"}}}
{"id": "ca_metrolink:pavilions_burbank", "name": "Pavilions", "address": {"street1": "1110 W Alameda Ave.", "street2": null, "city": "Burbank", "state": "CA", "zip": null}, "location": null, "contact": null, "languages": null, "opening_dates": null, "opening_hours": null, "availability": null, "inventory": null, "access": null, "parent_organization": null, "links": null, "notes": ["ca_metrolink_directions: Near the Burbank - Downtown station on the Ventura County - Antelope Valley line."], "active": null, "source": {"source": "ca_metrolink", "id": "pavilions_burbank", "fetched_from_uri": "https://register.metrolinktrains.com/web-assets/vax-sites/index.php", "fetched_at": "2021-05-22T19:52:22.499161", "published_at": null, "data": {"name": "Pavilions", "address": "1110 W Alameda Ave.", "city": "Burbank", "metrolink_line": "Ventura County - Antelope Valley", "metrolink_station": "Burbank - Downtown"}}}
{"id": "ca_metrolink:ralphs_porter_ranch", "name": "Ralphs", "address": {"street1": "19781 Rinaldi St.", "street2": null, "city": "Porter Ranch", "state": "CA", "zip": null}, "location": null, "contact": null, "languages": null, "opening_dates": null, "opening_hours": null, "availability": null, "inventory": null, "access": null, "parent_organization": null, "links": null, "notes": ["ca_metrolink_directions: Near the Chatsworth station on the Ventura County line."], "active": null, "source": {"source": "ca_metrolink", "id": "ralphs_porter_ranch", "fetched_from_uri": "https://register.metrolinktrains.com/web-assets/vax-sites/index.php", "fetched_at": "2021-05-22T19:52:22.499161", "published_at": null, "data": {"name": "Ralphs", "address": "19781 Rinaldi St.", "city": "Porter Ranch", "metrolink_line": "Ventura County", "metrolink_station": "Chatsworth"}}}
{"id": "ca_metrolink:ralphs_valencia", "name": "Ralphs", "address": {"street1": "27760 McBean Pkwy.", "street2": null, "city": "Valencia", "state": "CA", "zip": null}, "location": null, "contact": null, "languages": null, "opening_dates": null, "opening_hours": null, "availability": null, "inventory": null, "access": null, "parent_organization": null, "links": null, "notes": ["ca_metrolink_directions: Near the Santa Clarita station on the Antelope Valley line."], "active": null, "source": {"source": "ca_metrolink", "id": "ralphs_valencia", "fetched_from_uri": "https://register.metrolinktrains.com/web-assets/vax-sites/index.php", "fetched_at": "2021-05-22T19:52:22.499161", "published_at": null, "data": {"name": "Ralphs", "address": "27760 McBean Pkwy.", "city": "Valencia", "metrolink_line": "Antelope Valley", "metrolink_station": "Santa Clarita"}}}
{"id": "ca_metrolink:ralphs_los_angeles", "name": "Ralphs", "address": {"street1": "645 W 9th St.", "street2": null, "city": "Los Angeles", "state": "CA", "zip": null}, "location": null, "contact": null, "languages": null, "opening_dates": null, "opening_hours": null, "availability": null, "inventory": null, "access": null, "parent_organization": null, "links": null, "notes": ["ca_metrolink_directions: Near the Union Station station on the Union Station line."], "active": null, "source": {"source": "ca_metrolink", "id": "ralphs_los_angeles", "fetched_from_uri": "https://register.metrolinktrains.com/web-assets/vax-sites/index.php", "fetched_at": "2021-05-22T19:52:22.499161", "published_at": null, "data": {"name": "Ralphs", "address": "645 W 9th St.", "city": "Los Angeles", "metrolink_line": "Union Station", "metrolink_station": "Union Station"}}}
{"id": "ca_metrolink:ralphs_sherman_oaks", "name": "Ralphs", "address": {"street1": "14440 Burbank Blvd.", "street2": null, "city": "Sherman Oaks", "state": "CA", "zip": null}, "location": null, "contact": null, "languages": null, "opening_dates": null, "opening_hours": null, "availability": null, "inventory": null, "access": null, "parent_organization": null, "links": null, "notes": ["ca_metrolink_directions: Near the Van Nuys station on the Ventura County line."], "active": null, "source": {"source": "ca_metrolink", "id": "ralphs_sherman_oaks", "fetched_from_uri": "https://register.metrolinktrains.com/web-assets/vax-sites/index.php", "fetched_at": "2021-05-22T19:52:22.499161", "published_at": null, "data": {"name": "Ralphs", "address": "14440 Burbank Blvd.", "city": "Sherman Oaks", "metrolink_line": "Ventura County", "metrolink_station": "Van Nuys"}}}
{"id": "ca_metrolink:ralphs_burbank", "name": "Ralphs", "address": {"street1": "1100 N San Fernando Blvd.", "street2": null, "city": "Burbank", "state": "CA", "zip": null}, "location": null, "contact": null, "languages": null, "opening_dates": null, "opening_hours": null, "availability": null, "inventory": null, "access": null, "parent_organization": null, "links": null, "notes": ["ca_metrolink_directions: Near the Burbank - Downtown station on the Ventura County - Antelope Valley line."], "active": null, "source": {"source": "ca_metrolink", "id": "ralphs_burbank", "fetched_from_uri": "https://register.metrolinktrains.com/web-assets/vax-sites/index.php", "fetched_at": "2021-05-22T19:52:22.499161", "published_at": null, "data": {"name": "Ralphs", "address": "1100 N San Fernando Blvd.", "city": "Burbank", "metrolink_line": "Ventura County - Antelope Valley", "metrolink_station": "Burbank - Downtown"}}}
{"id": "ca_metrolink:ralphs_stevenson_ranch", "name": "Ralphs", "address": {"street1": "24975 Pico Canyon Rd.", "street2": null, "city": "Stevenson Ranch", "state": "CA", "zip": null}, "location": null, "contact": null, "languages": null, "opening_dates": null, "opening_hours": null, "availability": null, "inventory": null, "access": null, "parent_organization": null, "links": null, "notes": ["ca_metrolink_directions: Near the Newhall station on the Antelope Valley line."], "active": null, "source": {"source": "ca_metrolink", "id": "ralphs_stevenson_ranch", "fetched_from_uri": "https://register.metrolinktrains.com/web-assets/vax-sites/index.php", "fetched_at": "2021-05-22T19:52:22.499161", "published_at": null, "data": {"name": "Ralphs", "address": "24975 Pico Canyon Rd.", "city": "Stevenson Ranch", "metrolink_line": "Antelope Valley", "metrolink_station": "Newhall"}}}
{"id": "ca_metrolink:rite_aid_montebello", "name": "Rite Aid", "address": {"street1": "802 Beverly Blvd.", "street2": null, "city": "Montebello", "state": "CA", "zip": null}, "location": null, "contact": null, "languages": null, "opening_dates": null, "opening_hours": null, "availability": null, "inventory": null, "access": null, "parent_organization": null, "links": null, "notes": ["ca_metrolink_directions: Near the Montebello/ Commerce station on the Riverside line."], "active": null, "source": {"source": "ca_metrolink", "id": "rite_aid_montebello", "fetched_from_uri": "https://register.metrolinktrains.com/web-assets/vax-sites/index.php", "fetched_at": "2021-05-22T19:52:22.499161", "published_at": null, "data": {"name": "Rite Aid", "address": "802 Beverly Blvd.", "city": "Montebello", "metrolink_line": "Riverside", "metrolink_station": "Montebello/ Commerce"}}}
{"id": "ca_metrolink:rite_aid_rosemead", "name": "Rite Aid", "address": {"street1": "8914 Valley Blvd.", "street2": null, "city": "Rosemead", "state": "CA", "zip": null}, "location": null, "contact": null, "languages": null, "opening_dates": null, "opening_hours": null, "availability": null, "inventory": null, "access": null, "parent_organization": null, "links": null, "notes": ["ca_metrolink_directions: Near the El Monte station on the San Bernardino line."], "active": null, "source": {"source": "ca_metrolink", "id": "rite_aid_rosemead", "fetched_from_uri": "https://register.metrolinktrains.com/web-assets/vax-sites/index.php", "fetched_at": "2021-05-22T19:52:22.499161", "published_at": null, "data": {"name": "Rite Aid", "address": "8914 Valley Blvd.", "city": "Rosemead", "metrolink_line": "San Bernardino", "metrolink_station": "El Monte"}}}
{"id": "ca_metrolink:vons_los_angeles", "name": "Vons", "address": {"street1": "4520 Sunset Blvd.", "street2": null, "city": "Los Angeles", "state": "CA", "zip": null}, "location": null, "contact": null, "languages": null, "opening_dates": null, "opening_hours": null, "availability": null, "inventory": null, "access": null, "parent_organization": null, "links": null, "notes": ["ca_metrolink_directions: Near the Glendale station on the Ventura County - Antelope Valley line."], "active": null, "source": {"source": "ca_metrolink", "id": "vons_los_angeles", "fetched_from_uri": "https://register.metrolinktrains.com/web-assets/vax-sites/index.php", "fetched_at": "2021-05-22T19:52:22.499161", "published_at": null, "data": {"name": "Vons", "address": "4520 Sunset Blvd.", "city": "Los Angeles", "metrolink_line": "Ventura County - Antelope Valley", "metrolink_station": "Glendale"}}}
{"id": "ca_metrolink:vons_claremont", "name": "Vons", "address": {"street1": "550 E Baseline Rd.", "street2": null, "city": "Claremont", "state": "CA", "zip": null}, "location": null, "contact": null, "languages": null, "opening_dates": null, "opening_hours": null, "availability": null, "inventory": null, "access": null, "parent_organization": null, "links": null, "notes": ["ca_metrolink_directions: Near the Claremont station on the San Bernardino line."], "active": null, "source": {"source": "ca_metrolink", "id": "vons_claremont", "fetched_from_uri": "https://register.metrolinktrains.com/web-assets/vax-sites/index.php", "fetched_at": "2021-05-22T19:52:22.499161", "published_at": null, "data": {"name": "Vons", "address": "550 E Baseline Rd.", "city": "Claremont", "metrolink_line": "San Bernardino", "metrolink_station": "Claremont"}}}
{"id": "ca_metrolink:vons_la_verne", "name": "Vons", "address": {"street1": "1600 Foothill Blvd.", "street2": null, "city": "La Verne", "state": "CA", "zip": null}, "location": null, "contact": null, "languages": null, "opening_dates": null, "opening_hours": null, "availability": null, "inventory": null, "access": null, "parent_organization": null, "links": null, "notes": ["ca_metrolink_directions: Near the Pomona - North station on the San Bernardino line."], "active": null, "source": {"source": "ca_metrolink", "id": "vons_la_verne", "fetched_from_uri": "https://register.metrolinktrains.com/web-assets/vax-sites/index.php", "fetched_at": "2021-05-22T19:52:22.499161", "published_at": null, "data": {"name": "Vons", "address": "1600 Foothill Blvd.", "city": "La Verne", "metrolink_line": "San Bernardino", "metrolink_station": "Pomona - North"}}}
{"id": "ca_metrolink:vons_glendale", "name": "Vons", "address": {"street1": "311 W Los Feliz Rd.", "street2": null, "city": "Glendale", "state": "CA", "zip": null}, "location": null, "contact": null, "languages": null, "opening_dates": null, "opening_hours": null, "availability": null, "inventory": null, "access": null, "parent_organization": null, "links": null, "notes": ["ca_metrolink_directions: Near the Glendale station on the Ventura County - Antelope Valley line."], "active": null, "source": {"source": "ca_metrolink", "id": "vons_glendale", "fetched_from_uri": "https://register.metrolinktrains.com/web-assets/vax-sites/index.php", "fetched_at": "2021-05-22T19:52:22.499161", "published_at": null, "data": {"name": "Vons", "address": "311 W Los Feliz Rd.", "city": "Glendale", "metrolink_line": "Ventura County - Antelope Valley", "metrolink_station": "Glendale"}}}
{"id": "ca_metrolink:disneyland_resort__toy_story_parking_lot__anaheim", "name": "Disneyland Resort (Toy Story Parking Lot)", "address": {"street1": "300 W. Katella Ave.", "street2": null, "city": "Anaheim", "state": "CA", "zip": null}, "location": null, "contact": null, "languages": null, "opening_dates": null, "opening_hours": null, "availability": null, "inventory": null, "access": null, "parent_organization": null, "links": null, "notes": ["ca_metrolink_directions: Near the Anaheim (Artic) station on the Orange County line."], "active": null, "source": {"source": "ca_metrolink", "id": "disneyland_resort__toy_story_parking_lot__anaheim", "fetched_from_uri": "https://register.metrolinktrains.com/web-assets/vax-sites/index.php", "fetched_at": "2021-05-22T19:52:22.499161", "published_at": null, "data": {"name": "Disneyland Resort (Toy Story Parking Lot)", "address": "300 W. Katella Ave.", "city": "Anaheim", "metrolink_line": "Orange County", "metrolink_station": "Anaheim (Artic)"}}}
{"id": "ca_metrolink:ontario_health_center_ontario", "name": "Ontario Health Center", "address": {"street1": "150 E. Holt Blvd.", "street2": null, "city": "Ontario", "state": "CA", "zip": null}, "location": null, "contact": null, "languages": null, "opening_dates": null, "opening_hours": null, "availability": null, "inventory": null, "access": null, "parent_organization": null, "links": null, "notes": ["ca_metrolink_directions: Near the Upland station on the San Bernardino line."], "active": null, "source": {"source": "ca_metrolink", "id": "ontario_health_center_ontario", "fetched_from_uri": "https://register.metrolinktrains.com/web-assets/vax-sites/index.php", "fetched_at": "2021-05-22T19:52:22.499161", "published_at": null, "data": {"name": "Ontario Health Center", "address": "150 E. Holt Blvd.", "city": "Ontario", "metrolink_line": "San Bernardino", "metrolink_station": "Upland"}}}
{"id": "ca_metrolink:san_bernardino_health_center_san_bernardino", "name": "San Bernardino Health Center", "address": {"street1": "606 E. Mill St.", "street2": null, "city": "San Bernardino", "state": "CA", "zip": null}, "location": null, "contact": null, "languages": null, "opening_dates": null, "opening_hours": null, "availability": null, "inventory": null, "access": null, "parent_organization": null, "links": null, "notes": ["ca_metrolink_directions: Near the San Bernardino - Downtown station on the San Bernardino line."], "active": null, "source": {"source": "ca_metrolink", "id": "san_bernardino_health_center_san_bernardino", "fetched_from_uri": "https://register.metrolinktrains.com/web-assets/vax-sites/index.php", "fetched_at": "2021-05-22T19:52:22.499161", "published_at": null, "data": {"name": "San Bernardino Health Center", "address": "606 E. Mill St.", "city": "San Bernardino", "metrolink_line": "San Bernardino", "metrolink_station": "San Bernardino - Downtown"}}}
{"id": "ca_metrolink:armc_family_health_center-westside_clinic_rialto", "name": "ARMC Family Health Center-Westside Clinic", "address": {"street1": "850 E Foothill Blvd.", "street2": null, "city": "Rialto", "state": "CA", "zip": null}, "location": null, "contact": null, "languages": null, "opening_dates": null, "opening_hours": null, "availability": null, "inventory": null, "access": null, "parent_organization": null, "links": null, "notes": ["ca_metrolink_directions: Near the Rialto station on the San Bernardino line."], "active": null, "source": {"source": "ca_metrolink", "id": "armc_family_health_center-westside_clinic_rialto", "fetched_from_uri": "https://register.metrolinktrains.com/web-assets/vax-sites/index.php", "fetched_at": "2021-05-22T19:52:22.499161", "published_at": null, "data": {"name": "ARMC Family Health Center-Westside Clinic", "address": "850 E Foothill Blvd.", "city": "Rialto", "metrolink_line": "San Bernardino", "metrolink_station": "Rialto"}}}
{"id": "ca_metrolink:san_antonio_regional_hospital_upland", "name": "San Antonio Regional Hospital", "address": {"street1": "999 San Bernardino Road", "street2": null, "city": "Upland", "state": "CA", "zip": null}, "location": null, "contact": null, "languages": null, "opening_dates": null, "opening_hours": null, "availability": null, "inventory": null, "access": null, "parent_organization": null, "links": null, "notes": ["ca_metrolink_directions: Near the Upland station on the San Bernardino line."], "active": null, "source": {"source": "ca_metrolink", "id": "san_antonio_regional_hospital_upland", "fetched_from_uri": "https://register.metrolinktrains.com/web-assets/vax-sites/index.php", "fetched_at": "2021-05-22T19:52:22.499161", "published_at": null, "data": {"name": "San Antonio Regional Hospital", "address": "999 San Bernardino Road", "city": "Upland", "metrolink_line": "San Bernardino", "metrolink_station": "Upland"}}}
{"id": "ca_metrolink:sav-on_pharmacy__3177_rancho_cucamonga", "name": "Sav-On Pharmacy #3177", "address": {"street1": "8850 Foothill Blvd.", "street2": null, "city": "Rancho Cucamonga", "state": "CA", "zip": null}, "location": null, "contact": null, "languages": null, "opening_dates": null, "opening_hours": null, "availability": null, "inventory": null, "access": null, "parent_organization": null, "links": null, "notes": ["ca_metrolink_directions: Near the Upland station on the San Bernardino line."], "active": null, "source": {"source": "ca_metrolink", "id": "sav-on_pharmacy__3177_rancho_cucamonga", "fetched_from_uri": "https://register.metrolinktrains.com/web-assets/vax-sites/index.php", "fetched_at": "2021-05-22T19:52:22.499161", "published_at": null, "data": {"name": "Sav-On Pharmacy #3177", "address": "8850 Foothill Blvd.", "city": "Rancho Cucamonga", "metrolink_line": "San Bernardino", "metrolink_station": "Upland"}}}
{"id": "ca_metrolink:vons_pharmacy__2681_upland", "name": "Vons Pharmacy #2681", "address": {"street1": "81 West Foothill Blvd.", "street2": null, "city": "Upland", "state": "CA", "zip": null}, "location": null, "contact": null, "languages": null, "opening_dates": null, "opening_hours": null, "availability": null, "inventory": null, "access": null, "parent_organization": null, "links": null, "notes": ["ca_metrolink_directions: Near the Upland station on the San Bernardino line."], "active": null, "source": {"source": "ca_metrolink", "id": "vons_pharmacy__2681_upland", "fetched_from_uri": "https://register.metrolinktrains.com/web-assets/vax-sites/index.php", "fetched_at": "2021-05-22T19:52:22.499161", "published_at": null, "data": {"name": "Vons Pharmacy #2681", "address": "81 West Foothill Blvd.", "city": "Upland", "metrolink_line": "San Bernardino", "metrolink_station": "Upland"}}}
{"id": "ca_metrolink:corona_high_school_corona", "name": "Corona High School", "address": {"street1": "1150 W. 10 Street", "street2": null, "city": "Corona", "state": "CA", "zip": null}, "location": null, "contact": null, "languages": null, "opening_dates": null, "opening_hours": null, "availability": null, "inventory": null, "access": null, "parent_organization": null, "links": null, "notes": ["ca_metrolink_directions: Near the Corona - North Main station on the 91-PV / IE-OC line."], "active": null, "source": {"source": "ca_metrolink", "id": "corona_high_school_corona", "fetched_from_uri": "https://register.metrolinktrains.com/web-assets/vax-sites/index.php", "fetched_at": "2021-05-22T19:52:22.499161", "published_at": null, "data": {"name": "Corona High School", "address": "1150 W. 10 Street", "city": "Corona", "metrolink_line": "91-PV / IE-OC", "metrolink_station": "Corona - North Main"}}}
{"id": "ca_metrolink:south_oxnard_public_health__outside_tent__oxnard", "name": "South Oxnard Public Health (Outside Tent)", "address": {"street1": "2500 S. C Street", "street2": null, "city": "Oxnard", "state": "CA", "zip": null}, "location": null, "contact": null, "languages": null, "opening_dates": null, "opening_hours": null, "availability": null, "inventory": null, "access": null, "parent_organization": null, "links": null, "notes": ["ca_metrolink_directions: Near the Oxnard station on the Ventura County line."], "active": null, "source": {"source": "ca_metrolink", "id": "south_oxnard_public_health__outside_tent__oxnard", "fetched_from_uri": "https://register.metrolinktrains.com/web-assets/vax-sites/index.php", "fetched_at": "2021-05-22T19:52:22.499161", "published_at": null, "data": {"name": "South Oxnard Public Health (Outside Tent)", "address": "2500 S. C Street", "city": "Oxnard", "metrolink_line": "Ventura County", "metrolink_station": "Oxnard"}}}
{"id": "ca_metrolink:vons__5688_ventura", "name": "Vons #5688", "address": {"street1": "5688 Telephone Rd.", "street2": null, "city": "Ventura", "state": "CA", "zip": null}, "location": null, "contact": null, "languages": null, "opening_dates": null, "opening_hours": null, "availability": null, "inventory": null, "access": null, "parent_organization": null, "links": null, "notes": ["ca_metrolink_directions: Near the Ventura-East station on the Ventura County line."], "active": null, "source": {"source": "ca_metrolink", "id": "vons__5688_ventura", "fetched_from_uri": "https://register.metrolinktrains.com/web-assets/vax-sites/index.php", "fetched_at": "2021-05-22T19:52:22.499161", "published_at": null, "data": {"name": "Vons #5688", "address": "5688 Telephone Rd.", "city": "Ventura", "metrolink_line": "Ventura County", "metrolink_station": "Ventura-East"}}}
{"id": "ca_metrolink:vons__2436_oxnard", "name": "Vons #2436", "address": {"street1": "2101 North Rose Ave.", "street2": null, "city": "Oxnard", "state": "CA", "zip": null}, "location": null, "contact": null, "languages": null, "opening_dates": null, "opening_hours": null, "availability": null, "inventory": null, "access": null, "parent_organization": null, "links": null, "notes": ["ca_metrolink_directions: Near the Oxnard station on the Ventura County line."], "active": null, "source": {"source": "ca_metrolink", "id": "vons__2436_oxnard", "fetched_from_uri": "https://register.metrolinktrains.com/web-assets/vax-sites/index.php", "fetched_at": "2021-05-22T19:52:22.499161", "published_at": null, "data": {"name": "Vons #2436", "address": "2101 North Rose Ave.", "city": "Oxnard", "metrolink_line": "Ventura County", "metrolink_station": "Oxnard"}}}
{"id": "ca_metrolink:vons__2678_ventura", "name": "Vons #2678", "address": {"street1": "6040 Telegraph Rd.", "street2": null, "city": "Ventura", "state": "CA", "zip": null}, "location": null, "contact": null, "languages": null, "opening_dates": null, "opening_hours": null, "availability": null, "inventory": null, "access": null, "parent_organization": null, "links": null, "notes": ["ca_metrolink_directions: Near the Ventura-East station on the Ventura County line."], "active": null, "source": {"source": "ca_metrolink", "id": "vons__2678_ventura", "fetched_from_uri": "https://register.metrolinktrains.com/web-assets/vax-sites/index.php", "fetched_at": "2021-05-22T19:52:22.499161", "published_at": null, "data": {"name": "Vons #2678", "address": "6040 Telegraph Rd.", "city": "Ventura", "metrolink_line": "Ventura County", "metrolink_station": "Ventura-East"}}}
{"id": "ca_metrolink:vons__1913_oxnard", "name": "Vons #1913", "address": {"street1": "450 S Ventura Rd.", "street2": null, "city": "Oxnard", "state": "CA", "zip": null}, "location": null, "contact": null, "languages": null, "opening_dates": null, "opening_hours": null, "availability": null, "inventory": null, "access": null, "parent_organization": null, "links": null, "notes": ["ca_metrolink_directions: Near the Oxnard station on the Ventura County line."], "active": null, "source": {"source": "ca_metrolink", "id": "vons__1913_oxnard", "fetched_from_uri": "https://register.metrolinktrains.com/web-assets/vax-sites/index.php", "fetched_at": "2021-05-22T19:52:22.499161", "published_at": null, "data": {"name": "Vons #1913", "address": "450 S Ventura Rd.", "city": "Oxnard", "metrolink_line": "Ventura County", "metrolink_station": "Oxnard"}}}
{"id": "ca_metrolink:vons__2825_oxnard", "name": "Vons #2825", "address": {"street1": "1291 S Victoria Ave.", "street2": null, "city": "Oxnard", "state": "CA", "zip": null}, "location": null, "contact": null, "languages": null, "opening_dates": null, "opening_hours": null, "availability": null, "inventory": null, "access": null, "parent_organization": null, "links": null, "notes": ["ca_metrolink_directions: Near the Oxnard station on the Ventura County line."], "active": null, "source": {"source": "ca_metrolink", "id": "vons__2825_oxnard", "fetched_from_uri": "https://register.metrolinktrains.com/web-assets/vax-sites/index.php", "fetched_at": "2021-05-22T19:52:22.499161", "published_at": null, "data": {"name": "Vons #2825", "address": "1291 S Victoria Ave.", "city": "Oxnard", "metrolink_line": "Ventura County", "metrolink_station": "Oxnard"}}}
