{"id": "ny_northwell_health:63", "name": "Nassau - Hicksville Train Station (Hicksville, NY)", "address": {"street1": "Hicksville Avenue", "street2": null, "city": "Hicksville", "state": "NY", "zip": "11801"}, "location": {"latitude": 40.766, "longitude": -73.5378}, "contact": [{"contact_type": "booking", "phone": null, "website": "https://northwellvaccine.force.com/s/?id=a1T4x000007Tmr0EAC", "email": null, "other": null}], "languages": null, "opening_dates": null, "opening_hours": null, "availability": null, "inventory": [{"vaccine": "johnson_johnson_janssen", "supply_level": null}], "access": null, "parent_organization": null, "links": null, "notes": null, "active": null, "source": {"source": "ny_northwell_health", "id": "63", "fetched_from_uri": "https://www.northwell.edu/coronavirus-covid-19/vaccine/locations", "fetched_at": "2021-05-20T07:57:19.417252", "published_at": null, "data": {"id": 63, "name": "Nassau - Hicksville Train Station (Hicksville, NY) -- J&J", "address": "Hicksville Avenue", "suite": "", "city": "Hicksville", "state": "NY", "zip": "11801", "county": "Nassua", "latitude": "40.766", "longitude": "-73.5378", "program_url": "https://northwellvaccine.force.com/s/?id=a1T4x000007Tmr0EAC", "vaccine_manufacturer": "Johnson & Johnson (Janssen)", "distance": null}}}
{"id": "ny_northwell_health:59", "name": "Suffolk - Cherry Grove Community House (180 Bayview Walk)", "address": {"street1": "180 Bayview Walk", "street2": null, "city": "Bay Shore", "state": "NY", "zip": "11706"}, "location": {"latitude": 40.7168, "longitude": -73.1911}, "contact": [{"contact_type": "booking", "phone": null, "website": "https://northwellvaccine.force.com/s/?id=a1T4x000007TktiEAC", "email": null, "other": null}], "languages": null, "opening_dates": null, "opening_hours": null, "availability": null, "inventory": [{"vaccine": "johnson_johnson_janssen", "supply_level": null}], "access": null, "parent_organization": null, "links": null, "notes": null, "active": null, "source": {"source": "ny_northwell_health", "id": "59", "fetched_from_uri": "https://www.northwell.edu/coronavirus-covid-19/vaccine/locations", "fetched_at": "2021-05-20T07:57:19.417252", "published_at": null, "data": {"id": 59, "name": "Suffolk - Cherry Grove Community House (180 Bayview Walk) -- J&J", "address": "180 Bayview Walk", "suite": "", "city": "Bay Shore", "state": "NY", "zip": "11706", "county": "Suffolk", "latitude": "40.7168", "longitude": "-73.1911", "program_url": "https://northwellvaccine.force.com/s/?id=a1T4x000007TktiEAC", "vaccine_manufacturer": "Johnson & Johnson (Janssen)", "distance": null}}}
{"id": "ny_northwell_health:58", "name": "Suffolk - Bohemia Babies R Us (5181 Sunrise Hwy)", "address": {"street1": "5181 Sunrise Highway", "street2": null, "city": "Bohemia", "state": "NY", "zip": "11716"}, "location": {"latitude": 40.7648, "longitude": -73.0926}, "contact": [{"contact_type": "booking", "phone": null, "website": "https://northwellvaccine.force.com/s/?id=a1T4x000007TfOLEA0", "email": null, "other": null}], "languages": null, "opening_dates": null, "opening_hours": null, "availability": null, "inventory": [{"vaccine": "pfizer_biontech", "supply_level": null}], "access": null, "parent_organization": null, "links": null, "notes": null, "active": null, "source": {"source": "ny_northwell_health", "id": "58", "fetched_from_uri": "https://www.northwell.edu/coronavirus-covid-19/vaccine/locations", "fetched_at": "2021-05-20T07:57:19.417252", "published_at": null, "data": {"id": 58, "name": "Suffolk - Bohemia Babies R Us (5181 Sunrise Hwy) -- Pfizer", "address": "5181 Sunrise Highway", "suite": "", "city": "Bohemia", "state": "NY", "zip": "11716", "county": "Suffolk", "latitude": "40.7648", "longitude": "-73.0926", "program_url": "https://northwellvaccine.force.com/s/?id=a1T4x000007TfOLEA0", "vaccine_manufacturer": "Pfizer", "distance": null}}}
{"id": "ny_northwell_health:56", "name": "Suffolk - Riverhead Entenmann (4 West 2nd St)", "address": {"street1": "4 West 2nd St", "street2": null, "city": "Riverhead", "state": "NY", "zip": "11901"}, "location": {"latitude": 40.9188, "longitude": -72.664}, "contact": [{"contact_type": "booking", "phone": null, "website": "https://northwellvaccine.force.com/s/?id=a1T4x000007TT2OEAW", "email": null, "other": null}], "languages": null, "opening_dates": null, "opening_hours": null, "availability": null, "inventory": [{"vaccine": "pfizer_biontech", "supply_level": null}], "access": null, "parent_organization": null, "links": null, "notes": null, "active": null, "source": {"source": "ny_northwell_health", "id": "56", "fetched_from_uri": "https://www.northwell.edu/coronavirus-covid-19/vaccine/locations", "fetched_at": "2021-05-20T07:57:19.417252", "published_at": null, "data": {"id": 56, "name": "Suffolk - Riverhead Entenmann (4 West 2nd St) -- Pfizer", "address": "4 West 2nd St", "suite": "", "city": "Riverhead", "state": "NY", "zip": "11901", "county": "Suffolk", "latitude": "40.9188", "longitude": "-72.664", "program_url": "https://northwellvaccine.force.com/s/?id=a1T4x000007TT2OEAW", "vaccine_manufacturer": "Pfizer", "distance": null}}}
{"id": "ny_northwell_health:54", "name": "Westchester - Pier 1 (792 North Bedford Road)", "address": {"street1": "792 Bedford Road", "street2": null, "city": "Bedford Hills", "state": "NY", "zip": "10507"}, "location": {"latitude": 41.2214, "longitude": -73.7155}, "contact": [{"contact_type": "booking", "phone": null, "website": "https://northwellvaccine.force.com/s/?id=a1T4x000007Tk59EAC", "email": null, "other": null}], "languages": null, "opening_dates": null, "opening_hours": null, "availability": null, "inventory": [{"vaccine": "pfizer_biontech", "supply_level": null}], "access": null, "parent_organization": null, "links": null, "notes": null, "active": null, "source": {"source": "ny_northwell_health", "id": "54", "fetched_from_uri": "https://www.northwell.edu/coronavirus-covid-19/vaccine/locations", "fetched_at": "2021-05-20T07:57:19.417252", "published_at": null, "data": {"id": 54, "name": "Westchester - Pier 1 (792 North Bedford Road) -- Pfizer", "address": "792 Bedford Road", "suite": "", "city": "Bedford Hills", "state": "NY", "zip": "10507", "county": "Westchester", "latitude": "41.2214", "longitude": "-73.7155", "program_url": "https://northwellvaccine.force.com/s/?id=a1T4x000007Tk59EAC", "vaccine_manufacturer": "Pfizer", "distance": null}}}
{"id": "ny_northwell_health:53", "name": "Nassau - New Hyde Park (1 Marcus Ave)", "address": {"street1": "1 Marcus Avenue", "street2": null, "city": "New Hyde Park", "state": "NY", "zip": "11040"}, "location": {"latitude": 40.7577, "longitude": -73.7087}, "contact": [{"contact_type": "booking", "phone": null, "website": "https://northwellvaccine.force.com/s/?id=a1T4x000007Tk4kEAC", "email": null, "other": null}], "languages": null, "opening_dates": null, "opening_hours": null, "availability": null, "inventory": [{"vaccine": "pfizer_biontech", "supply_level": null}], "access": null, "parent_organization": null, "links": null, "notes": null, "active": null, "source": {"source": "ny_northwell_health", "id": "53", "fetched_from_uri": "https://www.northwell.edu/coronavirus-covid-19/vaccine/locations", "fetched_at": "2021-05-20T07:57:19.417252", "published_at": null, "data": {"id": 53, "name": "Nassau - New Hyde Park (1 Marcus Ave) -- Pfizer", "address": "1 Marcus Avenue", "suite": "", "city": "New Hyde Park", "state": "NY", "zip": "11040", "county": "Nassau", "latitude": "40.7577", "longitude": "-73.7087", "program_url": "https://northwellvaccine.force.com/s/?id=a1T4x000007Tk4kEAC", "vaccine_manufacturer": "Pfizer", "distance": null}}}
{"id": "ny_northwell_health:44", "name": "Nassau - Kennedy Memorial Park (335 Greenwich St)", "address": {"street1": "335 Greenwich Street", "street2": null, "city": "Hempstead", "state": "NY", "zip": "11550"}, "location": {"latitude": 40.6991, "longitude": -73.6129}, "contact": [{"contact_type": "booking", "phone": null, "website": "https://northwellvaccine.force.com/s/?id=a1T4x000007TgNEEA0", "email": null, "other": null}], "languages": null, "opening_dates": null, "opening_hours": null, "availability": null, "inventory": [{"vaccine": "pfizer_biontech", "supply_level": null}], "access": null, "parent_organization": null, "links": null, "notes": null, "active": null, "source": {"source": "ny_northwell_health", "id": "44", "fetched_from_uri": "https://www.northwell.edu/coronavirus-covid-19/vaccine/locations", "fetched_at": "2021-05-20T07:57:19.417252", "published_at": null, "data": {"id": 44, "name": "Nassau - Kennedy Memorial Park (335 Greenwich St) -- Pfizer", "address": "335 Greenwich Street", "suite": "", "city": "Hempstead", "state": "NY", "zip": "11550", "county": "Nassau", "latitude": "40.6991", "longitude": "-73.6129", "program_url": "https://northwellvaccine.force.com/s/?id=a1T4x000007TgNEEA0", "vaccine_manufacturer": "Pfizer", "distance": null}}}
{"id": "ny_northwell_health:42", "name": "Queens - Church of Corona (100-10 Astoria Blvd)", "address": {"street1": "100-10 Astoria Boulevard", "street2": null, "city": "Queens", "state": "NY", "zip": "11369"}, "location": {"latitude": 40.7615, "longitude": -73.8689}, "contact": [{"contact_type": "booking", "phone": null, "website": "https://northwellvaccine.force.com/s/?id=a1T4x000007TfP9EAK", "email": null, "other": null}], "languages": null, "opening_dates": null, "opening_hours": null, "availability": null, "inventory": [{"vaccine": "pfizer_biontech", "supply_level": null}], "access": null, "parent_organization": null, "links": null, "notes": null, "active": null, "source": {"source": "ny_northwell_health", "id": "42", "fetched_from_uri": "https://www.northwell.edu/coronavirus-covid-19/vaccine/locations", "fetched_at": "2021-05-20T07:57:19.417252", "published_at": null, "data": {"id": 42, "name": "Queens - Church of Corona (100-10 Astoria Blvd) -- Pfizer", "address": "100-10 Astoria Boulevard", "suite": "", "city": "Queens", "state": "NY", "zip": "11369", "county": "Queens", "latitude": "40.7615", "longitude": "-73.8689", "program_url": "https://northwellvaccine.force.com/s/?id=a1T4x000007TfP9EAK", "vaccine_manufacturer": "Pfizer", "distance": null}}}
{"id": "ny_northwell_health:30", "name": "Nassau - Elmont (2150 Hempstead Tpk)", "address": {"street1": "2150 Hempstead Turnpike", "street2": null, "city": "Elmont", "state": "NY", "zip": "11003"}, "location": {"latitude": 40.7095, "longitude": -73.7204}, "contact": [{"contact_type": "booking", "phone": null, "website": "https://northwellvaccine.force.com/s/?id=a1T4x000007TWHNEA4", "email": null, "other": null}], "languages": null, "opening_dates": null, "opening_hours": null, "availability": null, "inventory": [{"vaccine": "pfizer_biontech", "supply_level": null}], "access": null, "parent_organization": null, "links": null, "notes": null, "active": null, "source": {"source": "ny_northwell_health", "id": "30", "fetched_from_uri": "https://www.northwell.edu/coronavirus-covid-19/vaccine/locations", "fetched_at": "2021-05-20T07:57:19.417252", "published_at": null, "data": {"id": 30, "name": "Nassau - Elmont (2150 Hempstead Tpk) -- Pfizer", "address": "2150 Hempstead Turnpike", "suite": "", "city": "Elmont", "state": "NY", "zip": "11003", "county": "Nassau", "latitude": "40.7095", "longitude": "-73.7204", "program_url": "https://northwellvaccine.force.com/s/?id=a1T4x000007TWHNEA4", "vaccine_manufacturer": "Pfizer", "distance": null}}}
{"id": "ny_northwell_health:26", "name": "Suffolk - Dolan (284 Pulaski Rd.)", "address": {"street1": "284 Pulaski Road", "street2": null, "city": "Greenlawn", "state": "NY", "zip": "11740"}, "location": {"latitude": 40.8584, "longitude": -73.3884}, "contact": [{"contact_type": "booking", "phone": null, "website": "https://northwellvaccine.force.com/s/?id=a1T4x000007TWHNEA4", "email": null, "other": null}], "languages": null, "opening_dates": null, "opening_hours": null, "availability": null, "inventory": [{"vaccine": "moderna", "supply_level": null}], "access": null, "parent_organization": null, "links": null, "notes": null, "active": null, "source": {"source": "ny_northwell_health", "id": "26", "fetched_from_uri": "https://www.northwell.edu/coronavirus-covid-19/vaccine/locations", "fetched_at": "2021-05-20T07:57:19.417252", "published_at": null, "data": {"id": 26, "name": "Suffolk - Dolan (284 Pulaski Rd.) -- Moderna", "address": "284 Pulaski Road", "suite": "", "city": "Greenlawn", "state": "NY", "zip": "11740", "county": "Suffolk", "latitude": "40.8584", "longitude": "-73.3884", "program_url": "https://northwellvaccine.force.com/s/?id=a1T4x000007TWHNEA4", "vaccine_manufacturer": "Moderna", "distance": null}}}
{"id": "ny_northwell_health:14", "name": "Manhattan - Lenox Health Greenwich Village (200 W. 13th)", "address": {"street1": "200 West 13th Street", "street2": null, "city": "New York", "state": "NY", "zip": "10011"}, "location": {"latitude": 40.7379, "longitude": -74.0008}, "contact": [{"contact_type": "booking", "phone": null, "website": "https://northwellvaccine.force.com/s/?id=a1T4x000007TWHNEA4", "email": null, "other": null}], "languages": null, "opening_dates": null, "opening_hours": null, "availability": null, "inventory": [{"vaccine": "pfizer_biontech", "supply_level": null}], "access": null, "parent_organization": null, "links": null, "notes": null, "active": null, "source": {"source": "ny_northwell_health", "id": "14", "fetched_from_uri": "https://www.northwell.edu/coronavirus-covid-19/vaccine/locations", "fetched_at": "2021-05-20T07:57:19.417252", "published_at": null, "data": {"id": 14, "name": "Manhattan - Lenox Health Greenwich Village (200 W. 13th) -- Pfizer", "address": "200 West 13th Street", "suite": "", "city": "New York", "state": "NY", "zip": "10011", "county": "New York", "latitude": "40.7379", "longitude": "-74.0008", "program_url": "https://northwellvaccine.force.com/s/?id=a1T4x000007TWHNEA4", "vaccine_manufacturer": "Pfizer", "distance": null}}}
