{"id": "az_ph_pinal_clinics_gov:apache_junction_clinic_apache_junction", "name": "Apache Junction Clinic", "address": {"street1": "575 N Idaho Rd", "street2": "Ste 301", "city": "Apache Junction", "state": "AZ", "zip": "85119"}, "location": null, "contact": [{"contact_type": null, "phone": "(866) 960-0633", "website": null, "email": null, "other": null}], "languages": null, "opening_dates": null, "opening_hours": [{"day": "tuesday", "opens": "08:00", "closes": "18:00"}, {"day": "wednesday", "opens": "08:00", "closes": "18:00"}, {"day": "thursday", "opens": "08:00", "closes": "18:00"}, {"day": "friday", "opens": "08:00", "closes": "18:00"}], "availability": null, "inventory": null, "access": null, "parent_organization": null, "links": null, "notes": ["Hours: Tuesday to Friday 8am-6pm"], "active": null, "source": {"source": "az_ph_pinal_clinics_gov", "id": "apache_junction_clinic_apache_junction", "fetched_from_uri": "https://www.pinalcountyaz.gov/publichealth/Pages/OfficeLocations.aspx", "fetched_at": "2021-05-27T08:06:28.162690", "published_at": null, "data": {"Clinic": "Apache Junction Clinic", "Address": "575 N Idaho Rd, Ste 301 Apache Junction, AZ 85119", "City": "Apache Junction", "Nursing Hours": "Tuesday to Friday 8am-6pm", "WIC Hours": "Tuesday to Friday 8am-6pm", "Phone Number": "1-866-960-0633"}}}
{"id": "az_ph_pinal_clinics_gov:casa_grande_clinic_casa_grande", "name": "Casa Grande Clinic", "address": {"street1": "1729 N Trekell Rd", "street2": "Ste 120", "city": "Casa Grande", "state": "AZ", "zip": "85122"}, "location": null, "contact": [{"contact_type": null, "phone": "(866) 960-0633", "website": null, "email": null, "other": null}], "languages": null, "opening_dates": null, "opening_hours": [{"day": "monday", "opens": "08:00", "closes": "18:00"}, {"day": "tuesday", "opens": "08:00", "closes": "18:00"}, {"day": "wednesday", "opens": "08:00", "closes": "18:00"}, {"day": "thursday", "opens": "08:00", "closes": "18:00"}, {"day": "friday", "opens": "08:00", "closes": "18:00"}], "availability": null, "inventory": null, "access": null, "parent_organization": null, "links": null, "notes": ["Hours: Monday to Friday 8am-6pm"], "active": null, "source": {"source": "az_ph_pinal_clinics_gov", "id": "casa_grande_clinic_casa_grande", "fetched_from_uri": "https://www.pinalcountyaz.gov/publichealth/Pages/OfficeLocations.aspx", "fetched_at": "2021-05-27T08:06:28.162690", "published_at": null, "data": {"Clinic": "Casa Grande Clinic", "Address": "1729 N Trekell Rd, Ste 120 Casa Grande, AZ 85122", "City": "Casa Grande", "Nursing Hours": "Monday to Friday 8am-6pm", "WIC Hours": "Monday to Friday 8am-6pm", "Phone Number": "1-866-960-0633"}}}
{"id": "az_ph_pinal_clinics_gov:coolidge_clinic_coolidge", "name": "Coolidge Clinic", "address": {"street1": "119 W Central", "street2": null, "city": "Coolidge", "state": "AZ", "zip": "85128"}, "location": null, "contact": [{"contact_type": null, "phone": "(866) 960-0633", "website": null, "email": null, "other": null}], "languages": null, "opening_dates": null, "opening_hours": [{"day": "thursday", "opens": "08:00", "closes": "18:00"}, {"day": "friday", "opens": "08:00", "closes": "18:00"}], "availability": null, "inventory": null, "access": null, "parent_organization": null, "links": null, "notes": ["Hours: Thursday to Friday 8am-6pm"], "active": null, "source": {"source": "az_ph_pinal_clinics_gov", "id": "coolidge_clinic_coolidge", "fetched_from_uri": "https://www.pinalcountyaz.gov/publichealth/Pages/OfficeLocations.aspx", "fetched_at": "2021-05-27T08:06:28.162690", "published_at": null, "data": {"Clinic": "Coolidge Clinic", "Address": "119 W Central\n                    Coolidge, AZ 85128", "City": "Coolidge", "Nursing Hours": "Thursday to Friday 8am-6pm", "WIC Hours": "Thursday to Friday 8am-6pm", "Phone Number": "1-866-960-0633"}}}
{"id": "az_ph_pinal_clinics_gov:eloy_clinic_eloy", "name": "Eloy Clinic", "address": {"street1": "302 E 5th St", "street2": null, "city": "Eloy", "state": "AZ", "zip": "85131"}, "location": null, "contact": [{"contact_type": null, "phone": "(866) 960-0633", "website": null, "email": null, "other": null}], "languages": null, "opening_dates": null, "opening_hours": [{"day": "wednesday", "opens": "08:00", "closes": "18:00"}], "availability": null, "inventory": null, "access": null, "parent_organization": null, "links": null, "notes": ["Hours: Wednesdays 8am-6pm"], "active": null, "source": {"source": "az_ph_pinal_clinics_gov", "id": "eloy_clinic_eloy", "fetched_from_uri": "https://www.pinalcountyaz.gov/publichealth/Pages/OfficeLocations.aspx", "fetched_at": "2021-05-27T08:06:28.162690", "published_at": null, "data": {"Clinic": "Eloy Clinic", "Address": "302 E 5th St Eloy,\n                    AZ 85131", "City": "Eloy", "Nursing Hours": "Wednesdays 8am-6pm", "WIC Hours": "Wednesdays 8am-6pm", "Phone Number": "1-866-960-0633"}}}
{"id": "az_ph_pinal_clinics_gov:kearny_clinic_kearny", "name": "Kearny Clinic", "address": {"street1": "355 Alden Rd", "street2": null, "city": "Kearny", "state": "AZ", "zip": "85137"}, "location": null, "contact": [{"contact_type": null, "phone": "(866) 960-0633", "website": null, "email": null, "other": null}], "languages": null, "opening_dates": null, "opening_hours": [{"day": "wednesday", "opens": "08:00", "closes": "18:00"}], "availability": null, "inventory": null, "access": null, "parent_organization": null, "links": null, "notes": ["Hours: Wednesdays 8am-6pm"], "active": null, "source": {"source": "az_ph_pinal_clinics_gov", "id": "kearny_clinic_kearny", "fetched_from_uri": "https://www.pinalcountyaz.gov/publichealth/Pages/OfficeLocations.aspx", "fetched_at": "2021-05-27T08:06:28.162690", "published_at": null, "data": {"Clinic": "Kearny Clinic", "Address": "355 Alden Rd\n                    Kearny, AZ 85137", "City": "Kearny", "Nursing Hours": "Third Wednesday of the Month 8am-6pm", "WIC Hours": "Wednesdays 8am-6pm", "Phone Number": "1-866-960-0633"}}}
{"id": "az_ph_pinal_clinics_gov:mammoth_clinic_mammoth", "name": "Mammoth Clinic", "address": {"street1": "110 Main St", "street2": null, "city": "Mammoth", "state": "AZ", "zip": "85618"}, "location": null, "contact": [{"contact_type": null, "phone": "(866) 960-0633", "website": null, "email": null, "other": null}], "languages": null, "opening_dates": null, "opening_hours": [{"day": "thursday", "opens": "08:00", "closes": "18:00"}], "availability": null, "inventory": null, "access": null, "parent_organization": null, "links": null, "notes": ["Hours: Thursdays 8am-6pm"], "active": null, "source": {"source": "az_ph_pinal_clinics_gov", "id": "mammoth_clinic_mammoth", "fetched_from_uri": "https://www.pinalcountyaz.gov/publichealth/Pages/OfficeLocations.aspx", "fetched_at": "2021-05-27T08:06:28.162690", "published_at": null, "data": {"Clinic": "Mammoth Clinic", "Address": "110 Main St\n                    Mammoth, AZ 85618", "City": "Mammoth", "Nursing Hours": "Thursday to Friday 8am-6pm", "WIC Hours": "Thursdays 8am-6pm", "Phone Number": "1-866-960-0633"}}}
{"id": "az_ph_pinal_clinics_gov:maricopa_clinic_maricopa", "name": "Maricopa Clinic", "address": {"street1": "41600 W\n                    Smith-Enke Rd", "street2": "Bldg 15", "city": "Maricopa", "state": "AZ", "zip": "85138"}, "location": null, "contact": [{"contact_type": null, "phone": "(866) 960-0633", "website": null, "email": null, "other": null}], "languages": null, "opening_dates": null, "opening_hours": [{"day": "tuesday", "opens": "08:00", "closes": "18:00"}, {"day": "wednesday", "opens": "08:00", "closes": "18:00"}, {"day": "thursday", "opens": "08:00", "closes": "18:00"}, {"day": "friday", "opens": "08:00", "closes": "18:00"}], "availability": null, "inventory": null, "access": null, "parent_organization": null, "links": null, "notes": ["Hours: Tuesday to Friday 8am-6pm"], "active": null, "source": {"source": "az_ph_pinal_clinics_gov", "id": "maricopa_clinic_maricopa", "fetched_from_uri": "https://www.pinalcountyaz.gov/publichealth/Pages/OfficeLocations.aspx", "fetched_at": "2021-05-27T08:06:28.162690", "published_at": null, "data": {"Clinic": "Maricopa Clinic", "Address": "41600 W\n                    Smith-Enke Rd, Bldg 15 Maricopa, AZ 85138", "City": "Maricopa", "Nursing Hours": "Tuesday to Friday 8am-6pm", "WIC Hours": "Tuesday to Friday 8am-6pm", "Phone Number": "1-866-960-0633"}}}
{"id": "az_ph_pinal_clinics_gov:oracle_clinic_oracle", "name": "Oracle Clinic", "address": {"street1": "1870 W\n                    American Ave", "street2": null, "city": "Oracle", "state": "AZ", "zip": "85623"}, "location": null, "contact": [{"contact_type": null, "phone": "(866) 960-0633", "website": null, "email": null, "other": null}], "languages": null, "opening_dates": null, "opening_hours": [{"day": "friday", "opens": "08:00", "closes": "18:00"}], "availability": null, "inventory": null, "access": null, "parent_organization": null, "links": null, "notes": ["Hours: Second Friday of the Month 8am-6pm"], "active": null, "source": {"source": "az_ph_pinal_clinics_gov", "id": "oracle_clinic_oracle", "fetched_from_uri": "https://www.pinalcountyaz.gov/publichealth/Pages/OfficeLocations.aspx", "fetched_at": "2021-05-27T08:06:28.162690", "published_at": null, "data": {"Clinic": "Oracle Clinic", "Address": "1870 W\n                    American Ave Oracle, AZ 85623", "City": "Oracle", "Nursing Hours": "", "WIC Hours": "Second Friday of the Month 8am-6pm", "Phone Number": "1-866-960-0633"}}}
{"id": "az_ph_pinal_clinics_gov:san_manuel_clinic__located_at_sun_life_clinic__san_manuel_", "name": "San Manuel Clinic (Located at Sun Life Clinic)", "address": {"street1": "23 S McNab\n                    Pkwy", "street2": null, "city": "San Manuel", "state": "AZ", "zip": "85631"}, "location": null, "contact": [{"contact_type": null, "phone": "(866) 960-0633", "website": null, "email": null, "other": null}], "languages": null, "opening_dates": null, "opening_hours": [{"day": "tuesday", "opens": "07:00", "closes": "17:00"}], "availability": null, "inventory": null, "access": null, "parent_organization": null, "links": null, "notes": ["Hours: Second and Fourth Tuesday of the Month 7am-5pm"], "active": null, "source": {"source": "az_ph_pinal_clinics_gov", "id": "san_manuel_clinic__located_at_sun_life_clinic__san_manuel_", "fetched_from_uri": "https://www.pinalcountyaz.gov/publichealth/Pages/OfficeLocations.aspx", "fetched_at": "2021-05-27T08:06:28.162690", "published_at": null, "data": {"Clinic": "San Manuel Clinic (Located at Sun Life Clinic)", "Address": "23 S McNab\n                    Pkwy San Manuel, AZ 85631", "City": "San Manuel ", "Nursing Hours": "", "WIC Hours": "Second and Fourth Tuesday of the Month 7am-5pm", "Phone Number": "1-866-960-0633"}}}
{"id": "az_ph_pinal_clinics_gov:san_tan_valley_clinic_san_tan_valley", "name": "San Tan Valley Clinic", "address": {"street1": "36235 N Gantzel Rd", "street2": null, "city": "San Tan Valley", "state": "AZ", "zip": "85140"}, "location": null, "contact": [{"contact_type": null, "phone": "(866) 960-0633", "website": null, "email": null, "other": null}], "languages": null, "opening_dates": null, "opening_hours": [{"day": "monday", "opens": "08:00", "closes": "18:00"}, {"day": "tuesday", "opens": "08:00", "closes": "18:00"}, {"day": "wednesday", "opens": "08:00", "closes": "18:00"}, {"day": "thursday", "opens": "08:00", "closes": "18:00"}], "availability": null, "inventory": null, "access": null, "parent_organization": null, "links": null, "notes": ["Hours: Monday to Thursday 8am-6pm"], "active": null, "source": {"source": "az_ph_pinal_clinics_gov", "id": "san_tan_valley_clinic_san_tan_valley", "fetched_from_uri": "https://www.pinalcountyaz.gov/publichealth/Pages/OfficeLocations.aspx", "fetched_at": "2021-05-27T08:06:28.162690", "published_at": null, "data": {"Clinic": "San Tan Valley Clinic", "Address": "36235 N Gantzel Rd San Tan Valley, AZ 85140", "City": "San Tan Valley", "Nursing Hours": "Monday to Thursday 8am-6pm", "WIC Hours": "Monday to Thursday 8am-6pm", "Phone Number": "1-866-960-0633"}}}
{"id": "az_ph_pinal_clinics_gov:superior_clinic_superior", "name": "Superior Clinic", "address": {"street1": "60 E Main St", "street2": null, "city": "Superior", "state": "AZ", "zip": "85173"}, "location": null, "contact": [{"contact_type": null, "phone": "(866) 960-0633", "website": null, "email": null, "other": null}], "languages": null, "opening_dates": null, "opening_hours": [{"day": "tuesday", "opens": "08:00", "closes": "18:00"}], "availability": null, "inventory": null, "access": null, "parent_organization": null, "links": null, "notes": ["Hours: First and Third Tuesday of the Month 8am-6pm"], "active": null, "source": {"source": "az_ph_pinal_clinics_gov", "id": "superior_clinic_superior", "fetched_from_uri": "https://www.pinalcountyaz.gov/publichealth/Pages/OfficeLocations.aspx", "fetched_at": "2021-05-27T08:06:28.162690", "published_at": null, "data": {"Clinic": "Superior Clinic", "Address": "60 E Main St\n                    Superior, AZ 85173", "City": "Superior", "Nursing Hours": " Third Tuesday of the Month 1pm-6pm", "WIC Hours": "First and Third Tuesday of the Month 8am-6pm", "Phone Number": "1-866-960-0633"}}}
