{"id": 35, "name": "Nassau - New Hyde Park (1 Marcus Ave) -- Moderna", "address": "1 Marcus Avenue", "suite": "", "city": "New Hyde Park", "state": "NY", "zip": "11040", "county": "Nassau", "latitude": "40.7577", "longitude": "-73.7087", "program_url": "https://northwellvaccine.force.com/s/?id=a1T4x000007TWHNEA4", "vaccine_manufacturer": "Moderna", "distance": null}
{"id": 32, "name": "Suffolk - Riverhead Entenmann (4 West 2nd St) -- Moderna", "address": "4 West 2nd Street", "suite": "", "city": "Riverhead", "state": "NY", "zip": "11901", "county": "Suffolk", "latitude": "40.9188", "longitude": "-72.664", "program_url": "https://northwellvaccine.force.com/s/?id=a1T4x000007TS3zEAG", "vaccine_manufacturer": "Moderna", "distance": null}
{"id": 30, "name": "Nassau - Elmont (2150 Hempstead Tpk) -- Pfizer", "address": "2150 Hempstead Turnpike", "suite": "", "city": "Elmont", "state": "NY", "zip": "11003", "county": "Nassau", "latitude": "40.7095", "longitude": "-73.7204", "program_url": "https://northwellvaccine.force.com/s/?id=a1T4x000007TWHNEA4", "vaccine_manufacturer": "Pfizer", "distance": null}
{"id": 23, "name": "Nassau Elmont (2150 Hempstead Tpk) -- Moderna", "address": "2150 Hempstead Turnpike", "suite": "", "city": "Elmont", "state": "NY", "zip": "11003", "county": "Nassau", "latitude": "40.7095", "longitude": "-73.7204", "program_url": "https://northwellvaccine.force.com/s/?id=a1T4x000007TWHNEA4", "vaccine_manufacturer": "Moderna", "distance": null}
{"id": 14, "name": "Manhattan - Lenox Health Greenwich Village (200 W. 13th) -- Pfizer", "address": "200 West 13th Street", "suite": "", "city": "New York", "state": "NY", "zip": "10011", "county": "New York", "latitude": "40.7379", "longitude": "-74.0008", "program_url": "https://northwellvaccine.force.com/s/?id=a1T4x000007TWHNEA4", "vaccine_manufacturer": "Pfizer", "distance": null}
