{"id": "wv_dhhr:1b4e73fad53b6da75f4530ced2e36400", "name": "Wheeling-Ohio County Health Department", "address": {"street1": "1500 Chapline Street", "street2": null, "city": "Wheeling", "state": "WV", "zip": "26003"}, "opening_dates": [{"opens": "2021-06-21", "closes": "2021-06-25"}], "opening_hours": [{"day": "monday", "opens": "09:00", "closes": "16:00"}, {"day": "tuesday", "opens": "09:00", "closes": "16:00"}, {"day": "wednesday", "opens": "09:00", "closes": "16:00"}, {"day": "thursday", "opens": "09:00", "closes": "16:00"}, {"day": "friday", "opens": "09:00", "closes": "16:00"}], "notes": ["Ohio County"], "active": true, "source": {"source": "wv_dhhr", "id": "1b4e73fad53b6da75f4530ced2e36400", "fetched_from_uri": "https://dhhr.wv.gov/News/2021/Pages/COVID-19-Vaccination-Clinics-June-20-26,-2021.aspx", "published_at": "2021-06-19T00:00:00-04:00", "data": {"name": "Wheeling-Ohio County Health Department", "street1": "1500 Chapline Street", "street2": null, "city": "Wheeling", "county": "Ohio County", "state": "WV", "zip": "26003", "opening_times": {"2021-06-21": [["9:00 a.m.", "4:00 p.m."]], "2021-06-22": [["9:00 a.m.", "4:00 p.m."]], "2021-06-23": [["9:00 a.m.", "4:00 p.m."]], "2021-06-24": [["9:00 a.m.", "4:00 p.m."]], "2021-06-25": [["9:00 a.m.", "4:00 p.m."]]}, "fetched_from_uri": "https://dhhr.wv.gov/News/2021/Pages/COVID-19-Vaccination-Clinics-June-20-26,-2021.aspx", "published_at": "2021-06-19"}}}
{"id": "wv_dhhr:534693c3a58f2082a15e8b174aba4e84", "name": "COVID-19 Vaccine Center", "address": {"street1": "100 Huntington Mall Road", "street2": null, "city": "Barboursville", "state": "WV", "zip": "25504"}, "opening_dates": [{"opens": "2021-06-22", "closes": "2021-06-26"}], "opening_hours": [{"day": "tuesday", "opens": "08:00", "closes": "16:00"}, {"day": "wednesday", "opens": "08:00", "closes": "16:00"}, {"day": "thursday", "opens": "08:00", "closes": "20:00"}, {"day": "friday", "opens": "08:00", "closes": "16:00"}, {"day": "saturday", "opens": "08:00", "closes": "12:00"}], "notes": ["Cabell County"], "active": true, "source": {"source": "wv_dhhr", "id": "534693c3a58f2082a15e8b174aba4e84", "fetched_from_uri": "https://dhhr.wv.gov/News/2021/Pages/COVID-19-Vaccination-Clinics-June-20-26,-2021.aspx", "published_at": "2021-06-19T00:00:00-04:00", "data": {"name": "COVID-19 Vaccine Center", "street1": "100 Huntington Mall Road", "street2": null, "city": "Barboursville", "county": "Cabell County", "state": "WV", "zip": "25504", "opening_times": {"2021-06-22": [["8:00 a.m.", "4:00 p.m."]], "2021-06-23": [["8:00 a.m.", "4:00 p.m."]], "2021-06-24": [["8:00 a.m.", "8:00 p.m."]], "2021-06-25": [["8:00 a.m.", "4:00 p.m."]], "2021-06-26": [["8:00 a.m.", "12:00 p.m."]]}, "fetched_from_uri": "https://dhhr.wv.gov/News/2021/Pages/COVID-19-Vaccination-Clinics-June-20-26,-2021.aspx", "published_at": "2021-06-19"}}}
{"id": "wv_dhhr:43fcdd4b507e0dfbb903caa8631b7523", "name": "Hancock County DHHR Office", "address": {"street1": "100 Municipal Plaza", "street2": "Suite 600", "city": "Weirton", "state": "WV", "zip": "26062"}, "opening_dates": [{"opens": "2021-06-22", "closes": "2021-06-22"}], "opening_hours": [{"day": "tuesday", "opens": "10:00", "closes": "12:00"}], "notes": ["Hancock County"], "active": true, "source": {"source": "wv_dhhr", "id": "43fcdd4b507e0dfbb903caa8631b7523", "fetched_from_uri": "https://dhhr.wv.gov/News/2021/Pages/COVID-19-Vaccination-Clinics-June-20-26,-2021.aspx", "published_at": "2021-06-19T00:00:00-04:00", "data": {"name": "Hancock County DHHR Office", "street1": "100 Municipal Plaza", "street2": "Suite 600", "city": "Weirton", "county": "Hancock County", "state": "WV", "zip": "26062", "opening_times": {"2021-06-22": [["10:00 a.m.", "12:00 p.m."]]}, "fetched_from_uri": "https://dhhr.wv.gov/News/2021/Pages/COVID-19-Vaccination-Clinics-June-20-26,-2021.aspx", "published_at": "2021-06-19"}}}
{"id": "wv_dhhr:099364bd70ae6328638b0f372e16e7f2", "name": "Kanawha-Charleston Health Department", "address": {"street1": "108 Lee Street", "street2": null, "city": "Charleston", "state": "WV", "zip": "25301"}, "opening_dates": [{"opens": "2021-06-22", "closes": "2021-06-25"}], "opening_hours": [{"day": "tuesday", "opens": "08:30", "closes": "15:30"}, {"day": "wednesday", "opens": "08:30", "closes": "15:30"}, {"day": "thursday", "opens": "08:30", "closes": "15:30"}, {"day": "friday", "opens": "08:30", "closes": "15:30"}], "notes": ["Kanawha County"], "active": true, "source": {"source": "wv_dhhr", "id": "099364bd70ae6328638b0f372e16e7f2", "fetched_from_uri": "https://dhhr.wv.gov/News/2021/Pages/COVID-19-Vaccination-Clinics-June-20-26,-2021.aspx", "published_at": "2021-06-19T00:00:00-04:00", "data": {"name": "Kanawha-Charleston Health Department", "street1": "108 Lee Street", "street2": null, "city": "Charleston", "county": "Kanawha County", "state": "WV", "zip": "25301", "opening_times": {"2021-06-22": [["8:30 a.m.", "3:30 p.m."]], "2021-06-23": [["8:30 a.m.", "3:30 p.m."]], "2021-06-24": [["8:30 a.m.", "3:30 p.m."]], "2021-06-25": [["8:30 a.m.", "3:30 p.m."]]}, "fetched_from_uri": "https://dhhr.wv.gov/News/2021/Pages/COVID-19-Vaccination-Clinics-June-20-26,-2021.aspx", "published_at": "2021-06-19"}}}
{"id": "wv_dhhr:e0475258cf4556b147f096bd748e592d", "name": "Nicholas County Health Department", "address": {"street1": "1 Stevens Road", "street2": "Suite 201", "city": "Summersville", "state": "WV", "zip": "26551"}, "opening_dates": [{"opens": "2021-06-23", "closes": "2021-06-24"}], "opening_hours": [{"day": "wednesday", "opens": "10:00", "closes": "16:30"}, {"day": "thursday", "opens": "10:00", "closes": "16:30"}], "notes": ["Nicholas County"], "active": true, "source": {"source": "wv_dhhr", "id": "e0475258cf4556b147f096bd748e592d", "fetched_from_uri": "https://dhhr.wv.gov/News/2021/Pages/COVID-19-Vaccination-Clinics-June-20-26,-2021.aspx", "published_at": "2021-06-19T00:00:00-04:00", "data": {"name": "Nicholas County Health Department", "street1": "1 Stevens Road", "street2": "Suite 201", "city": "Summersville", "county": "Nicholas County", "state": "WV", "zip": "26551", "opening_times": {"2021-06-23": [["10:00 a.m.", "4:30 p.m."]], "2021-06-24": [["10:00 a.m.", "4:30 p.m."]]}, "fetched_from_uri": "https://dhhr.wv.gov/News/2021/Pages/COVID-19-Vaccination-Clinics-June-20-26,-2021.aspx", "published_at": "2021-06-19"}}}
{"id": "wv_dhhr:90ad3cebd9f548076cc59c61a66e8b8a", "name": "Braxton County Health Department", "address": {"street1": "617 Old Turnpike Road", "street2": null, "city": "Sutton", "state": "WV", "zip": "26601"}, "opening_dates": [{"opens": "2021-06-24", "closes": "2021-06-24"}], "opening_hours": [{"day": "thursday", "opens": "08:00", "closes": "16:00"}], "notes": ["Braxton County"], "active": true, "source": {"source": "wv_dhhr", "id": "90ad3cebd9f548076cc59c61a66e8b8a", "fetched_from_uri": "https://dhhr.wv.gov/News/2021/Pages/COVID-19-Vaccination-Clinics-June-20-26,-2021.aspx", "published_at": "2021-06-19T00:00:00-04:00", "data": {"name": "Braxton County Health Department", "street1": "617 Old Turnpike Road", "street2": null, "city": "Sutton", "county": "Braxton County", "state": "WV", "zip": "26601", "opening_times": {"2021-06-24": [["8:00 a.m.", "4:00 p.m."]]}, "fetched_from_uri": "https://dhhr.wv.gov/News/2021/Pages/COVID-19-Vaccination-Clinics-June-20-26,-2021.aspx", "published_at": "2021-06-19"}}}
{"id": "wv_dhhr:a3b6c019fbd86cd38d8ae8030b1eab30", "name": "Centennial Fire Station", "address": {"street1": "839 7th Avenue", "street2": null, "city": "Huntington", "state": "WV", "zip": "25701"}, "opening_dates": [{"opens": "2021-06-24", "closes": "2021-06-24"}], "opening_hours": [{"day": "thursday", "opens": "08:00", "closes": "16:00"}], "notes": ["Cabell County"], "active": true, "source": {"source": "wv_dhhr", "id": "a3b6c019fbd86cd38d8ae8030b1eab30", "fetched_from_uri": "https://dhhr.wv.gov/News/2021/Pages/COVID-19-Vaccination-Clinics-June-20-26,-2021.aspx", "published_at": "2021-06-19T00:00:00-04:00", "data": {"name": "Centennial Fire Station", "street1": "839 7th Avenue", "street2": null, "city": "Huntington", "county": "Cabell County", "state": "WV", "zip": "25701", "opening_times": {"2021-06-24": [["8:00 a.m.", "4:00 p.m."]]}, "fetched_from_uri": "https://dhhr.wv.gov/News/2021/Pages/COVID-19-Vaccination-Clinics-June-20-26,-2021.aspx", "published_at": "2021-06-19"}}}
{"id": "wv_dhhr:a84248354ab673f76853019338d5d4c1", "name": "Jackson County Health Department", "address": {"street1": "4285 Cedar Lakes Road", "street2": null, "city": "Ripley", "state": "WV", "zip": "25271"}, "opening_dates": [{"opens": "2021-06-24", "closes": "2021-06-24"}], "opening_hours": [{"day": "thursday", "opens": "12:00", "closes": "16:00"}], "notes": ["Jackson County"], "active": true, "source": {"source": "wv_dhhr", "id": "a84248354ab673f76853019338d5d4c1", "fetched_from_uri": "https://dhhr.wv.gov/News/2021/Pages/COVID-19-Vaccination-Clinics-June-20-26,-2021.aspx", "published_at": "2021-06-19T00:00:00-04:00", "data": {"name": "Jackson County Health Department", "street1": "4285 Cedar Lakes Road", "street2": null, "city": "Ripley", "county": "Jackson County", "state": "WV", "zip": "25271", "opening_times": {"2021-06-24": [["12:00 p.m.", "4:00 p.m."]]}, "fetched_from_uri": "https://dhhr.wv.gov/News/2021/Pages/COVID-19-Vaccination-Clinics-June-20-26,-2021.aspx", "published_at": "2021-06-19"}}}
{"id": "wv_dhhr:2fd9ea94b7fe076a790b663d059b1578", "name": "Lincoln County Health Department", "address": {"street1": "8008 Court Avenue", "street2": null, "city": "Hamlin", "state": "WV", "zip": "25523"}, "opening_dates": [{"opens": "2021-06-24", "closes": "2021-06-24"}], "opening_hours": [{"day": "thursday", "opens": "09:00", "closes": "15:00"}], "notes": ["Lincoln County"], "active": true, "source": {"source": "wv_dhhr", "id": "2fd9ea94b7fe076a790b663d059b1578", "fetched_from_uri": "https://dhhr.wv.gov/News/2021/Pages/COVID-19-Vaccination-Clinics-June-20-26,-2021.aspx", "published_at": "2021-06-19T00:00:00-04:00", "data": {"name": "Lincoln County Health Department", "street1": "8008 Court Avenue", "street2": null, "city": "Hamlin", "county": "Lincoln County", "state": "WV", "zip": "25523", "opening_times": {"2021-06-24": [["9:00 a.m.", "3:00 p.m."]]}, "fetched_from_uri": "https://dhhr.wv.gov/News/2021/Pages/COVID-19-Vaccination-Clinics-June-20-26,-2021.aspx", "published_at": "2021-06-19"}}}
{"id": "wv_dhhr:3d475356ece56c813f6051ff2f1d660a", "name": "Webster County Health Department", "address": {"street1": "112 Bell Street", "street2": "Suite C", "city": "Webster Springs", "state": "WV", "zip": "26288"}, "opening_dates": [{"opens": "2021-06-24", "closes": "2021-06-24"}], "opening_hours": [{"day": "thursday", "opens": "09:00", "closes": "12:00"}], "notes": ["Webster County"], "active": true, "source": {"source": "wv_dhhr", "id": "3d475356ece56c813f6051ff2f1d660a", "fetched_from_uri": "https://dhhr.wv.gov/News/2021/Pages/COVID-19-Vaccination-Clinics-June-20-26,-2021.aspx", "published_at": "2021-06-19T00:00:00-04:00", "data": {"name": "Webster County Health Department", "street1": "112 Bell Street", "street2": "Suite C", "city": "Webster Springs", "county": "Webster County", "state": "WV", "zip": "26288", "opening_times": {"2021-06-24": [["9:00 a.m.", "12:00 p.m."]]}, "fetched_from_uri": "https://dhhr.wv.gov/News/2021/Pages/COVID-19-Vaccination-Clinics-June-20-26,-2021.aspx", "published_at": "2021-06-19"}}}
{"id": "wv_dhhr:6f0a7f6a34e894b20510d3b2a47427af", "name": "Wetzel/Tyler Health Department", "address": {"street1": "425 South 4th Avenue", "street2": null, "city": "Paden City", "state": "WV", "zip": "26159"}, "opening_dates": [{"opens": "2021-06-24", "closes": "2021-06-24"}], "opening_hours": [{"day": "thursday", "opens": "09:00", "closes": "12:00"}], "notes": ["Wetzel & Tyler Counties"], "active": true, "source": {"source": "wv_dhhr", "id": "6f0a7f6a34e894b20510d3b2a47427af", "fetched_from_uri": "https://dhhr.wv.gov/News/2021/Pages/COVID-19-Vaccination-Clinics-June-20-26,-2021.aspx", "published_at": "2021-06-19T00:00:00-04:00", "data": {"name": "Wetzel/Tyler Health Department", "street1": "425 South 4th Avenue", "street2": null, "city": "Paden City", "county": "Wetzel & Tyler Counties", "state": "WV", "zip": "26159", "opening_times": {"2021-06-24": [["9:00 a.m.", "12:00 p.m."]]}, "fetched_from_uri": "https://dhhr.wv.gov/News/2021/Pages/COVID-19-Vaccination-Clinics-June-20-26,-2021.aspx", "published_at": "2021-06-19"}}}
