location_name,full_address,zipcode,serves,site_type,days_of_week_open,url,phone,email,appointment_info,instructions_at_site,accessibility,latitude,longitude,location_type,vaccines_available
Abington: CVS (Centre Ave),"385 Centre Ave, Abington, MA 02351",2351,All eligible people statewide,Indoor,Daily,https://www.cvs.com/immunizations/covid-19-vaccine,800-SHOP-CVS (1-800-746-7287),,,Check-in 15min prior,,42.111687,-70.929293,#blue-star,Moderna
Abington: Stop & Shop (Centre Avenue),"375 Centre Avenue (Route 123), Abington, MA 02351",2351,All eligible people statewide,Indoor,Daily,https://www.stopandshop.com/covid-vaccine,781-871-9228,,,,,42.116902,-70.955082,#blue-star,Pfizer
Abington: Walmart (Brockton Ave),"777 Brockton Ave, Abington, MA 02351",2351,All eligible people statewide,Indoor,Daily,https://www.walmart.com/pharmacy/,781-857-2345,,,,,42.095358,-70.966523,#blue-star,"Moderna, Pfizer"
Acton: Acton Pharmacy,"563 Massachusetts Ave, Acton, MA 01720",1720,All eligible people statewide,Indoor,Daily,https://dinnohealth.com/actonpharmacy/,978-263-3901,,,,,42.476136,-71.473603,#blue-star,Moderna
Acton: CVS (Great Road),"344 Great Road, Acton, MA 01720",1720,All eligible people statewide,Indoor,Daily,https://www.cvs.com/immunizations/covid-19-vaccine,800-SHOP-CVS (1-800-746-7287),,,Check-in 15min prior,,42.502656,-71.419791,#blue-star,Moderna
Acton: CVS (Massachusetts Ave.),"400 Massachusetts Ave., Acton, MA 01720",1720,All eligible people statewide,Indoor,Daily,https://www.cvs.com/immunizations/covid-19-vaccine,800-SHOP-CVS (1-800-746-7287),,,Check-in 15min prior,,42.474535,-71.450603,#blue-star,Moderna
Acton: Walgreens (Powder Mill Road),"100 Powder Mill Road, Acton, MA 01720",1720,All eligible people statewide,Indoor,Daily,https://www.walgreens.com/findcare/vaccination/covid-19,800-925-4733,,,Appointment only,,42.441808,-71.427122,#blue-star,Moderna
Adams: Walgreens (Columbia Street),"21 Columbia Street, Adams, MA 01220",1220,All eligible people statewide,Indoor,Daily,https://www.walgreens.com/findcare/vaccination/covid-19,800-925-4733,,,Appointment only,,42.626474,-73.117888,#blue-star,Moderna
Agawam: CVS (Silver St.),"163 Silver Street, Agawam, MA 01001",1001,All eligible people statewide,Indoor,Daily,https://www.cvs.com/immunizations/covid-19-vaccine,800-SHOP-CVS (1-800-746-7287),,,Check-in 15min prior,,42.062038,-72.631739,#blue-star,Pfizer
Agawam: CVS (Springfield Street),"287 Springfield Street, Agawam, MA 01001",1001,All eligible people statewide,Indoor,Daily,https://www.cvs.com/immunizations/covid-19-vaccine,800-SHOP-CVS (1-800-746-7287),,,Check-in 15min prior,,42.08859,-72.639169,#blue-star,Moderna
Agawam: Walgreens (Springfield St.),"60 Springfield St., Agawam, MA 01001",1001,All eligible people statewide,Indoor,Daily,https://www.walgreens.com/findcare/vaccination/covid-19,800-925-4733,,,Appointment only,,42.089492,-72.629956,#blue-star,Pfizer
Allston: CVS (Brighton Ave),"181 Brighton Ave, Allston, MA 02134",2134,All eligible people statewide,Indoor,Daily,https://www.cvs.com/immunizations/covid-19-vaccine,800-SHOP-CVS (1-800-746-7287),,,Check-in 15min prior,,42.353251,-71.133732,#blue-star,Pfizer
Allston: CVS (Harvard Avenue),"214 Harvard Avenue, Allston, MA 02134",2134,All eligible people statewide,Indoor,Daily,https://www.cvs.com/immunizations/covid-19-vaccine,800-SHOP-CVS (1-800-746-7287),,,Check-in 15min prior,,42.34948,-71.130307,#blue-star,Moderna
Amesbury: CVS (Macy Street),"5 Macy Street, Amesbury, MA 01913",1913,All eligible people statewide,Indoor,Daily,https://www.cvs.com/immunizations/covid-19-vaccine,800-SHOP-CVS (1-800-746-7287),,,Check-in 15min prior,,42.84746,-70.929259,#blue-star,Moderna
Amesbury: Stop & Shop,"100 Macy Street, Amesbury, MA 01913",1913,All eligible people statewide,Indoor,Daily,https://www.stopandshop.com/covid-vaccine,978-388-9755,,,,,42.84644,-70.911505,#blue-star,Pfizer
Amesbury: Walgreens (Haverhill Road),"15 Haverhill Road, Amesbury, MA 01913",1913,All eligible people statewide,Indoor,Daily,https://www.walgreens.com/findcare/vaccination/covid-19,800-925-4733,,,Appointment only,,42.845464,-70.935824,#blue-star,Moderna
Amherst: CVS (North Pleasant Street),"76 North Pleasant Street, Amherst, MA 01002",1002,All eligible people statewide,Indoor,Daily,https://www.cvs.com/immunizations/covid-19-vaccine,800-SHOP-CVS (1-800-746-7287),,,Check-in 15min prior,,42.376888,-72.519904,#blue-star,Moderna
Amherst: CVS (University Drive),"165 University Drive, Amherst, MA 01002",1002,All eligible people statewide,Indoor,Daily,https://www.cvs.com/immunizations/covid-19-vaccine,800-SHOP-CVS (1-800-746-7287),,,Check-in 15min prior,,42.368585,-72.533467,#blue-star,Moderna
Amherst: UMass Amherst Campus Center,"1 Campus Center Way, Amherst, MA 01003",1003,Eligible people in Western MA,Indoor,"Monday, Tuesday, Wednesday, Thursday",https://www.umass.edu/coronavirus/vaccine,,,,"The clinics are held in the lower level of the Campus Center room 168; park in the parking garage, and proceed to the lower level via elevator, escalator, or stairs. A free parking pass will be provided.",,42.39182,-72.528442,#green-star,"Moderna, Pfizer"
Andover: CVS (Main Street),"68 Main Street, Andover, MA 01810",1810,All eligible people statewide,Indoor,Daily,https://www.cvs.com/immunizations/covid-19-vaccine,800-SHOP-CVS (1-800-746-7287),,,Check-in 15min prior,,42.655045,-71.13953,#blue-star,Pfizer
Arlington: CVS (23-25 Massachusetts Ave),"23-25 Massachusetts Ave, Arlington, MA 02474",2474,All eligible people statewide,Indoor,Daily,https://www.cvs.com/immunizations/covid-19-vaccine,800-SHOP-CVS (1-800-746-7287),,,Check-in 15min prior,,42.401571,-71.137019,#blue-star,Moderna
Arlington: CVS (833 Massachusetts Ave.),"833 Massachusetts Avenue, Arlington, MA 02476",2476,All eligible people statewide,Indoor,Daily,https://www.cvs.com/immunizations/covid-19-vaccine,800-SHOP-CVS (1-800-746-7287),,,Check-in 15min prior,,42.41679,-71.160556,#blue-star,Pfizer
Arlington: Stop & Shop (Massachusetts Avenue),"905 Massachusetts Avenue, Arlington, MA 02476",2476,All eligible people statewide,Indoor,Daily,https://www.stopandshop.com/covid-vaccine,781-643-3267,,,,,42.417975,-71.165138,#blue-star,Johnson and Johnson
Arlington: Walgreens (1425 Massachusetts Ave),"1425 Massachusetts Ave, Arlington, MA 02476",2476,All eligible people statewide,Indoor,Daily,https://www.walgreens.com/findcare/vaccination/covid-19,800-925-4733,,,Appointment only,,42.424801,-71.186623,#blue-star,Pfizer
Arlington: Walgreens (324 Massachusetts Ave),"324 Massachusetts Ave, Arlington, MA 02474",2474,All eligible people statewide,Indoor,Daily,https://www.walgreens.com/findcare/vaccination/covid-19,800-925-4733,,,Appointment only,,42.410226,-71.147614,#blue-star,Pfizer
Ashland: CVS (Pond St.),"47 Pond St, Ashland, MA 01721",1721,All eligible people statewide,Indoor,Daily,https://www.cvs.com/immunizations/covid-19-vaccine,800-SHOP-CVS (1-800-746-7287),,,Check-in 15min prior,,42.25683,-71.426276,#blue-star,Pfizer
Ashland: CVS (Union St.),"414 Union St., Ashland, MA 01721",1721,All eligible people statewide,Indoor,Daily,https://www.cvs.com/immunizations/covid-19-vaccine,800-SHOP-CVS (1-800-746-7287),,,Check-in 15min prior,,42.255524,-71.466266,#blue-star,Moderna
Ashland: Walgreens (Pond Street),"339 Pond Street, Ashland, MA 01721",1721,All eligible people statewide,Indoor,Daily,https://www.walgreens.com/findcare/vaccination/covid-19,800-925-4733,,,Appointment only,,42.239455,-71.432484,#blue-star,Pfizer
Ashland: Walgreens (Union Street),"399 Union Street, Ashland, MA 01721",1721,All eligible people statewide,Indoor,Daily,https://www.walgreens.com/findcare/vaccination/covid-19,800-925-4733,,,Appointment only,,42.255597,-71.466312,#blue-star,Pfizer
Athol: CVS (Main St.),"1653 Main St., Athol, MA 01331",1331,All eligible people statewide,Indoor,Daily,https://www.cvs.com/immunizations/covid-19-vaccine,800-SHOP-CVS (1-800-746-7287),,,Check-in 15min prior,,42.588127,-72.214896,#blue-star,Pfizer
Athol: Walgreens (S Main St),"1640 S Main St, Athol, MA 01331",1331,All eligible people statewide,Indoor,Daily,https://www.walgreens.com/findcare/vaccination/covid-19,800-925-4733,,,Appointment only,,42.583096,-72.261693,#blue-star,Pfizer
Attleboro: CVS (N. Main St.),"191 N. Main St., Attleboro, MA 02703",2703,All eligible people statewide,Indoor,Daily,https://www.cvs.com/immunizations/covid-19-vaccine,800-SHOP-CVS (1-800-746-7287),,,Check-in 15min prior,,41.949109,-71.289473,#blue-star,Pfizer
Attleboro: CVS (Pleasant Street),"486 Pleasant Street, Attleboro, MA 02703",2703,All eligible people statewide,Indoor,Daily,https://www.cvs.com/immunizations/covid-19-vaccine,800-SHOP-CVS (1-800-746-7287),,,Check-in 15min prior,,41.951925,-71.271235,#blue-star,Moderna
Attleboro: LaSalette Shrine (Attleboro Health Dept.),"947 Park St, Attleboro, MA 02703",2703,All eligible people statewide,Indoor,Will vary,https://home.color.com/vaccine/register/attleboro,,,,,Fully wheelchair accessible,41.9297,-71.260537,#green-star,Moderna
Attleboro: Walgreens (Pleasant St.),"196 Pleasant St., Attleboro, MA 02703",2703,All eligible people statewide,Indoor,Daily,https://www.walgreens.com/findcare/vaccination/covid-19,800-925-4733,,,Appointment only,,41.950943,-71.273538,#blue-star,Pfizer
Attleborough: Stop & Shop (Pleasant Street),"469 Pleasant St, Attleborough, MA 02703",2703,All eligible people statewide,Indoor,Daily,https://www.stopandshop.com/covid-vaccine,508-226-5888,,,,,41.95154,-71.272044,#blue-star,Johnson and Johnson
Auburn: Auburn Pharmacy & Home Health Care,"689 Southbridge St, Auburn, MA 01501",1501,All eligible people statewide,Indoor,Monday-Friday,https://www.healthmartcovidvaccine.com,508-832-6511,,,,,42.184314,-71.857823,#blue-star,Moderna
Auburn: CVS (Southbridge Street),"676 Southbridge Street, Auburn, MA 01501",1501,All eligible people statewide,Indoor,Daily,https://www.cvs.com/immunizations/covid-19-vaccine,800-SHOP-CVS (1-800-746-7287),,,Check-in 15min prior,,42.184789,-71.857096,#blue-star,Moderna
Avon: Costco (Stockwell Dr),"120 Stockwell Drive, Avon, MA 02322",2322,All eligible people statewide,Indoor,Vary--check link,https://www.costco.com/covid-vaccine.html,508-232-4003,,,Please use the online scheduling system to book an appointment. Please do not contact the local Costco pharmacy as they are unable to schedule an appointment or provide current eligibility requirements.,,42.13506,-71.067742,#blue-star,Moderna
Avon: Walmart (Memorial Dr),"30 Memorial Dr, Avon, MA 02322",2322,All eligible people statewide,Indoor,Daily,https://www.walmart.com/pharmacy/,508-427-9460,,,,,42.12085,-71.032487,#blue-star,"Moderna, Pfizer"
Ayer: Ayer Family Pharmacy,"13 Park Street, Ayer, MA 01432",1432,All eligible people statewide,Indoor,Daily,,978-391-4061,,,,,42.561371,-71.590402,#blue-star,Moderna
Barnstable: Barnstable County Dept. of Health & Environment,"3195 Main Street, Barnstable, MA 02630",2630,All eligible people statewide,Indoor,Thursday,https://home.color.com/vaccine/register/barnstable,,,Thursdays 10am-2pm,Parking in front of the Harborview Conference room,"Wheelchair entrance, accessible parking, can vaccinate in the car if unable to come in",41.701393,-70.30302,#green-star,"Johnson and Johnson, Pfizer"
Barre: Barre Family Pharmacy,"547 Summer Street, Barre, MA 01005",1005,All eligible people statewide,Indoor,Monday-Friday,https://www.healthmartcovidvaccine.com,978-355-2359,,,,,42.410225,-72.097923,#blue-star,Moderna
Bedford: CVS (Great Road),"199 Great Road, Bedford, MA 01730",1730,All eligible people statewide,Indoor,Daily,https://www.cvs.com/immunizations/covid-19-vaccine,800-SHOP-CVS (1-800-746-7287),,,Check-in 15min prior,,42.489259,-71.272125,#blue-star,Moderna
Bedford: Stop & Shop (Great Road),"337 Great Road, Bedford, MA 01730",1730,All eligible people statewide,Indoor,Daily,https://www.stopandshop.com/covid-vaccine,781-271-9403,,,,,42.486688,-71.263102,#blue-star,Pfizer
Belchertown: CVS (N Main St),"151 N Main St, Crystal Springs Plaza, Belchertown, MA 01007",1007,All eligible people statewide,Indoor,Daily,https://www.cvs.com/immunizations/covid-19-vaccine,800-SHOP-CVS (1-800-746-7287),,,Check-in 15min prior,,42.274169,-72.404898,#blue-star,Moderna
Belchertown: Stop & Shop (Federal Street),"40 Federal Street, Belchertown, MA 01007",1007,All eligible people statewide,Indoor,Daily,https://www.stopandshop.com/covid-vaccine,413-323-9096,,,,,42.291405,-72.409258,#blue-star,Moderna
Bellingham: CVS (Pulaski Blvd),"370 Pulaski Blvd, Bellingham, MA 02019",2019,All eligible people statewide,Indoor,Daily,https://www.cvs.com/immunizations/covid-19-vaccine,800-SHOP-CVS (1-800-746-7287),,,Check-in 15min prior,,42.025229,-71.490133,#blue-star,Pfizer
Bellingham: Walgreens (Mechanic St),"20 Mechanic St, Bellingham, MA 02019",2019,All eligible people statewide,Indoor,Daily,https://www.walgreens.com/findcare/vaccination/covid-19,800-925-4733,,,Appointment only,,42.086247,-71.473803,#blue-star,Moderna
Bellingham: Walmart (Hartford Ave),"250 Hartford Ave, Bellingham, MA 02019",2019,All eligible people statewide,Indoor,Daily,https://www.walmart.com/pharmacy/,508-966-7633,,,,,42.114287,-71.465101,#blue-star,"Moderna, Pfizer"
Belmont: CVS (Leonard Street),"60 Leonard Street, Belmont, MA 02478",2478,All eligible people statewide,Indoor,Daily,https://www.cvs.com/immunizations/covid-19-vaccine,800-SHOP-CVS (1-800-746-7287),,,Check-in 15min prior,,42.39751,-71.175376,#blue-star,Moderna
Belmont: CVS (Trapelo Rd),"264 Trapelo Rd, Belmont, MA 02478",2478,All eligible people statewide,Indoor,Daily,https://www.cvs.com/immunizations/covid-19-vaccine,800-SHOP-CVS (1-800-746-7287),,,Check-in 15min prior,,42.383289,-71.180992,#blue-star,Pfizer
Belmont: Osco (Trapelo Rd),"535 Trapelo Road, Belmont, MA 02478",2478,All eligible people statewide,Indoor,Daily,https://www.mhealthappointments.com/covidappt,617-489-6542,,,,,42.388089,-71.191369,#blue-star,"Johnson and Johnson, Moderna, Pfizer"
Beverly: CVS (Dodge Street),"19 Dodge St., Beverly, MA 01915",1915,All eligible people statewide,Indoor,Daily,https://www.cvs.com/immunizations/covid-19-vaccine,800-SHOP-CVS (1-800-746-7287),,,Check-in 15min prior,,42.577465,-70.89003,#blue-star,Moderna
Beverly: CVS (Rantoul St.),"434 Rantoul St., Beverly, MA 01915",1915,All eligible people statewide,Indoor,Daily,https://www.cvs.com/immunizations/covid-19-vaccine,800-SHOP-CVS (1-800-746-7287),,,Check-in 15min prior,,42.554996,-70.881408,#blue-star,Pfizer
Beverly: Pediatric Associates of Greater Salem,"30 Tozer Rd, Beverly, MA 01915",1915,All eligible people statewide,Indoor,"Monday, Tuesday, Saturday, Sunday",https://bit.ly/2MyMFAJ,,,Online booking only,Enter through rear of the building and follow signage,,42.572764,-70.884053,#green-star,"Moderna, Pfizer"
Beverly: Walgreens (Elliott St),"54 Elliott St, Beverly, MA 01915",1915,All eligible people statewide,Indoor,Daily,https://www.walgreens.com/findcare/vaccination/covid-19,800-925-4733,,,Appointment only,,42.554414,-70.881284,#blue-star,Pfizer
"Billerica: CVS (Boston Rd, RT 3A Towne Plaza)","700 Boston Rd. RT 3A, Billerica, MA 01821",1821,All eligible people statewide,Indoor,Daily,https://www.cvs.com/immunizations/covid-19-vaccine,800-SHOP-CVS (1-800-746-7287),,,Check-in 15min prior,,42.549775,-71.25068,#blue-star,Moderna
Billerica: Walgreens (466 Boston Rd),"446 Boston Rd, Billerica, MA 01821",1821,All eligible people statewide,Indoor,Daily,https://www.walgreens.com/findcare/vaccination/covid-19,800-925-4733,,,Appointment only,,42.55851,-71.268651,#blue-star,Moderna
Billerica: Walgreens (467 Boston Rd),"467 Boston Rd., Billerica, MA 01821",1821,All eligible people statewide,Indoor,Daily,https://www.walgreens.com/findcare/vaccination/covid-19,800-925-4733,,,Appointment only,,42.552527,-71.26394,#blue-star,Moderna
Blackstone: CVS (Main St),"22 Main Street, Blackstone, MA 01504",1504,All eligible people statewide,Indoor,Daily,https://www.cvs.com/immunizations/covid-19-vaccine,800-SHOP-CVS (1-800-746-7287),,,,,42.016646,-71.52931,#blue-star,Pfizer
Boston: Boston Medical Center,"85 E Concord St, Boston, MA 02118",2118,All eligible people statewide,Indoor,Please click link to see availability,https://www.bmc.org/covid-19-vaccine-locations,,,,Please arrive with appointment information to check in.,"Wheelchair available on site. Accessible entrance, parking, dropoff, pickup. Translation services available.",42.335559,-71.072161,#green-star,Moderna
Boston: Brookside Community Health Center,"3297 Washington St, Jamaica Plain, MA 02130",2130,All eligible people statewide,Outdoor,Tuesday,,,,Walk-In,"Vaccine clinic is held in parking lot under tents. No appointment, ID, or insurance needed.","Accessible entrance, wheelchair entrance, accessible parking, accessible drop off and pick up, close to bus and train",42.310679,-71.103335,#green-star,"Johnson and Johnson, Pfizer"
Boston: Community Care Pharmacy Inc,"2100 Dorchester Avenue, Boston, MA 02124",2124,All eligible people statewide,Indoor,Monday-Friday,https://hipaa.jotform.com/210954494190156,617-322-9265,,,,,42.278108,-71.066442,#blue-star,Moderna
Boston: CVS (1249 Boylston Street),"1249 Boylston St., Boston, MA 02215",2215,All eligible people statewide,Indoor,Daily,https://www.cvs.com/immunizations/covid-19-vaccine,800-SHOP-CVS (1-800-746-7287),,,Check-in 15min prior,,42.345147,-71.095662,#blue-star,Moderna
Boston: CVS (1341 Boylston Street),"1341 Boylston St, Boston, MA 02215",2215,All eligible people statewide,Indoor,Daily,https://www.cvs.com/immunizations/covid-19-vaccine,800-SHOP-CVS (1-800-746-7287),,,Check-in 15min prior,,42.344089,-71.099557,#blue-star,Moderna
Boston: CVS (155-157 Charles Street),"155-157 Charles Street, Boston, MA 02114",2114,All eligible people statewide,Indoor,Daily,https://www.cvs.com/immunizations/covid-19-vaccine,800-SHOP-CVS (1-800-746-7287),,,Check-in 15min prior,,42.360592,-71.070855,#blue-star,Moderna
Boston: CVS (191-193 Cambridge Street),"191-193 Cambridge Street, Boston, MA 02114",2114,All eligible people statewide,Indoor,Daily,https://www.cvs.com/immunizations/covid-19-vaccine,800-SHOP-CVS (1-800-746-7287),,,Check-in 15min prior,,42.361219,-71.06591,#blue-star,Moderna
Boston: CVS (1921-1943 Centre Street),"1921-1943 Centre Street, Boston, MA 02132",2132,All eligible people statewide,Indoor,Daily,https://www.cvs.com/immunizations/covid-19-vaccine,800-SHOP-CVS (1-800-746-7287),,,Check-in 15min prior,,42.284421,-71.156775,#blue-star,Moderna
Boston: CVS (2 Center Plaza),"2 Center Plaza, Boston, MA 02108",2108,All eligible people statewide,Indoor,Daily,https://www.cvs.com/immunizations/covid-19-vaccine,800-SHOP-CVS (1-800-746-7287),,,Check-in 15min prior,,42.359805,-71.060626,#blue-star,Moderna
Boston: CVS (218 Hanover St.),"218 Hanover St., Boston, MA 02113",2113,All eligible people statewide,Indoor,Daily,https://www.cvs.com/immunizations/covid-19-vaccine,800-SHOP-CVS (1-800-746-7287),,,Check-in 15min prior,,42.362952,-71.055302,#blue-star,Pfizer
Boston: CVS (231 Massachusetts Ave),"231 Massachusetts Avenue, Boston, MA 02115",2115,All eligible people statewide,Indoor,Daily,https://www.cvs.com/immunizations/covid-19-vaccine,800-SHOP-CVS (1-800-746-7287),,,Check-in 15min prior,,42.344697,-71.086469,#blue-star,Moderna
Boston: CVS (240 Newbury Street),"240 Newbury Street, Boston, MA 02116",2116,All eligible people statewide,Indoor,Daily,https://www.cvs.com/immunizations/covid-19-vaccine,800-SHOP-CVS (1-800-746-7287),,,Check-in 15min prior,,42.349744,-71.08195,#blue-star,Moderna
Boston: CVS (333 Washington Street),"333 Washington Street, Boston, MA 02108",2108,All eligible people statewide,Indoor,Daily,https://www.cvs.com/immunizations/covid-19-vaccine,800-SHOP-CVS (1-800-746-7287),,,Check-in 15min prior,,42.356815,-71.05894,#blue-star,Moderna
Boston: CVS (341 Harrison Ave),"341 Harrison Ave, Boston, MA 02118",2118,All eligible people statewide,Indoor,Daily,https://www.cvs.com/immunizations/covid-19-vaccine,800-SHOP-CVS (1-800-746-7287),,,Check-in 15min prior,,42.345466,-71.063618,#blue-star,Moderna
Boston: CVS (350 Longwood Ave),"350 Longwood Ave., Boston, MA 02115",2115,All eligible people statewide,Indoor,Daily,https://www.cvs.com/immunizations/covid-19-vaccine,800-SHOP-CVS (1-800-746-7287),,,Check-in 15min prior,,42.338585,-71.106682,#blue-star,Moderna
Boston: CVS (423 West Broadway),"423 West Broadway, Boston, MA 02127",2127,All eligible people statewide,Indoor,Daily,https://www.cvs.com/immunizations/covid-19-vaccine,800-SHOP-CVS (1-800-746-7287),,,Check-in 15min prior,,42.336688,-71.047555,#blue-star,Moderna
Boston: CVS (55 Summer St),"55 Summer St, Boston, MA 02110",2110,All eligible people statewide,Indoor,Daily,https://www.cvs.com/immunizations/covid-19-vaccine,800-SHOP-CVS (1-800-746-7287),,,Check-in 15min prior,,42.354439,-71.059103,#blue-star,Moderna
Boston: CVS (587 Boylston Street),"587 Boylston Street, Boston, MA 02116",2116,All eligible people statewide,Indoor,Daily,https://www.cvs.com/immunizations/covid-19-vaccine,800-SHOP-CVS (1-800-746-7287),,,Check-in 15min prior,,42.350222,-71.07684,#blue-star,Moderna
Boston: CVS (631 Washington Street),"631 Washington St, Boston, MA 02111",2111,All eligible people statewide,Indoor,Daily,https://www.cvs.com/immunizations/covid-19-vaccine,800-SHOP-CVS (1-800-746-7287),,,Check-in 15min prior,,42.352624,-71.062577,#blue-star,Moderna
Boston: CVS (7 Allstate Rd),"7 Allstate Rd, Boston, MA 02125",2125,All eligible people statewide,Indoor,Daily,https://www.cvs.com/immunizations/covid-19-vaccine,800-SHOP-CVS (1-800-746-7287),,,Check-in 15min prior,,42.328857,-71.062753,#blue-star,Moderna
Boston: CVS (700 Atlantic Ave),"700 Atlantic Ave, Boston, MA 02111",2111,All eligible people statewide,Indoor,Daily,https://www.cvs.com/immunizations/covid-19-vaccine,800-SHOP-CVS (1-800-746-7287),,,Check-in 15min prior,,42.350723,-71.056408,#blue-star,Moderna
Boston: CVS (800 Boylston Street),"800 Boylston Street, Boston, MA 02199",2199,All eligible people statewide,Indoor,Daily,https://www.cvs.com/immunizations/covid-19-vaccine,800-SHOP-CVS (1-800-746-7287),,,Check-in 15min prior,,42.348899,-71.081821,#blue-star,Moderna
Boston: CVS (85 Seaport Blvd),"85 Seaport Blvd Unit H, Boston, MA 02210",2210,All eligible people statewide,Indoor,Daily,https://www.cvs.com/immunizations/covid-19-vaccine,800-SHOP-CVS (1-800-746-7287),,,Check-in 15min prior,,42.351924,-71.045973,#blue-star,Moderna
Boston: CVS (874 Harrison Ave),"874 Harrison Ave, Boston, MA 02118",2118,All eligible people statewide,Indoor,Daily,https://www.cvs.com/immunizations/covid-19-vaccine,800-SHOP-CVS (1-800-746-7287),,,Check-in 15min prior,,42.33396,-71.076482,#blue-star,Moderna
Boston: CVS (Canal St),"101 Canal Street, Suite A, Boston, MA 02114",2114,All eligible people statewide,Indoor,Daily,https://www.cvs.com/immunizations/covid-19-vaccine,800-SHOP-CVS (1-800-746-7287),,,,,42.364561,-71.06015,#blue-star,Johnson and Johnson
Boston: CVS (Columbus Ave.),"285 Columbus Ave., Boston, MA 02116",2116,All eligible people statewide,Indoor,Daily,https://www.cvs.com/immunizations/covid-19-vaccine,800-SHOP-CVS (1-800-746-7287),,,,,42.347056,-71.0738,#blue-star,Pfizer
Boston: CVS (Commonwealth Ave),"900 Commonwealth Avenue, Boston, MA 02215",2215,All eligible people statewide,Indoor,Daily,https://www.cvs.com/immunizations/covid-19-vaccine,800-SHOP-CVS (1-800-746-7287),,,,,42.351058,-71.116113,#blue-star,Pfizer
Boston: CVS (Dorchester Avenue),"2235 Dorchester Avenue, Boston, MA 02124",2124,All eligible people statewide,Indoor,Daily,https://www.cvs.com/immunizations/covid-19-vaccine,800-SHOP-CVS (1-800-746-7287),,,Check-in 15min prior,,42.273948,-71.067615,#blue-star,Pfizer
Boston: CVS (Tremont St),"400 Tremont St, Boston, MA 02116",2116,All eligible people statewide,Indoor,Daily,https://www.cvs.com/immunizations/covid-19-vaccine,800-SHOP-CVS (1-800-746-7287),,,,,42.347291,-71.068741,#blue-star,Pfizer
Boston: Dimock Vaccine Clinic at Bethel AME Church Sanctuary,"40 Walk Hill St, Boston, MA 02130",2130,All eligible people statewide,Indoor,,,617-602-5568,,Walk-ins are welcome. No appointments required.,"Dimock will be holding a COVID-19 Vaccine Clinic at Bethel AME Church Sanctuary from June 8, 2021 - August 31, 2021. Join us Tuesdays from 2-6pm and Saturdays from 9am-3pm, except Saturday, July 3rd. Free parking is available.",,42.294192,-71.114761,#green-star,Moderna
Boston: East Boston Neighborhood Health Center,"120 Liverpool Street, Boston, MA 02128",2128,All eligible people statewide,Indoor,Monday-Saturday,https://bit.ly/EBNHCvax,,,,"This site accepts walk-ins. Note: This vaccination location will be closing on Saturday, June 26.","Accessible entrance, Wheelchair entrance, Wheelchair provided on-site, Accessible drop off and pick up",42.372854,-71.040411,#green-star,"Johnson and Johnson, Pfizer"
Boston: Fenway Health Ansin Building,"1340 Boylston Street, Boston, MA 02215",2215,All eligible people statewide,Indoor,Monday-Saturday,https://www.fenwayhealth.org/appointments,,,,Appointments for all eligible people 18 and older. This site is accessible by public transportation and by car. The Green Line D Branch Fenway stop is a five minute walk and the Green Line Kenmore Square stop is a 15 minute walk. The 55 Bus stops one block away. The Orange Line’s Ruggles T stop is a 20 minute walk. There is meter and garage parking in the neighborhood.,Accessible to those in wheelchairs or with mobility impairments. We use interpreter iPads for ASL and foreign language interpretation during vaccine appointments.,42.344367,-71.098526,#green-star,Moderna
Boston: Fenway South End,"142 Berkeley Street, 2nd floor, Boston, MA 02116",2116,All eligible people statewide,Indoor,Monday-Friday,https://www.fenwayhealth.org/appointments,,,,Appointments for all eligible people 18 and older. The vaccination clinic is on the building’s 2nd floor. 142 Berkeley Street is accessible by public transportation and by car. We are a 5 minute walk from the Orange Line’s Back Bay T station and a 15 minute walk from the Copley Square or Arlington T stops on the Green Line. There is meter and garage parking in the neighborhood.,Accessible to those in wheelchairs or with mobility impairments. We use interpreter iPads for ASL and foreign language interpretation during vaccine appointments.,42.348887,-71.071884,#green-star,Moderna
Boston: Galaxy Pharmacy - South Boston,"534 Dorchester Ave, Boston, MA 02127",2127,All eligible people statewide,Indoor,Monday-Friday,https://scrcxp.pdhi.com/Portal/Member/d1e1f5d5-007f-4167-b8d1-1ea83cb3b215/?qitq=f584cfe1-27e8-4347-b049-2ed531d4acb5&qitp=fd199449-959f-452c-b9cc-50937d90dae8&qitts=1619573909&qitc=pdhi&qite=covid19vaccination&qitrt=Safetynet&qith=1b8efd747360b68926e2973209a10bb4,617-268-0800,,,,,42.331075,-71.056971,#blue-star,Moderna
Boston: Gary Drug Company,"59 Charles Street, Boston, MA 02114",2114,All eligible people statewide,Indoor,Will vary,https://www.garydrug.com/,,,,,,42.357694,-71.070238,#blue-star,"Johnson and Johnson, Moderna"
Boston: Osco (Causeway St.),"90 Causeway St, Boston, MA 02114",2114,All eligible people statewide,Indoor,Daily,https://www.mhealthappointments.com/covidappt,857-409-3410,,,,,42.365621,-71.061076,#blue-star,"Johnson and Johnson, Moderna, Pfizer"
Boston: Osco (Commonwealth Ave.),"1065 Commonwealth Ave., Boston, MA 02215",2215,All eligible people statewide,Indoor,Daily,https://www.mhealthappointments.com/covidappt,617-782-4585,,,,,42.352124,-71.123449,#blue-star,"Johnson and Johnson, Moderna, Pfizer"
Boston: South Boston Community Health Center,"409 W Broadway, South Boston, MA 02127",2127,All eligible people statewide,Indoor,Monday-Friday,http://bit.ly/38SUWs2,,,Appointments available Monday-Friday,"We offer direct scheduling for 1st doses and catch-up 2nd doses.
Please arrive at the back door off of Silver St.
No parking available",,42.336927,-71.047928,#green-star,"Moderna, Pfizer"
Boston: Sullivan's Health Care Inc,"30 Belgrade Avenue, Boston, MA 02131",2131,All eligible people statewide,Indoor,Daily,,617-323-6544,,,,,42.286672,-71.131318,#blue-star,"Johnson and Johnson, Moderna"
Boston: Tai Tung Pharmacy,"256 Harrison Avenue, Boston, MA 02111",2111,All eligible people statewide,Indoor,,https://www.taitungrx.com/covid-19-vaccine-info,,,,,,42.347765,-71.06268,#blue-star,"Johnson and Johnson, Moderna"
Boston: Tufts Medical Center at Courtyard by Marriott Boston Downtown,"279 Tremont Street, Boston, MA 02116",2116,All eligible people statewide,Indoor,Monday-Friday,https://www.tuftsmcvaccine.org/,,,"If you currently qualify for a vaccine, please go to our website to schedule an appointment and register for your visit. Please do not call Tufts MC or the Courtyard by Marriott.","The Courtyard by Marriott is accessible by the MBTA Orange Line, “Tufts Medical Center” stop and the Green Line, “Boylston St” stop. Additionally, by bus 11 or the Silver Line to “Washington St at Tufts Med Ctr” stop and bus 43 to “285 Tremont Street” stop. For non-English speaking community members, we will have interpreter services present to help answer any questions.",The vaccination site is wheelchair accessible and staff are available to assist with wheelchair access. We have wheelchairs onsite for use.,42.349702,-71.065303,#green-star,Pfizer
Boston: Walgreens (1 Central Sq),"1 Central Sq, Boston, MA 02128",2128,All eligible people statewide,Indoor,Daily,https://home.color.com/vaccine/register/natickmall,800-925-4733,,,Appointment only,,42.374275,-71.039073,#blue-star,Moderna
Boston: Walgreens (1603 Washington St),"1603 Washington St, Boston, MA 02118",2118,All eligible people statewide,Indoor,Daily,https://www.walgreens.com/findcare/vaccination/covid-19,800-925-4733,,,Appointment only,,42.338087,-71.074759,#blue-star,Pfizer
Boston: Walgreens (1999 Centre St),"1999 Centre St, Boston, MA 02132",2132,All eligible people statewide,Indoor,Daily,https://www.walgreens.com/findcare/vaccination/covid-19,800-925-4733,,,Appointment only,,42.281719,-71.157895,#blue-star,Moderna
Boston: Walgreens (2275 Washington St),"2275 Washington St, Boston, MA 02119",2119,All eligible people statewide,Indoor,Daily,https://www.walgreens.com/findcare/vaccination/covid-19,800-925-4733,,,Appointment only,,42.330458,-71.083744,#blue-star,Pfizer
Boston: Walgreens (585 Washington St),"585 Washington St, Boston, MA 02124",2124,All eligible people statewide,Indoor,Daily,https://www.walgreens.com/findcare/vaccination/covid-19,800-925-4733,,,Appointment only,,42.291121,-71.071674,#blue-star,Moderna
Boston: Walgreens (Boylston St),"841 Boylston St, Boston, MA 02116",2116,All eligible people statewide,Indoor,Daily,https://www.walgreens.com/findcare/vaccination/covid-19,800-925-4733,,,Appointment only,,42.348703,-71.082492,#blue-star,Johnson and Johnson
Boston: Walgreens (Cambridge St),"465 Cambridge St, Boston, MA 02134",2134,All eligible people statewide,Indoor,Daily,https://www.walgreens.com/findcare/vaccination/covid-19,800-925-4733,,,Appointment only,,42.353878,-71.136737,#blue-star,Pfizer
Boston: Walgreens (Dorchester Ave),"1100 Dorchester Ave, Boston, MA 02125",2125,All eligible people statewide,Indoor,Daily,https://www.walgreens.com/findcare/vaccination/covid-19,800-925-4733,,,Appointment only,,42.31324,-71.057145,#blue-star,"Johnson and Johnson, Pfizer"
Boston: Walgreens (E Broadway),"710 E Broadway, Boston, MA 02127",2127,All eligible people statewide,Indoor,Daily,https://www.walgreens.com/findcare/vaccination/covid-19,800-925-4733,,,Appointment only,,42.335606,-71.036489,#blue-star,Pfizer
Boston: Walgreens (Hyde Park Ave),"1329 Hyde Park Ave, Boston, MA 02136",2136,All eligible people statewide,Indoor,Daily,https://www.walgreens.com/findcare/vaccination/covid-19,800-925-4733,,,Appointment only,,42.253434,-71.124634,#blue-star,Pfizer
Boston: Walgreens (Morton St.),"825 Morton St, Boston, MA 02126",2126,All eligible people statewide,Indoor,Daily,https://www.walgreens.com/findcare/vaccination/covid-19,800-925-4733,,,Appointment only,,42.281807,-71.087409,#blue-star,Pfizer
Boston: Walgreens (School St),"24 School St, Boston, MA 02108",2108,All eligible people statewide,Indoor,Daily,https://www.walgreens.com/findcare/vaccination/covid-19,800-925-4733,,,Appointment only,,42.357597,-71.059084,#blue-star,Moderna
Boston: Walgreens (Tremont St),"1630 Tremont St, Boston, MA 02120",2120,All eligible people statewide,Indoor,Daily,https://www.walgreens.com/findcare/vaccination/covid-19,800-925-4733,,,Appointment only,,42.334079,-71.104626,#blue-star,Pfizer
Boston: Walgreens (Truman Hwy),"1065 Truman Hwy, Boston, MA 02136",2136,All eligible people statewide,Indoor,Daily,https://www.walgreens.com/findcare/vaccination/covid-19,800-925-4733,,,Appointment only,,42.241901,-71.126378,#blue-star,Pfizer
Bourne: CVS (Head Of The Bay Rd),"6 Head Of The Bay Road, Bourne, MA 02532",2532,All eligible people statewide,Indoor,Daily,https://www.cvs.com/immunizations/covid-19-vaccine,800-SHOP-CVS (1-800-746-7287),,,Check-in 15min prior,,41.752422,-70.597525,#blue-star,Moderna
Bradford: Whittier Rehabilitation Hospital,"145 Ward Hill Avenue, Bradford, MA 01835",1835,All eligible people statewide,Indoor,"Tuesday ,Thursday",https://www.whittierhealth.com/covid-vaccine-clinics/,,,,Located directly off of Exit 48 off 495; enter the front entrance of the building where you will be screened prior to the clinic.,,42.76155,-71.117554,#green-star,Moderna
Braintree: CVS (178 Washington St),"178 Washington St., Braintree, MA 02184",2184,All eligible people statewide,Indoor,Daily,https://www.cvs.com/immunizations/covid-19-vaccine,800-SHOP-CVS (1-800-746-7287),,,Check-in 15min prior,,42.227976,-71.003742,#blue-star,Moderna
Braintree: CVS (884 Washington St),"884 Washington St, Braintree, MA 02184",2184,All eligible people statewide,Indoor,Daily,https://www.cvs.com/immunizations/covid-19-vaccine,800-SHOP-CVS (1-800-746-7287),,,,,42.203287,-71.005112,#blue-star,Pfizer
Braintree: CVS (Granite St),"250 Granite St, Braintree, MA 02184",2184,All eligible people statewide,Indoor,Daily,https://www.cvs.com/immunizations/covid-19-vaccine,800-SHOP-CVS (1-800-746-7287),,,Check-in 15min prior,,42.219486,-71.026795,#blue-star,Moderna
Braintree: CVS (Grove St),"270 Grove St, Braintree, MA 02184",2184,All eligible people statewide,Indoor,Daily,https://www.cvs.com/immunizations/covid-19-vaccine,800-SHOP-CVS (1-800-746-7287),,,Check-in 15min prior,,42.190488,-70.988218,#blue-star,Moderna
Braintree: Stop & Shop (Grove Street),"316 Grove Street, Braintree, MA 02184",2184,All eligible people statewide,Indoor,Daily,https://www.stopandshop.com/covid-vaccine,781-356-8596,,,,,42.19018,-70.987776,#blue-star,"Johnson and Johnson, Moderna"
Braintree: Walgreens (Pearl St),"11 Pearl St, Braintree, MA 02184",2184,All eligible people statewide,Indoor,Daily,https://www.walgreens.com/findcare/vaccination/covid-19,800-925-4733,,,Appointment only,,42.20226,-71.004486,#blue-star,Moderna
Bridgewater: CVS (Summer St),"19 Summer St, Bridgewater, MA 02324",2324,All eligible people statewide,Indoor,Daily,https://www.cvs.com/immunizations/covid-19-vaccine,800-SHOP-CVS (1-800-746-7287),,,,,41.989379,-70.97391,#blue-star,Pfizer
Bridgewater: Walgreens (Central Sq.),"4 Central Sq., Bridgewater, MA 02324",2324,All eligible people statewide,Indoor,Daily,https://www.walgreens.com/findcare/vaccination/covid-19,800-925-4733,,,Appointment only,,41.990196,-70.975402,#blue-star,Moderna
Brighton: CVS (427 Washington Street),"427 Washington Street, Brighton, MA 02135",2135,All eligible people statewide,Indoor,Daily,https://www.cvs.com/immunizations/covid-19-vaccine,800-SHOP-CVS (1-800-746-7287),,,Check-in 15min prior,,42.349103,-71.156407,#blue-star,Moderna
Brighton: CVS (Beacon St),"1927 Beacon St, Brighton, MA 02135",2135,All eligible people statewide,Indoor,Daily,https://www.cvs.com/immunizations/covid-19-vaccine,800-SHOP-CVS (1-800-746-7287),,,Check-in 15min prior,,42.336118,-71.149112,#blue-star,Moderna
Brighton: CVS (Market Street),"207 Market Street, Brighton, MA 02135",2135,All eligible people statewide,Indoor,Daily,https://www.cvs.com/immunizations/covid-19-vaccine,800-SHOP-CVS (1-800-746-7287),,,Check-in 15min prior,,42.355453,-71.149537,#blue-star,Pfizer
Brighton: Osco (Western Ave),"370 Western Ave, Brighton, MA 02135",2135,All eligible people statewide,Indoor,Daily,https://www.mhealthappointments.com/covidappt,617-782-1628,,,,,42.362809,-71.138176,#blue-star,"Johnson and Johnson, Moderna, Pfizer"
Brockton: CVS (Belmont Street),"555 Belmont Street, Brockton, MA 02301",2301,All eligible people statewide,Indoor,Daily,https://www.cvs.com/immunizations/covid-19-vaccine,800-SHOP-CVS (1-800-746-7287),,,Check-in 15min prior,,42.074006,-71.041651,#blue-star,Moderna
Brockton: CVS (Cary Hill Plaza),"230 East Ashland St, Cary Hill Plaza, Brockton, MA 02302",2302,All eligible people statewide,Indoor,Daily,https://www.cvs.com/immunizations/covid-19-vaccine,800-SHOP-CVS (1-800-746-7287),,,Check-in 15min prior,,42.089313,-71.00096,#blue-star,Pfizer
Brockton: CVS (Centre St),"355 Centre St., Brockton, MA 02302",2302,All eligible people statewide,Indoor,Daily,https://www.cvs.com/immunizations/covid-19-vaccine,800-SHOP-CVS (1-800-746-7287),,,Check-in 15min prior,,42.083865,-71.005654,#blue-star,Pfizer
Brockton: CVS (Main St),"1267 Main St, Brockton, MA 02301",2301,All eligible people statewide,Indoor,Daily,https://www.cvs.com/immunizations/covid-19-vaccine,800-SHOP-CVS (1-800-746-7287),,,Check-in 15min prior,,42.060487,-71.01439,#blue-star,Moderna
Brockton: CVS (North Pearl St),"316 North Pearl Street, Brockton, MA 02301",2301,All eligible people statewide,Indoor,Daily,https://www.cvs.com/immunizations/covid-19-vaccine,800-SHOP-CVS (1-800-746-7287),,,Check-in 15min prior,,42.099942,-71.066621,#blue-star,Pfizer
Brockton: CVS (Oak St),"240 Oak St, Brockton, MA 02301",2301,All eligible people statewide,Indoor,Daily,https://www.cvs.com/immunizations/covid-19-vaccine,800-SHOP-CVS (1-800-746-7287),,,Check-in 15min prior,,42.100933,-71.034962,#blue-star,Pfizer
Brockton: Osco (Belmont St),"641 Belmont Street, Brockton, MA 02301",2301,All eligible people statewide,Indoor,Daily,https://www.mhealthappointments.com/covidappt,508-584-8520,,,,,42.07143,-71.044501,#blue-star,"Johnson and Johnson, Moderna, Pfizer"
Brockton: Stop & Shop (North Montello Street),"932 North Montello Street, Brockton, MA 02301",2301,All eligible people statewide,Indoor,Daily,https://www.stopandshop.com/covid-vaccine,508-427-6582,,,,,42.10938,-71.025138,#blue-star,Johnson and Johnson
Brockton: Walgreens (Centre St.),"771 Centre St., Brockton, MA 02302",2302,All eligible people statewide,Indoor,Daily,https://www.walgreens.com/findcare/vaccination/covid-19,800-925-4733,,,Appointment only,,42.086744,-70.987098,#blue-star,Pfizer
Brockton: Walgreens (Main St),"1101 Main St, Brockton, MA 02301",2301,All eligible people statewide,Indoor,Daily,https://www.walgreens.com/findcare/vaccination/covid-19,800-925-4733,,,Appointment only,,42.063833,-71.015568,#blue-star,Pfizer
Brockton: Walgreens (Pleasant St.),"610 Pleasant St., Brockton, MA 02301",2301,All eligible people statewide,Indoor,Daily,https://www.walgreens.com/findcare/vaccination/covid-19,800-925-4733,,,Appointment only,,42.089157,-71.044854,#blue-star,Moderna
Brockton: Walmart (Oak St.),"700 Oak St, Brockton, MA 02301",2301,All eligible people statewide,Indoor,Daily,https://www.walmart.com/pharmacy/,508-584-2333,,,,,42.101332,-71.055935,#blue-star,"Moderna, Pfizer"
Brookline: CVS (Beacon Street),"1322 Beacon Street, Brookline, MA 02446",2446,All eligible people statewide,Indoor,Daily,https://www.cvs.com/immunizations/covid-19-vaccine,800-SHOP-CVS (1-800-746-7287),,,Check-in 15min prior,,42.342304,-71.121109,#blue-star,Moderna
Brookline: CVS (Harvard Street),"294 Harvard Street, Brookline, MA 02446",2446,All eligible people statewide,Indoor,Daily,https://www.cvs.com/immunizations/covid-19-vaccine,800-SHOP-CVS (1-800-746-7287),,,Check-in 15min prior,,42.343055,-71.122704,#blue-star,Moderna
Brookline: CVS (Washington St),"400 Washington St., Brookline, MA 02446",2446,All eligible people statewide,Indoor,Daily,https://www.cvs.com/immunizations/covid-19-vaccine,800-SHOP-CVS (1-800-746-7287),,,Check-in 15min prior,,42.334864,-71.123745,#blue-star,Moderna
Brookline: Holtzman Medical Group,"1180 Beacon St, Brookline, MA 02446",2446,All eligible people statewide,Indoor,Varies,https://www.holtzmanmedical.org/covid19,,,,Take the elevator to the 6th floor,,42.344088,-71.114693,#green-star,Moderna
Brookline: Walgreens (Harvard St.),"99 Harvard St., Brookline, MA 02446",2446,All eligible people statewide,Indoor,Daily,https://www.walgreens.com/findcare/vaccination/covid-19,800-925-4733,,,Appointment only,,42.336179,-71.12075,#blue-star,Pfizer
Burlington: CVS (242 Cambridge St),"242 Cambridge St., Burlington, MA 01803",1803,All eligible people statewide,Indoor,Daily,https://www.cvs.com/immunizations/covid-19-vaccine,800-SHOP-CVS (1-800-746-7287),,,Check-in 15min prior,,42.512975,-71.202454,#blue-star,Pfizer
Burlington: CVS (34 Cambridge St),"34 Cambridge Street, Space 160, Burlington, MA 01803",1803,All eligible people statewide,Indoor,Daily,https://www.cvs.com/immunizations/covid-19-vaccine,800-SHOP-CVS (1-800-746-7287),,,Check-in 15min prior,,42.484011,-71.18918,#blue-star,Moderna
Burlington: Osco (Cambridge St),"180 A Cambridge Street, Burlington, MA 01803",1803,All eligible people statewide,Indoor,Daily,https://www.mhealthappointments.com/covidappt,781-221-0144,,,,,42.509923,-71.198975,#blue-star,"Johnson and Johnson, Moderna, Pfizer"
Burlington: Wegmans,"53 Third Avenue, Burlington, MA 01803",1803,All eligible people statewide,Indoor,Daily,https://www.wegmans.com/covid-vaccine-registration/,(800) 207-6099,,,Vaccine is available by appointment only. Appointments can be made online. Please bring insurance card and/or state ID if you have one.,,42.487604,-71.224968,#blue-star,Pfizer
Cambridge: Cambridge Health Alliance (Cambridge St),"1493 Cambridge St, Cambridge, MA 02139",2139,All eligible people statewide,Indoor,,,617-665-1438,,,,,42.374186,-71.104455,#blue-star,Moderna
Cambridge: Cambridge Health Alliance (Gore Street),"163 Gore Street, Cambridge, MA 02139",2139,All eligible people statewide,Indoor,,https://www.challiance.org/patients-visitors/covid-19-vaccine,617-499-6690,,,,,42.372726,-71.085618,#blue-star,"Johnson and Johnson, Moderna"
Cambridge: CVS (Alewife Brook Pkwy),"215 Alewife Brook Parkway, Cambridge, MA 02138",2138,All eligible people statewide,Indoor,Daily,https://www.cvs.com/immunizations/covid-19-vaccine,800-SHOP-CVS (1-800-746-7287),,,Check-in 15min prior,,42.389576,-71.142644,#blue-star,Moderna
Cambridge: CVS (Cambridge St),"225 Cambridge St, Cambridge, MA 02141",2141,All eligible people statewide,Indoor,Daily,https://www.cvs.com/immunizations/covid-19-vaccine,800-SHOP-CVS (1-800-746-7287),,,Check-in 15min prior,,42.371002,-71.079722,#blue-star,Moderna
Cambridge: CVS (JFK Street),"6 JFK Street, Cambridge, MA 02138",2138,All eligible people statewide,Indoor,Daily,https://www.cvs.com/immunizations/covid-19-vaccine,800-SHOP-CVS (1-800-746-7287),,,Check-in 15min prior,,42.372822,-71.119955,#blue-star,Moderna
Cambridge: CVS (Mass Ave),"624 Massachusetts Ave., Cambridge, MA 02139",2139,All eligible people statewide,Indoor,Daily,https://www.cvs.com/immunizations/covid-19-vaccine,800-SHOP-CVS (1-800-746-7287),,,Check-in 15min prior,,42.365282,-71.103512,#blue-star,Pfizer
Cambridge: CVS (White St),"36 White St, Cambridge, MA 02140",2140,All eligible people statewide,Indoor,Daily,https://www.cvs.com/immunizations/covid-19-vaccine,800-SHOP-CVS (1-800-746-7287),,,Check-in 15min prior,,42.388722,-71.118753,#blue-star,Moderna
Cambridge: Inman Pharmacy Inc,"1414 Cambridge Street, Cambridge, MA 02139",2139,All eligible people statewide,Indoor,Wednesday-Friday,http://www.inmanpharmacy.com/,617-876-4868,,,,,42.373797,-71.101468,#blue-star,"Johnson and Johnson, Moderna"
Cambridge: Osco (Mt. Auburn St),"699 Mt. Auburn Street, Cambridge, MA 02138",2138,All eligible people statewide,Indoor,Daily,https://www.mhealthappointments.com/covidappt,617-661-9337,,,,,42.374842,-71.148778,#blue-star,"Johnson and Johnson, Moderna, Pfizer"
Cambridge: Walgreens (1470 Massachusetts Ave),"1740 Massachusetts Ave, Cambridge, MA 02138",2138,All eligible people statewide,Indoor,Daily,https://www.walgreens.com/findcare/vaccination/covid-19,800-925-4733,,,Appointment only,,42.384521,-71.119493,#blue-star,Moderna
Cambridge: Walgreens (625 Massachusetts Ave),"625 Massachusetts Ave, Cambridge, MA 02139",2139,All eligible people statewide,Indoor,Daily,https://www.walgreens.com/findcare/vaccination/covid-19,800-925-4733,,,Appointment only,,42.365265,-71.103484,#blue-star,Moderna
Cambridge: Walgreens (River St.),"330 River St., Cambridge, MA 02139",2139,All eligible people statewide,Indoor,Daily,https://www.walgreens.com/findcare/vaccination/covid-19,800-925-4733,,,Appointment only,,42.362065,-71.11406,#blue-star,Moderna
Canton: CVS (Washington St),"95 Washington Street, Canton, MA 02021",2021,All eligible people statewide,Indoor,Daily,https://www.cvs.com/immunizations/covid-19-vaccine,800-SHOP-CVS (1-800-746-7287),,,Check-in 15min prior,,42.140539,-71.148599,#blue-star,Pfizer
Canton: Osco (Washington St),"95 Washington St, Cobbs Corner, Canton, MA 02021",2021,All eligible people statewide,Indoor,Daily,https://www.mhealthappointments.com/covidappt,781-298-4400,,,,,42.139504,-71.148801,#blue-star,"Johnson and Johnson, Moderna, Pfizer"
Canton: Walgreens (Washington St),"595 Washington St, Canton, MA 02021",2021,All eligible people statewide,Indoor,Daily,https://www.walgreens.com/findcare/vaccination/covid-19,800-925-4733,,,Appointment only,,42.153796,-71.146192,#blue-star,Moderna
Carver: CVS (N. Main St),"100 D N. Main St., Carver, MA 02330",2330,All eligible people statewide,Indoor,Daily,https://www.cvs.com/immunizations/covid-19-vaccine,800-SHOP-CVS (1-800-746-7287),,,Check-in 15min prior,,41.924318,-70.805861,#blue-star,Moderna
Charlestown: CVS (Austin St),"21 Austin Street, Charlestown, MA 02129",2129,All eligible people statewide,Indoor,Daily,https://www.cvs.com/immunizations/covid-19-vaccine,800-SHOP-CVS (1-800-746-7287),,,,,42.37494,-71.065541,#blue-star,Pfizer
Charlton City: CVS (Worcester Rd),"142 Worcester Rd, Charlton City, MA 01507",1507,All eligible people statewide,Indoor,Daily,https://www.cvs.com/immunizations/covid-19-vaccine,800-SHOP-CVS (1-800-746-7287),,,,,42.145503,-71.96863,#blue-star,Pfizer
Chatham: CVS (Queen Anne Rd),"12 Queen Anne Rd., Chatham, MA 02633",2633,All eligible people statewide,Indoor,Daily,https://www.cvs.com/immunizations/covid-19-vaccine,800-SHOP-CVS (1-800-746-7287),,,Check-in 15min prior,,41.684885,-69.967145,#blue-star,Pfizer
Chelmsford: CVS (Boston Road),"16 Boston Road, Chelmsford, MA 01824",1824,All eligible people statewide,Indoor,Daily,https://www.cvs.com/immunizations/covid-19-vaccine,800-SHOP-CVS (1-800-746-7287),,,Check-in 15min prior,,42.594577,-71.351534,#blue-star,Pfizer
Chelmsford: Hannaford (Drum Hill Shopping Center),"66-2 Drum Hill Shopping Ctr., Chelmsford, MA 01824",1824,All eligible people statewide,Indoor,Daily,http://www.hannaford.com/covid19vaccine,978-970-2001,,"Please use the website scheduler before calling Hannaford. Please do not call the pharmacy if no appointments are available; instead, check back later for additional openings. Vaccine is available by appointment only to those that are designated to be vaccinated according to the state's priority groups.",All patients are required to wear a mask. Please do not arrive at the pharmacy more than five minutes before your scheduled appointment time. Bring your driver’s license and insurance card. All patients will be asked to wait in the pharmacy area for a required observation for 15-30 minutes after receiving their vaccination.,,42.624457,-71.362466,#blue-star,"Johnson and Johnson, Moderna, Pfizer"
Chelmsford: Walgreens (Chelmsford St),"86 Chelmsford St, Chelmsford, MA 01824",1824,All eligible people statewide,Indoor,Daily,https://www.walgreens.com/findcare/vaccination/covid-19,800-925-4733,,,Appointment only,,42.601435,-71.347213,#blue-star,Moderna
Chelmsford: Walmart (Parkhurst Rd.),"66 Parkhurst Rd # 4, Chelmsford, MA 01824",1824,All eligible people statewide,Indoor,Daily,https://www.walmart.com/pharmacy/,978-459-1818,,,,,42.623488,-71.359992,#blue-star,"Moderna, Pfizer"
Chelsea: CVS (Broadway),"324 Broadway, Chelsea, MA 02150",2150,All eligible people statewide,Indoor,Daily,https://www.cvs.com/immunizations/covid-19-vaccine,800-SHOP-CVS (1-800-746-7287),,,Check-in 15min prior,,42.391596,-71.036208,#blue-star,Moderna
Chelsea: CVS (Revere Beach Pkwy),"1010 Revere Beach Pkwy, Chelsea, MA 02150",2150,All eligible people statewide,Indoor,Daily,https://www.cvs.com/immunizations/covid-19-vaccine,800-SHOP-CVS (1-800-746-7287),,,Check-in 15min prior,,42.405486,-71.02046,#blue-star,Moderna
Chelsea: Margolis Pharmacy,"447 Broadway, Chelsea, MA 02150",2150,All eligible people statewide,Indoor,Monday-Saturday,https://www.flagpharmacy.com/margolis,617-884-3524,,,,,42.392561,-71.034527,#blue-star,"Johnson and Johnson, Moderna, Pfizer"
Chelsea: Walgreens (Broadway),"1010 Broadway, Chelsea, MA 02150",2150,All eligible people statewide,Indoor,Daily,https://www.walgreens.com/findcare/vaccination/covid-19,800-925-4733,,,Appointment only,,42.402636,-71.01896,#blue-star,Pfizer
Chestnut Hill: CVS (Boylston Street),"1195 Boylston Street, Chestnut Hill, MA 02467",2467,All eligible people statewide,Indoor,Daily,https://www.cvs.com/immunizations/covid-19-vaccine,800-SHOP-CVS (1-800-746-7287),,,Check-in 15min prior,,42.323359,-71.164524,#blue-star,Moderna
Chestnut Hill: CVS (VFW Pkwy),"647 VFW Pkwy, Chestnut Hill, MA 02467",2467,All eligible people statewide,Indoor,Daily,https://www.cvs.com/immunizations/covid-19-vaccine,800-SHOP-CVS (1-800-746-7287),,,Check-in 15min prior,,42.294901,-71.159713,#blue-star,Moderna
Chestnut Hill: V-Care Pharmacy of Chestnut Hill,"1244 Boylston St, Chestnut Hill, MA 02467",2467,All eligible people statewide,Indoor,Monday-Friday,https://scrcxp.pdhi.com/Portal/Member/d1e1f5d5-007f-4167-b8d1-1ea83cb3b215/?qitq=8dd51fd8-5c70-4596-a131-6dae8ca97b96&qitp=67d9c7a9-9190-4456-894f-5d94cc92b456&qitts=1618440984&qitc=pdhi&qite=covid19vaccination&qitrt=Safetynet&qith=aac39eb8c5fdacfe53a48283af4acb9f,617-440-9622,,,,,42.322619,-71.166889,#blue-star,Moderna
Chestnut Hill: Wegmans,"200 Boylston St, Chestnut Hill, MA 02467",2467,All eligible people statewide,Indoor,Daily,https://www.wegmans.com/covid-vaccine-registration/,(800) 207-6099,,,Vaccine is available by appointment only. Appointments can be made online. Please bring insurance card and/or state ID if you have one.,,42.319783,-71.176918,#blue-star,Pfizer
Chicopee: Big Y,"650 Memorial Drive Chicopee, MA 01020",1020,All eligible people statewide,Outdoor,"Thursday, Friday & Saturday",,(413) 593-0204,,,"Clinic can be found outside of the store by the main entrance. No pre-registration required, walk-ups are encouraged and welcomed",,42.175724,-72.576532,#green-star,"Johnson and Johnson, Pfizer"
Chicopee: CVS (Center St),"235 Center St, Chicopee, MA 01013",1013,All eligible people statewide,Indoor,Daily,https://www.cvs.com/immunizations/covid-19-vaccine,800-SHOP-CVS (1-800-746-7287),,,Check-in 15min prior,,42.142164,-72.611439,#blue-star,Moderna
Chicopee: CVS (Granby Rd),"1176 Granby Rd, Chicopee, MA 01020",1020,All eligible people statewide,Indoor,Daily,https://www.cvs.com/immunizations/covid-19-vaccine,800-SHOP-CVS (1-800-746-7287),,,Check-in 15min prior,,42.174379,-72.587252,#blue-star,Moderna
Chicopee: CVS (Memorial Dr),"1616 Memorial Dr, Chicopee, MA 01020",1020,All eligible people statewide,Indoor,Daily,https://www.cvs.com/immunizations/covid-19-vaccine,800-SHOP-CVS (1-800-746-7287),,,Check-in 15min prior,,42.202347,-72.571859,#blue-star,Moderna
Chicopee: Stop & Shop (Memorial Drive),"672 Memorial Drive, Route 33, Chicopee, MA 01021",1021,All eligible people statewide,Indoor,Daily,https://www.stopandshop.com/covid-vaccine,413-593-3999,,,,,42.176252,-72.576611,#blue-star,Pfizer
Chicopee: Walgreens (Granby Rd),"1195 Granby Rd, Chicopee, MA 01020",1020,All eligible people statewide,Indoor,Daily,https://www.walgreens.com/findcare/vaccination/covid-19,800-925-4733,,,Appointment only,,42.175299,-72.586394,#blue-star,Pfizer
Chicopee: Walgreens (James St.),"583 James St., Chicopee, MA 01020",1020,All eligible people statewide,Indoor,Daily,https://www.walgreens.com/findcare/vaccination/covid-19,800-925-4733,,,Appointment only,,42.200874,-72.571027,#blue-star,Pfizer
Chicopee: Walgreens (Meadow St),"577 Meadow St, Chicopee, MA 01013",1013,All eligible people statewide,Indoor,Daily,https://www.walgreens.com/findcare/vaccination/covid-19,800-925-4733,,,Appointment only,,42.171045,-72.614539,#blue-star,Pfizer
Chicopee: Walgreens (Saint James Ave.),"1 Saint James Ave., Chicopee, MA 01020",1020,All eligible people statewide,Indoor,Daily,https://www.walgreens.com/findcare/vaccination/covid-19,800-925-4733,,,Appointment only,,42.147494,-72.579297,#blue-star,Pfizer
Chicopee: Walmart (Memorial Dr),"591 Memorial Dr, Chicopee, MA 01020",1020,All eligible people statewide,Indoor,Daily,https://www.walmart.com/pharmacy/,413-593-3192,,,,,42.173442,-72.576404,#blue-star,"Moderna, Pfizer"
Clinton: CVS (Main St),"792 Main Street, Clinton, MA 01510",1510,All eligible people statewide,Indoor,Daily,https://www.cvs.com/immunizations/covid-19-vaccine,800-SHOP-CVS (1-800-746-7287),,,Check-in 15min prior,,42.425774,-71.68765,#blue-star,Moderna
Clinton: Rite Aid,"1031 Main St, Clinton, MA 01510",1510,All eligible people statewide,Indoor,Daily,https://www.riteaid.com/pharmacy/covid-qualifier,978-368-8540,,,,,42.432371,-71.686662,#blue-star,"Johnson and Johnson, Moderna"
Clinton: Walgreens (Main St.),"720 Main St., Clinton, MA 01510",1510,All eligible people statewide,Indoor,Daily,https://www.walgreens.com/findcare/vaccination/covid-19,800-925-4733,,,Appointment only,,42.423282,-71.687446,#blue-star,Pfizer
"Cohasset: CVS (Justice Cushing Way, Rte 3A)","790 Justice Cushing Way, Rte 3A, Cohasset, MA 02025",2025,All eligible people statewide,Indoor,Daily,https://www.cvs.com/immunizations/covid-19-vaccine,800-SHOP-CVS (1-800-746-7287),,,Check-in 15min prior,,42.240442,-70.813027,#blue-star,Moderna
Cohasset: Walgreens (Chief Justice Cushing Hwy),"735 Chief Justice Cushing Hwy, Cohasset, MA 02025",2025,All eligible people statewide,Indoor,Daily,https://www.walgreens.com/findcare/vaccination/covid-19,800-925-4733,,,Appointment only,,42.223006,-70.804172,#blue-star,Pfizer
Concord: Concord Pharmacy Inc,"1212 Main Street, Concord, MA 01742",1742,All eligible people statewide,Indoor,Daily,,978-369-3100,,,,,42.456483,-71.391773,#blue-star,Moderna
Concord: CVS (Sudbury Road),"199 Sudbury Road, Concord, MA 01742",1742,All eligible people statewide,Indoor,Daily,https://www.cvs.com/immunizations/covid-19-vaccine,800-SHOP-CVS (1-800-746-7287),,,Check-in 15min prior,,42.455069,-71.357073,#blue-star,Moderna
Concord: Walgreens (Lowell Rd),"71 Lowell Rd, Concord, MA 01742",1742,All eligible people statewide,Indoor,Daily,https://www.walgreens.com/findcare/vaccination/covid-19,800-925-4733,,,Appointment only,,42.462896,-71.35128,#blue-star,Moderna
Danvers: Costco (Newbury St.),"11 Newbury St., Danvers, MA 01923",1923,All eligible people statewide,Indoor,Vary--check link,https://www.costco.com/covid-vaccine.html,978-750-4334,,,Please use the online scheduling system to book an appointment. Please do not contact the local Costco pharmacy as they are unable to schedule an appointment or provide current eligibility requirements.,,42.55645,-70.979114,#blue-star,Moderna
Danvers: CVS (Endicott St),"139 Endicott Street, Danvers, MA 01923",1923,All eligible people statewide,Indoor,Daily,https://www.cvs.com/immunizations/covid-19-vaccine,800-SHOP-CVS (1-800-746-7287),,,Check-in 15min prior,,42.549551,-70.932958,#blue-star,Moderna
Danvers: CVS (Independence Way),"240 Independence Way, Danvers, MA 01923",1923,All eligible people statewide,Indoor,Daily,https://www.cvs.com/immunizations/covid-19-vaccine,800-SHOP-CVS (1-800-746-7287),,,Check-in 15min prior,,42.552266,-70.936346,#blue-star,Moderna
Danvers: CVS (Maple Street),"1 Maple Street, Danvers, MA 01923",1923,All eligible people statewide,Indoor,Daily,https://www.cvs.com/immunizations/covid-19-vaccine,800-SHOP-CVS (1-800-746-7287),,,Check-in 15min prior,,42.565827,-70.935914,#blue-star,Moderna
Danvers: CVS (Newbury St),"311 Newbury St, Danvers, MA 01923",1923,All eligible people statewide,Indoor,Daily,https://www.cvs.com/immunizations/covid-19-vaccine,800-SHOP-CVS (1-800-746-7287),,,Check-in 15min prior,,42.587014,-70.965853,#blue-star,Pfizer
Danvers: Walgreens (High St.),"107 High St, Danvers, MA 01923",1923,All eligible people statewide,Indoor,Daily,https://www.walgreens.com/findcare/vaccination/covid-19,800-925-4733,,,Appointment only,,42.558991,-70.930496,#blue-star,Pfizer
Danvers: Walmart (Brooksby Village Way),"55 Brooksby Village Way, Danvers, MA 01923",1923,All eligible people statewide,Indoor,Daily,https://www.walmart.com/pharmacy/,978-777-6977,,,,,42.553513,-70.966266,#blue-star,"Moderna, Pfizer"
Dartmouth: Stop & Shop (Faunce Corner Road),"25 Faunce Corner Rd, Dartmouth, MA 02747",2747,All eligible people statewide,Indoor,Daily,https://www.stopandshop.com/covid-vaccine,508-999-7300,,,,,41.641983,-70.987724,#blue-star,Johnson and Johnson
Dedham: Costco (Legacy Blvd.),"200 Legacy Boulevard, Dedham, MA 02026",2026,All eligible people statewide,Indoor,Vary--check link,https://www.costco.com/covid-vaccine.html,781-251-9974,,,Please use the online scheduling system to book an appointment. Please do not contact the local Costco pharmacy as they are unable to schedule an appointment or provide current eligibility requirements.,,42.231314,-71.175261,#blue-star,Moderna
Dedham: CVS (Bussey St),"270 Bussey St, Della Park Plaza, Dedham, MA 02026",2026,All eligible people statewide,Indoor,Daily,https://www.cvs.com/immunizations/covid-19-vaccine,800-SHOP-CVS (1-800-746-7287),,,Check-in 15min prior,,42.244095,-71.17037,#blue-star,Pfizer
Dedham: CVS (Eastern Avenue),"19 Eastern Avenue, Dedham, MA 02026",2026,All eligible people statewide,Indoor,Daily,https://www.cvs.com/immunizations/covid-19-vaccine,800-SHOP-CVS (1-800-746-7287),,,Check-in 15min prior,,42.247513,-71.172433,#blue-star,Moderna
Dedham: CVS (Providence Hwy),"947 Providence Hwy, Dedham, MA 02026",2026,All eligible people statewide,Indoor,Daily,https://www.cvs.com/immunizations/covid-19-vaccine,800-SHOP-CVS (1-800-746-7287),,,Check-in 15min prior,,42.233389,-71.179978,#blue-star,Moderna
Dedham: Dedham Pharmacy & Medical Supply (Providence Hwy.),"596 Providence Highway, Norfolk, MA 02026",2026,All eligible people statewide,,Monday-Saturday,https://www.dedhampharmacy.com/,(781) 326-7007,,,,,42.243598,-71.17434,#blue-star,"Moderna, Pfizer"
Dedham: Stop & Shop (Providence Highway),"160 Providence Highway, Dedham, MA 02026",2026,All eligible people statewide,Indoor,Daily,https://www.stopandshop.com/covid-vaccine,781-320-1574,,,,,42.258747,-71.169828,#blue-star,Johnson and Johnson
Dennisport: Walgreens (Main St),"711 Main St, Dennisport, MA 02639",2639,All eligible people statewide,Indoor,Daily,https://www.walgreens.com/findcare/vaccination/covid-19,800-925-4733,,,Appointment only,,41.668784,-70.122229,#blue-star,Moderna
Dorchester: Boys & Girls Club of Dorchester,"1135 Dorchester Ave, Dorchester, MA 02125",2125,All eligible people statewide,Outdoor,Thursday,https://uphamscornerhealthcenter.org/covidpatient/,(617) 288-7120,,No appointment necessary,"No ID, appointment or insurance needed","Accessible entrance, wheelchair entrance, accessible parking, accessible drop off and pick up",42.311916,-71.057448,#green-star,"Johnson and Johnson, Moderna, Pfizer"
Dorchester: CVS (Blue Hill Ave),"468 Blue Hill Ave, Dorchester, MA 02121",2121,All eligible people statewide,Indoor,Daily,https://www.cvs.com/immunizations/covid-19-vaccine,800-SHOP-CVS (1-800-746-7287),,,Check-in 15min prior,,42.309004,-71.082809,#blue-star,Pfizer
Dorchester: CVS (Dudley St),"778 Dudley Street, Dorchester, MA 02125",2125,All eligible people statewide,Indoor,Daily,https://www.cvs.com/immunizations/covid-19-vaccine,800-SHOP-CVS (1-800-746-7287),,,Check-in 15min prior,,42.317264,-71.065734,#blue-star,Moderna
Dorchester: CVS (Gallivan Blvd),"703 Gallivan Blvd, Dorchester, MA 02124",2124,All eligible people statewide,Indoor,Daily,https://www.cvs.com/immunizations/covid-19-vaccine,800-SHOP-CVS (1-800-746-7287),,,Check-in 15min prior,,42.283602,-71.047763,#blue-star,Moderna
Dorchester: CVS (Morrissey Blvd),"715 Morrissey Boulevard, Dorchester, MA 02122",2122,All eligible people statewide,Indoor,Daily,https://www.cvs.com/immunizations/covid-19-vaccine,800-SHOP-CVS (1-800-746-7287),,,Check-in 15min prior,,42.297494,-71.04934,#blue-star,Moderna
Dorchester: CVS (Washington St),"451 Washington St, Dorchester, MA 02124",2124,All eligible people statewide,Indoor,Daily,https://www.cvs.com/immunizations/covid-19-vaccine,800-SHOP-CVS (1-800-746-7287),,,Check-in 15min prior,,42.295707,-71.072138,#blue-star,Pfizer
Dorchester: Holy Tabernacle Church,"70 Washington St, Dorchester, MA 02121",2121,All eligible people statewide,Indoor,"Monday, Thursday",,617-602-5568,,Walk-In,"No insurance, ID or appointment necessary.","Accessible parking, accessible drop off and pick up",42.306239,-71.08154,#green-star,"Johnson and Johnson, Pfizer"
Dorchester: Osco (William T Morrissey Blvd),"45 William T Morrissey Blvd, Dorchester, MA 02125",2125,All eligible people statewide,Indoor,Daily,https://www.mhealthappointments.com/covidappt,617-265-7911,,,,,42.318736,-71.049987,#blue-star,"Johnson and Johnson, Moderna, Pfizer"
Dorchester: Russell Auditorium,"71 Talbot Ave, Dorchester, MA 02124",2124,All eligible people statewide,Indoor,Please click link to see availability,https://www.bmc.org/covid-19-vaccine-locations,,,,Please arrive with appointment information to check in.,"Wheelchair available on site. Accessible entrance, parking, dropoff, pickup. Translation services available via phone.",42.293835,-71.084323,#green-star,Moderna
Dorchester: Stop & Shop (Massachusetts Avenue),"1100 Massachusetts Avenue, Boston, MA 02125",2125,All eligible people statewide,Indoor,Daily,https://www.stopandshop.com/covid-vaccine,617-541-4300,,,,,42.325745,-71.065985,#blue-star,"Moderna, Pfizer"
Dorchester: Upham's Corner Health Center,"415 Columbia Rd, Dorchester, MA 02125",2125,All eligible people statewide,Indoor,"Monday, Tuesday, Wednesday, Thursday, Friday",https://uphamscornerhealthcenter.org/covidpatient/,,,,"No appointment, ID or insurance needed","Wheelchair entrance, wheelchair provided on-site, accessible parking, accessible drop off and pick up",42.312082,-71.068986,#green-star,"Johnson and Johnson, Moderna, Pfizer"
Dorchester: Vinh's Brothers,"1365-1377 Dorchester Ave, Dorchester, MA 02122",2122,All eligible people statewide,Indoor,Daily,,617-282-9800,,,,,42.30397,-71.059247,#blue-star,Moderna
Dorchester: Walgreens (Gallivan Blvd.),"757 Gallivan Blvd, Dorchester, MA 02122",2122,All eligible people statewide,Indoor,Daily,https://www.walgreens.com/findcare/vaccination/covid-19,800-925-4733,,,Appointment only,,42.284463,-71.04524,#blue-star,Pfizer
Dracut: CVS (Broadway Rd),"4 Broadway Road, Dracut, MA 01826",1826,All eligible people statewide,Indoor,Daily,https://www.cvs.com/immunizations/covid-19-vaccine,800-SHOP-CVS (1-800-746-7287),,,Check-in 15min prior,,42.671088,-71.295851,#blue-star,Pfizer
Dracut: CVS (Lakeview Ave),"2019 Lakeview Ave., Dracut, MA 01826",1826,All eligible people statewide,Indoor,Daily,https://www.cvs.com/immunizations/covid-19-vaccine,800-SHOP-CVS (1-800-746-7287),,,Check-in 15min prior,,42.682873,-71.3536,#blue-star,Pfizer
Dracut: Hannaford,"301 Pleasant Street, Dracut, MA 01826",1826,All eligible people statewide,Indoor,Daily,http://www.hannaford.com/covid19vaccine,978-452-5255,,"Please use the website scheduler before calling Hannaford. Please do not call the pharmacy if no appointments are available; instead, check back later for additional openings. Vaccine is available by appointment only to those that are designated to be vaccinated according to the state's priority groups.",All patients are required to wear a mask. Please do not arrive at the pharmacy more than five minutes before your scheduled appointment time. Bring your driver’s license and insurance card. All patients will be asked to wait in the pharmacy area for a required observation for 15-30 minutes after receiving their vaccination.,,42.665254,-71.312261,#blue-star,"Moderna, Pfizer"
Dudley: Walgreens (Schofield Avenue),"5 Schofield Avenue, Dudley, MA 01571",1571,All eligible people statewide,Indoor,Daily,https://www.walgreens.com/findcare/vaccination/covid-19,800-925-4733,,,Appointment only,,42.047122,-71.890483,#blue-star,Johnson and Johnson
Duxbury: Walgreens (Depot Street),"28 Depot Street, Duxbury, MA 02332",2332,All eligible people statewide,Indoor,Daily,https://www.walgreens.com/findcare/vaccination/covid-19,800-925-4733,,,Appointment only,,42.024257,-70.683292,#blue-star,Moderna
E Longmeadow: Stop & Shop (North Main Street),"470 North Main Street, E Longmeadow, MA 01028",1028,All eligible people statewide,Indoor,Daily,https://www.stopandshop.com/covid-vaccine,413-525-6929,,,,,42.078817,-72.528992,#blue-star,Pfizer
East Boston: CVS (Border St),"210 Border Street, East Boston, MA 02128",2128,All eligible people statewide,Indoor,Daily,https://www.cvs.com/immunizations/covid-19-vaccine,800-SHOP-CVS (1-800-746-7287),,,Check-in 15min prior,,42.375265,-71.039761,#blue-star,Moderna
East Boston: CVS (Saratoga St),"1150 Saratoga Street, East Boston, MA 02128",2128,All eligible people statewide,Indoor,Daily,https://www.cvs.com/immunizations/covid-19-vaccine,800-SHOP-CVS (1-800-746-7287),,,Check-in 15min prior,,42.384026,-70.999455,#blue-star,Moderna
East Bridgewater: CVS (Bedford St),"119 Bedford St, East Bridgewater, MA 02333",2333,All eligible people statewide,Indoor,Daily,https://www.cvs.com/immunizations/covid-19-vaccine,800-SHOP-CVS (1-800-746-7287),,,Check-in 15min prior,,42.030318,-70.958493,#blue-star,Moderna
East Falmouth: CVS (E Falmouth Hwy),"419 East Falmouth Hwy., East Falmouth, MA 02536",2536,All eligible people statewide,Indoor,Daily,https://www.cvs.com/immunizations/covid-19-vaccine,800-SHOP-CVS (1-800-746-7287),,,Check-in 15min prior,,41.578469,-70.558087,#blue-star,Moderna
East Falmouth: Osco (Tea Ticket Highway),"137 Tea Ticket Highway, East Falmouth, MA 02536",2536,All eligible people statewide,Indoor,Daily,https://www.mhealthappointments.com/covidappt,508-457-1185,,,,,41.563942,-70.596314,#blue-star,"Johnson and Johnson, Moderna, Pfizer"
East Longmeadow: CVS (North Main Street),"217 North Main Street, East Longmeadow, MA 01028",1028,All eligible people statewide,Indoor,Daily,https://www.cvs.com/immunizations/covid-19-vaccine,800-SHOP-CVS (1-800-746-7287),,,Check-in 15min prior,,42.072593,-72.518782,#blue-star,Moderna
East Longmeadow: Walgreens (Center Sq),"54 Center Sq, East Longmeadow, MA 01028",1028,All eligible people statewide,Indoor,Daily,https://www.walgreens.com/findcare/vaccination/covid-19,800-925-4733,,,Appointment only,,42.06476,-72.513257,#blue-star,Moderna
East Wareham: CVS (Cranberry Hwy),"2992 Cranberry Hwy, East Wareham, MA 02538",2538,All eligible people statewide,Indoor,Daily,https://www.cvs.com/immunizations/covid-19-vaccine,800-SHOP-CVS (1-800-746-7287),,,Check-in 15min prior,,41.759688,-70.664607,#blue-star,Moderna
"Easthampton: CVS (Route 10, 118 Northampton Street)","Route 10, 118 Northampton Street, Easthampton, MA 01027",1027,All eligible people statewide,Indoor,Daily,https://www.cvs.com/immunizations/covid-19-vaccine,800-SHOP-CVS (1-800-746-7287),,,Check-in 15min prior,,42.28016,-72.67331,#blue-star,Moderna
Easthampton: Walgreens (Union Street),"32 Union Street, Easthampton, MA 01027",1027,All eligible people statewide,Indoor,Daily,https://www.walgreens.com/findcare/vaccination/covid-19,800-925-4733,,,Appointment only,,42.269218,-72.671567,#blue-star,Pfizer
Edgartown: Stop & Shop (Vineyard Haven Road),"245 Vineyard Haven Road, Edgartown, MA 02539",2539,All eligible people statewide,Indoor,Daily,https://www.stopandshop.com/covid-vaccine,508-627-5107,,,,,41.395284,-70.530196,#blue-star,Moderna
Essex: TOHP Burnham Library,"30 Martin St, Essex, MA 01929",1929,All eligible people statewide,Indoor,Thursday,https://home.color.com/vaccine/register/capeann,,,,,"Accessible entrance, Accessible parking. Able to vaccinate in car, if medically necessary.",42.631882,-70.78317,#green-star,"Johnson and Johnson, Pfizer"
Everett: Costco (Mystic View Rd.),"2 Mystic View Road, Everett, MA 02149",2149,All eligible people statewide,Indoor,Vary--check link,https://www.costco.com/covid-vaccine.html,617-544-4805,,,Please use the online scheduling system to book an appointment. Please do not contact the local Costco pharmacy as they are unable to schedule an appointment or provide current eligibility requirements.,,42.399192,-71.073179,#blue-star,Moderna
Everett: CVS (Mystic View Rd),"1 Mystic View Rd., Everett, MA 02149",2149,All eligible people statewide,Indoor,Daily,https://www.cvs.com/immunizations/covid-19-vaccine,800-SHOP-CVS (1-800-746-7287),,,Check-in 15min prior,,42.398942,-71.073473,#blue-star,Moderna
Everett: Walgreens (Broadway),"405 Broadway, Everett, MA 02149",2149,All eligible people statewide,Indoor,Daily,https://www.walgreens.com/findcare/vaccination/covid-19,800-925-4733,,,Appointment only,,42.406147,-71.056354,#blue-star,Pfizer
Everett: Walgreens (Ferry St.),"317 Ferry St., Everett, MA 02149",2149,All eligible people statewide,Indoor,Daily,https://www.walgreens.com/findcare/vaccination/covid-19,800-925-4733,,,Appointment only,,42.414509,-71.047473,#blue-star,Moderna
"Fairhaven: CVS (Sarah's Way, Route 6)","10 Sarah's Way, Route 6, Fairhaven, MA 02719",2719,All eligible people statewide,Indoor,Daily,https://www.cvs.com/immunizations/covid-19-vaccine,800-SHOP-CVS (1-800-746-7287),,,Check-in 15min prior,,41.645787,-70.896497,#blue-star,Moderna
Fairhaven: Stop & Shop (Huttleston Avenue),"221 Huttleston Avenue, Fairhaven, MA 02719",2719,All eligible people statewide,Indoor,Daily,https://www.stopandshop.com/covid-vaccine,508-990-4700,,,,,41.640927,-70.880106,#blue-star,"Johnson and Johnson, Pfizer"
Fairhaven: Walgreens (220 Huttleston Ave.),"220 Huttleston Ave, Fairhaven, MA 02719",2719,All eligible people statewide,Indoor,Daily,https://www.walgreens.com/findcare/vaccination/covid-19,800-925-4733,,,Appointment only,,41.641227,-70.879356,#blue-star,Pfizer
Fairhaven: Walgreens (85 Huttleston Avenue),"85 Huttleston Avenue, Fairhaven, MA 02719",2719,All eligible people statewide,Indoor,Daily,https://www.walgreens.com/findcare/vaccination/covid-19,800-925-4733,,,Appointment only,,41.644529,-70.898358,#blue-star,Pfizer
Fairhaven: Walmart (Fairhaven Commons Way),"42 Fairhaven Commons Way, Fairhaven, MA 02719",2719,All eligible people statewide,Indoor,Daily,https://www.walmart.com/pharmacy/,508-993-8100,,,,,41.644317,-70.885971,#blue-star,"Moderna, Pfizer"
Fall River: CVS (North Main Street),"4171 North Main Street, Fall River, MA 02720",2720,All eligible people statewide,Indoor,Daily,https://www.cvs.com/immunizations/covid-19-vaccine,800-SHOP-CVS (1-800-746-7287),,,Check-in 15min prior,,41.751449,-71.122054,#blue-star,Moderna
Fall River: CVS (Pleasant St),"550 Pleasant St., Fall River, MA 02720",2720,All eligible people statewide,Indoor,Daily,https://www.cvs.com/immunizations/covid-19-vaccine,800-SHOP-CVS (1-800-746-7287),,,Check-in 15min prior,,41.698602,-71.146329,#blue-star,Moderna
Fall River: CVS (President Ave),"1620 President Avenue, Fall River, MA 02720",2720,All eligible people statewide,Indoor,Daily,https://www.cvs.com/immunizations/covid-19-vaccine,800-SHOP-CVS (1-800-746-7287),,,Check-in 15min prior,,41.712032,-71.127697,#blue-star,Pfizer
Fall River: CVS (William S. Canning Blvd),"245 William S. Canning Blvd, Fall River, MA 02721",2721,All eligible people statewide,Indoor,Daily,https://www.cvs.com/immunizations/covid-19-vaccine,800-SHOP-CVS (1-800-746-7287),,,Check-in 15min prior,,41.674203,-71.161677,#blue-star,Pfizer
Fall River: Rite Aid (1024 S. Main St.),"1024 S. Main St., Fall River, MA 02724",2724,All eligible people statewide,Indoor,Daily,https://www.riteaid.com/pharmacy/covid-qualifier,508-672-0888,,,,,41.690722,-71.165795,#blue-star,"Johnson and Johnson, Pfizer"
Fall River: Rite Aid (233 S. Main St.),"233 S. Main St., Fall River, MA 02721",2721,All eligible people statewide,Indoor,Daily,https://www.riteaid.com/pharmacy/covid-qualifier,508-679-1838,,,,,41.699193,-71.157633,#blue-star,"Johnson and Johnson, Pfizer"
Fall River: Rite Aid (Stafford Rd),"10 Stafford Road, Fall River, MA 02721",2721,All eligible people statewide,Indoor,Daily,https://www.riteaid.com/pharmacy/covid-qualifier,508-679-9600,,,,,41.6885,-71.160106,#blue-star,"Johnson and Johnson, Pfizer"
Fall River: Stop & Shop (Mariano Bishop Boulevard),"333 Mariano Bishop Boulevard, Fall River, MA 02721",2721,All eligible people statewide,Indoor,Daily,https://www.stopandshop.com/covid-vaccine,508-675-0887,,,,,41.673811,-71.163271,#blue-star,Pfizer
Fall River: Stop & Shop (Rodman St),"501 Rodman Street, Fall River, MA 02721",2721,All eligible people statewide,Indoor,Daily,https://www.stopandshop.com/covid-vaccine,508-672-2366,,,,,41.694398,-71.151273,#blue-star,Moderna
Fall River: Walgreens (N Main St.),"870 N Main St., Fall River, MA 02720",2720,All eligible people statewide,Indoor,Daily,https://www.walgreens.com/findcare/vaccination/covid-19,800-925-4733,,,Appointment only,,41.713716,-71.152868,#blue-star,Moderna
Fall River: Walgreens (Pleasant St),"933 Pleasant St, Fall River, MA 02723",2723,All eligible people statewide,Indoor,Daily,https://www.walgreens.com/findcare/vaccination/covid-19,800-925-4733,,,Appointment only,,41.69538,-71.139978,#blue-star,Pfizer
Fall River: Walgreens (Plymouth Ave.),"369 Plymouth Ave., Fall River, MA 02721",2721,All eligible people statewide,Indoor,Daily,https://www.walgreens.com/findcare/vaccination/covid-19,800-925-4733,,,Appointment only,,41.695706,-71.15185,#blue-star,Pfizer
Fall River: Walgreens (Rhode Island Ave),"328 Rhode Island Ave, Fall River, MA 02721",2721,All eligible people statewide,Indoor,Daily,https://www.walgreens.com/findcare/vaccination/covid-19,800-925-4733,,,Appointment only,,41.677957,-71.162445,#blue-star,Moderna
Fall River: Walgreens (S Main St.),"1512 S Main St., Fall River, MA 02724",2724,All eligible people statewide,Indoor,Daily,https://www.walgreens.com/findcare/vaccination/covid-19,800-925-4733,,,Appointment only,,41.68641,-71.172532,#blue-star,Johnson and Johnson
Fall River: Walmart (Quequechan St.),"638 Quequechan St, Fall River, MA 02721",2721,All eligible people statewide,Indoor,Daily,https://www.walmart.com/pharmacy/,508-730-2677,,,,,41.687114,-71.141607,#blue-star,"Johnson and Johnson, Pfizer"
Fall River: Walsh Pharmacy,"202 Rock Street, Fall River, MA 02720",2720,All eligible people statewide,Indoor,Daily,,508-812-7662,,,,,41.704425,-71.152621,#blue-star,"Johnson and Johnson, Moderna"
Falmouth: CVS (Davis Straits),"105 Davis Straits, Falmouth, MA 02540",2540,All eligible people statewide,Indoor,Daily,https://www.cvs.com/immunizations/covid-19-vaccine,800-SHOP-CVS (1-800-746-7287),,,Check-in 15min prior,,41.560553,-70.599338,#blue-star,Pfizer
Falmouth: Walgreens (Main Street),"520 Main Street, Falmouth, MA 02540",2540,All eligible people statewide,Indoor,Daily,https://www.walgreens.com/findcare/vaccination/covid-19,800-925-4733,,,Appointment only,,41.552379,-70.608248,#blue-star,Moderna
Feeding Hills: Stop & Shop,"1282 Springfield Street, Feeding Hills, MA 01030",1030,All eligible people statewide,Indoor,Daily,https://www.stopandshop.com/covid-vaccine,413-789-2226,,,,,42.067303,-72.674719,#blue-star,Pfizer
Fitchburg: CVS (Main St),"161 Main St, Fitchburg, MA 01420",1420,All eligible people statewide,Indoor,Daily,https://www.cvs.com/immunizations/covid-19-vaccine,800-SHOP-CVS (1-800-746-7287),,,Check-in 15min prior,,42.581795,-71.793991,#blue-star,Pfizer
"Fitchburg: CVS (Rollstone Rd, Park Hill Plaza)","57 Rollstone Rd, Park Hill Plaza, Fitchburg, MA 01420",1420,All eligible people statewide,Indoor,Daily,https://www.cvs.com/immunizations/covid-19-vaccine,800-SHOP-CVS (1-800-746-7287),,,Check-in 15min prior,,42.579854,-71.809066,#blue-star,Pfizer
Fitchburg: Walgreens (John Fitch Hwy.),"571 John Fitch Hwy., Fitchburg, MA 01420",1420,All eligible people statewide,Indoor,Daily,https://www.walgreens.com/findcare/vaccination/covid-19,800-925-4733,,,Appointment only,,42.585431,-71.778259,#blue-star,Pfizer
Florence: Walgreens (Main St),"70 Main St, Florence, MA 01062",1062,All eligible people statewide,Indoor,Daily,https://www.walgreens.com/findcare/vaccination/covid-19,800-925-4733,,Appointment only,,,42.335251,-72.670539,#blue-star,Pfizer
Foxboro: Walgreens (Main St),"121 Main St, Foxboro, MA 02035",2035,All eligible people statewide,Indoor,Daily,https://www.walgreens.com/findcare/vaccination/covid-19,800-925-4733,,,Appointment only,,42.07305,-71.258745,#blue-star,Pfizer
Foxborough: CVS (Central St),"67 Central Street, Foxborough, MA 02035",2035,All eligible people statewide,Indoor,Daily,https://www.cvs.com/immunizations/covid-19-vaccine,800-SHOP-CVS (1-800-746-7287),,,Check-in 15min prior,,42.062691,-71.248409,#blue-star,Moderna
Foxborough: CVS (Washington Street),"72 Washington Street, Foxborough, MA 02035",2035,All eligible people statewide,Indoor,Daily,https://www.cvs.com/immunizations/covid-19-vaccine,800-SHOP-CVS (1-800-746-7287),,,Check-in 15min prior,,42.090797,-71.270653,#blue-star,Moderna
Foxborough: Stop & Shop (Main Street),"141 Main Street, Foxborough, MA 02035",2035,All eligible people statewide,Indoor,Daily,https://www.stopandshop.com/covid-vaccine,508-543-6174,,,,,42.074667,-71.261276,#blue-star,Johnson and Johnson
Framingham: CVS (Cochituate Rd),"400 Cochituate Rd, Framingham, MA 01701",1701,All eligible people statewide,Indoor,Daily,https://www.cvs.com/immunizations/covid-19-vaccine,800-SHOP-CVS (1-800-746-7287),,,Check-in 15min prior,,42.304731,-71.397146,#blue-star,Moderna
Framingham: CVS (Concord St),"492 Concord St., Framingham, MA 01702",1702,All eligible people statewide,Indoor,Daily,https://www.cvs.com/immunizations/covid-19-vaccine,800-SHOP-CVS (1-800-746-7287),,,Check-in 15min prior,,42.289113,-71.409374,#blue-star,Pfizer
Framingham: CVS (Water St),"776 Water St, Nobscott S/c, Framingham, MA 01701",1701,All eligible people statewide,Indoor,Daily,https://www.cvs.com/immunizations/covid-19-vaccine,800-SHOP-CVS (1-800-746-7287),,,Check-in 15min prior,,42.328862,-71.434721,#blue-star,Moderna
Framingham: CVS (Worcester Rd),"1280 Worcester Rd, Framingham, MA 01702",1702,All eligible people statewide,Indoor,Daily,https://www.cvs.com/immunizations/covid-19-vaccine,800-SHOP-CVS (1-800-746-7287),,,Check-in 15min prior,,42.297776,-71.450099,#blue-star,Pfizer
Framingham: Health First Pharmacy,"855 Worcester Rd Ste 5, Framingham, MA 01701",1701,All eligible people statewide,Indoor,Monday-Saturday,https://myhealthfirstpharmacy.com/,508-271-1500,,,,,42.30002,-71.432054,#blue-star,Moderna
Framingham: Metrowest Pharmacy LLC,"214 Union Avenue, Framingham, MA 01702",1702,All eligible people statewide,Indoor,Monday-Saturday,https://scrcxp.pdhi.com/Portal/Member/d1e1f5d5-007f-4167-b8d1-1ea83cb3b215/?qitq=8dd51fd8-5c70-4596-a131-6dae8ca97b96&qitp=67d9c7a9-9190-4456-894f-5d94cc92b456&qitts=1618440984&qitc=pdhi&qite=covid19vaccination&qitrt=Safetynet&qith=aac39eb8c5fdacfe53a48283af4acb9f,508-405-0609,,,,,42.283983,-71.420753,#blue-star,"Johnson and Johnson, Moderna"
Framingham: Stop & Shop (Old Connecticut Path),"235 Old Connecticut Path, Framingham, MA 01701",1701,All eligible people statewide,Indoor,Daily,https://www.stopandshop.com/covid-vaccine,508-820-0903,,,,,42.306562,-71.402371,#blue-star,Johnson and Johnson
Framingham: V-Care Pharmacy And Surgical Supplies (Cochituate Rd.),"151 Cochituate Rd, Middlesex, MA 01701",1701,All eligible people statewide,,Monday-Saturday,https://myvcarepharmacy.com/,(508) 202-9993,,,,,42.300803,-71.407958,#blue-star,Pfizer
Framingham: Walgreens (School St),"15 School St, Framingham, MA 01701",1701,All eligible people statewide,Indoor,Daily,https://www.walgreens.com/findcare/vaccination/covid-19,800-925-4733,,,Appointment only,,42.321467,-71.395499,#blue-star,Pfizer
Framingham: Walgreens (Waverly St),"624 Waverly St, Framingham, MA 01702",1702,All eligible people statewide,Indoor,Daily,https://www.walgreens.com/findcare/vaccination/covid-19,800-925-4733,,,Appointment only,,42.274226,-71.425084,#blue-star,Pfizer
Framingham: Walgreens (Worcester Rd),"653 Worcester Rd, Framingham, MA 01701",1701,All eligible people statewide,Indoor,Daily,https://www.walgreens.com/findcare/vaccination/covid-19,800-925-4733,,,Appointment only,,42.298306,-71.423452,#blue-star,Moderna
Framingham: Walmart (Worcester Rd.),"121 Worcester Rd, Framingham, MA 01701",1701,All eligible people statewide,Indoor,Daily,https://www.walmart.com/pharmacy/,508-872-6575,,,,,42.298771,-71.399098,#blue-star,"Moderna, Pfizer"
"Franklin: CVS (East Central Street, Route 140)","272 East Central Street, Route 140, Franklin, MA 02038",2038,All eligible people statewide,Indoor,Daily,https://www.cvs.com/immunizations/covid-19-vaccine,800-SHOP-CVS (1-800-746-7287),,,Check-in 15min prior,,42.088352,-71.407766,#blue-star,Moderna
Franklin: CVS (West Central Street),"435 West Central Street, Franklin, MA 02038",2038,All eligible people statewide,Indoor,Daily,https://www.cvs.com/immunizations/covid-19-vaccine,800-SHOP-CVS (1-800-746-7287),,,Check-in 15min prior,,42.088161,-71.41537,#blue-star,Pfizer
Franklin: Osco (East Central St),"255 East Central Street, Franklin, MA 02038",2038,All eligible people statewide,Indoor,Daily,https://www.mhealthappointments.com/covidappt,508-520-7017,,,,,42.08037,-71.384991,#blue-star,"Johnson and Johnson, Moderna, Pfizer"
Franklin: Stop & Shop (Franklin Village Drive),"40 Franklin Village Drive, Franklin, MA 02038",2038,All eligible people statewide,Indoor,Daily,https://www.stopandshop.com/covid-vaccine,508-520-4106,,,,,42.090043,-71.423221,#blue-star,Pfizer
Franklin: Walgreens (E Central St.),"160 E Central St., Franklin, MA 02038",2038,All eligible people statewide,Indoor,Daily,https://www.walgreens.com/findcare/vaccination/covid-19,800-925-4733,,,Appointment only,,42.080772,-71.389982,#blue-star,Moderna
Gardner: CVS (Main Street),"314 Main Street, Gardner, MA 01440",1440,All eligible people statewide,Indoor,Daily,https://www.cvs.com/immunizations/covid-19-vaccine,800-SHOP-CVS (1-800-746-7287),,,Check-in 15min prior,,42.569841,-71.992733,#blue-star,Pfizer
"Gardner: Medical Arts Building, Suite 200","250 Green St Suite 200, Gardner, MA 01440",1440,All eligible people statewide,Indoor,,,(978) 669-0199,,,Please arrive as close to your appointment time as possible,,42.586992,-71.986375,#green-star,Moderna
Gardner: Price Chopper,"560 Main St, Gardner, MA 01440",1440,All eligible people statewide,Indoor,Daily,https://www.pricechopper.com/covidvaccine/,978-730-1041,,,Vaccine is available by appointment only. Appointments can be made online. Please bring insurance card and/or state ID if you have one.,,42.568197,-71.985081,#blue-star,Moderna
Gardner: Walgreens (Main St.),"232 Main St, Gardner, MA 01440",1440,All eligible people statewide,Indoor,Daily,https://www.walgreens.com/findcare/vaccination/covid-19,800-925-4733,,,Appointment only,,42.57136,-71.994132,#blue-star,Pfizer
Gardner: Walgreens (Pearson Blvd),"52 Pearson Blvd, Gardner, MA 01440",1440,All eligible people statewide,Indoor,Daily,https://www.walgreens.com/findcare/vaccination/covid-19,800-925-4733,,,Appointment only,,42.565311,-71.978638,#blue-star,Pfizer
Gardner: Walmart (Timpany Blvd),"677 Timpany Blvd, Gardner, MA 01440",1440,All eligible people statewide,Indoor,Daily,https://www.walmart.com/pharmacy/,978-630-3244,,,,,42.551162,-71.992011,#blue-star,"Johnson and Johnson, Moderna, Pfizer"
Georgetown: CVS (Central Street),"65 Central Street, Georgetown, MA 01833",1833,All eligible people statewide,Indoor,Daily,https://www.cvs.com/immunizations/covid-19-vaccine,800-SHOP-CVS (1-800-746-7287),,,Check-in 15min prior,,42.721182,-70.992514,#blue-star,Moderna
Gloucester: Cape Ann Pediatricians,"298 Washington St, Gloucester, MA 01930",1930,All eligible people statewide,Indoor,Monday-Saturday,,978-283-5079,,,Bring insurance card and photo ID,Wheelchair accessible,42.626076,-70.679978,#green-star,Pfizer
Gloucester: CVS (Gloucester Crossing Rd),"401 Gloucester Crossing Road, Gloucester, MA 01930",1930,All eligible people statewide,Indoor,Daily,https://www.cvs.com/immunizations/covid-19-vaccine,800-SHOP-CVS (1-800-746-7287),,,Check-in 15min prior,,42.622891,-70.658952,#blue-star,Moderna
Gloucester: CVS (Thatcher Rd),"6 Thatcher Rd, E Gloucester S/c, Gloucester, MA 01930",1930,All eligible people statewide,Indoor,Daily,https://www.cvs.com/immunizations/covid-19-vaccine,800-SHOP-CVS (1-800-746-7287),,,Check-in 15min prior,,42.624321,-70.679141,#blue-star,Moderna
Gloucester: Walgreens (Eastern Ave),"127 Eastern Ave, Gloucester, MA 01930",1930,All eligible people statewide,Indoor,Daily,https://www.walgreens.com/findcare/vaccination/covid-19,800-925-4733,,,Appointment only,,42.623445,-70.641119,#blue-star,Johnson and Johnson
Gloucester: Walgreens (Main St.),"201 Main St., Gloucester, MA 01930",1930,All eligible people statewide,Indoor,Daily,https://www.walgreens.com/findcare/vaccination/covid-19,800-925-4733,,,Appointment only,,42.613192,-70.660708,#blue-star,Moderna
Granby: CVS (West State St),"70 West State St, Granby, MA 01033",1033,All eligible people statewide,Indoor,Daily,https://www.cvs.com/immunizations/covid-19-vaccine,800-SHOP-CVS (1-800-746-7287),,,Check-in 15min prior,,42.246538,-72.544646,#blue-star,Moderna
Great Barrington: Big Y,"700 Main Street Suite 2, Great Barrington, MA 01230",1230,All eligible people statewide,Indoor,Daily,https://www.bigy.com/Pharmacy/covid19-vaccine-faq,413-528-5460,,,Vaccine is available by appointment only. Appointments can be made online. Please bring insurance card and/or state ID if you have one.,,42.197108,-73.361045,#blue-star,"Johnson and Johnson, Moderna"
"Great Barrington: CVS (Main Street, Suite 2)","362 Main Street, Suite 2, Great Barrington, MA 01230",1230,All eligible people statewide,Indoor,Daily,https://www.cvs.com/immunizations/covid-19-vaccine,800-SHOP-CVS (1-800-746-7287),,,Check-in 15min prior,,42.192393,-73.364015,#blue-star,Moderna
Great Barrington: Price Chopper,"300 Stockbridge Rd, Great Barrington, MA 01230",1230,All eligible people statewide,Indoor,Daily,https://www.pricechopper.com/covidvaccine/,413-528-2408,,,Vaccine is available by appointment only. Appointments can be made online. Please bring insurance card and/or state ID if you have one.,,42.21089,-73.345512,#blue-star,Moderna
Great Barrington: Walgreens (Main St.),"197 Main St., Great Barrington, MA 01230",1230,All eligible people statewide,Indoor,Daily,https://www.walgreens.com/findcare/vaccination/covid-19,800-925-4733,,,Appointment only,,42.197179,-73.361061,#blue-star,Moderna
Greenfield: Big Y,"237 Mohawk Trail Route 2, Greenfield, MA 01301",1301,All eligible people statewide,Indoor,Daily,https://www.bigy.com/Pharmacy/covid19-vaccine-faq,413-774-3858,,,Vaccine is available by appointment only. Appointments can be made online. Please bring insurance card and/or state ID if you have one.,,42.58616,-72.626179,#blue-star,"Johnson and Johnson, Moderna"
Greenfield: CVS (Federal St),"137 Federal Street, Greenfield, MA 01301",1301,All eligible people statewide,Indoor,Daily,https://www.cvs.com/immunizations/covid-19-vaccine,800-SHOP-CVS (1-800-746-7287),,,Check-in 15min prior,,42.592371,-72.59825,#blue-star,Pfizer
Greenfield: Rite Aid,"107 Main St, Greenfield, MA 01301",1301,All eligible people statewide,Indoor,Daily,https://www.riteaid.com/pharmacy/covid-qualifier,413-774-2201,,,,,42.58759,-72.605282,#blue-star,"Johnson and Johnson, Moderna"
Greenfield: Stop & Shop (French King Highway),"89 French King Hwy, Greenfield, MA 01301",1301,All eligible people statewide,Indoor,Daily,https://www.stopandshop.com/covid-vaccine,413-774-6006,,,,,42.607437,-72.574135,#blue-star,Johnson and Johnson
Greenfield: Walgreens (Conway St),"329 Conway St, Greenfield, MA 01301",1301,All eligible people statewide,Indoor,Daily,https://www.walgreens.com/findcare/vaccination/covid-19,800-925-4733,,Appointment only,,,42.60283,-72.61088,#blue-star,Pfizer
Greenfield: Walgreens (Pierce St),"5 Pierce St, Greenfield, MA 01301",1301,All eligible people statewide,Indoor,Daily,https://www.walgreens.com/findcare/vaccination/covid-19,800-925-4733,,,Appointment only,,42.597427,-72.597015,#blue-star,Moderna
Groton: CVS (Boston Road Route 119),"106 Boston Road Route 119, Groton, MA 01450",1450,All eligible people statewide,Indoor,Daily,https://www.cvs.com/immunizations/covid-19-vaccine,800-SHOP-CVS (1-800-746-7287),,,Check-in 15min prior,,42.612525,-71.55907,#blue-star,Moderna
Groton: Osco (Boston Road),"760 A Boston Road, Groton, MA 01450",1450,All eligible people statewide,Indoor,Daily,https://www.mhealthappointments.com/covidappt,978-448-2605,,,,,42.580527,-71.523038,#blue-star,"Johnson and Johnson, Moderna, Pfizer"
Hadley: CVS (Russell St),"367 Russell St, Hadley, MA 01035",1035,All eligible people statewide,Indoor,Daily,https://www.cvs.com/immunizations/covid-19-vaccine,800-SHOP-CVS (1-800-746-7287),,,Check-in 15min prior,,42.358361,-72.549616,#blue-star,Moderna
Hadley: Stop & Shop (Russell Street),"456 Russell Street, Hadley, MA 01035",1035,All eligible people statewide,Indoor,Daily,https://www.stopandshop.com/covid-vaccine,413-256-4167,,,,,42.364382,-72.537873,#blue-star,Pfizer
Hadley: Walmart (Russell St.),"337 Russell St, Hadley, MA 01035",1035,All eligible people statewide,Indoor,Daily,https://www.walmart.com/pharmacy/,413-586-4231,,,,,42.356022,-72.554443,#blue-star,"Moderna, Pfizer"
Halifax: Stop & Shop,"341 Plymouth Road, Halifax, MA 02388",2388,All eligible people statewide,Indoor,Daily,https://www.stopandshop.com/covid-vaccine,781-293-5786,,,,,42.106905,-70.845644,#blue-star,Moderna
Halifax: Walmart (Plymouth St),"295 Plymouth St, Halifax, MA 02338",2338,All eligible people statewide,Indoor,Daily,https://www.walmart.com/pharmacy/,781-294-9339,,,,,41.99556,-70.844686,#blue-star,"Moderna, Pfizer"
Hampden: Walgreens (Chestnut St),"619 Chestnut St, Hampden, MA 01107",1107,All eligible people statewide,Indoor,Daily,https://www.walgreens.com/findcare/vaccination/covid-19,800-925-4733,,,Appointment only,,42.117188,-72.602155,#blue-star,Pfizer
Hanover: CVS (Rockland St),"207 Rockland St., Hanover, MA 02339",2339,All eligible people statewide,Indoor,Daily,https://www.cvs.com/immunizations/covid-19-vaccine,800-SHOP-CVS (1-800-746-7287),,,Check-in 15min prior,,42.114337,-70.820159,#blue-star,Pfizer
Hanover: CVS (Washington St),"1167 Washington St, Hanover, MA 02339",2339,All eligible people statewide,Indoor,Daily,https://www.cvs.com/immunizations/covid-19-vaccine,800-SHOP-CVS (1-800-746-7287),,,,,42.135978,-70.841449,#blue-star,Pfizer
Hanson: CVS (Liberty Street),"471 Liberty Street, Hanson, MA 02341",2341,All eligible people statewide,Indoor,Daily,https://www.cvs.com/immunizations/covid-19-vaccine,800-SHOP-CVS (1-800-746-7287),,,Check-in 15min prior,,42.066214,-70.869484,#blue-star,Moderna
Hanson: Osco (Liberty St),"476 Liberty Street, Hanson, MA 02341",2341,All eligible people statewide,Indoor,Daily,https://www.mhealthappointments.com/covidappt,781-293-0561,,,,,42.066116,-70.869259,#blue-star,"Johnson and Johnson, Moderna, Pfizer"
Harwich Port: CVS (Post Office Sq),"6 Post Office Square, Harwich Port, MA 02646",2646,All eligible people statewide,Indoor,Daily,https://www.cvs.com/immunizations/covid-19-vaccine,800-SHOP-CVS (1-800-746-7287),,,Check-in 15min prior,,41.667925,-70.079614,#blue-star,Pfizer
Harwich Port: Osco (Sisson Rd),"18 Sisson Road, Harwich Port, MA 02646",2646,All eligible people statewide,Indoor,Daily,https://www.mhealthappointments.com/covidappt,508-432-0895,,,,,41.672037,-70.091989,#blue-star,"Johnson and Johnson, Moderna, Pfizer"
Harwich: CVS (Route 137),"148 Route 137, Harwich, MA 02645",2645,All eligible people statewide,Indoor,Daily,https://www.cvs.com/immunizations/covid-19-vaccine,800-SHOP-CVS (1-800-746-7287),,,,,41.708621,-70.023309,#blue-star,Pfizer
Harwich: Stop & Shop,"111 Chatam Rd, Harwich, MA 02645",2645,All eligible people statewide,Indoor,Daily,https://www.stopandshop.com/covid-vaccine,508-432-5001,,,,,41.684716,-70.057809,#blue-star,Moderna
Haverhill: Citizen Center,"10 Welcome St, Haverhill, MA 01830",1830,All eligible people statewide,Indoor,"Monday, Tuesday, Wednesday, Thursday",https://www.maimmunizations.org/appointment/en/clinic/search?&q%5Bvenue_search_name_or_venue_name_i_cont%5D=Citizen+Center,978-374-2390,,,,Handicap accessible,42.77682,-71.079164,#green-star,"Johnson and Johnson, Moderna"
Haverhill: CVS (Computer Dr),"35 Computer Dr, Haverhill, MA 01832",1832,All eligible people statewide,Indoor,Daily,https://www.cvs.com/immunizations/covid-19-vaccine,800-SHOP-CVS (1-800-746-7287),,,Check-in 15min prior,,42.788858,-71.119046,#blue-star,Pfizer
Haverhill: CVS (Lafayette Sq),"150 Lafayette Square, Haverhill, MA 01832",1832,All eligible people statewide,Indoor,Daily,https://www.cvs.com/immunizations/covid-19-vaccine,800-SHOP-CVS (1-800-746-7287),,,Check-in 15min prior,,42.778266,-71.090444,#blue-star,Pfizer
Haverhill: CVS (Lincoln Ave),"211 Lincoln Avenue, Haverhill, MA 01830",1830,All eligible people statewide,Indoor,Daily,https://www.cvs.com/immunizations/covid-19-vaccine,800-SHOP-CVS (1-800-746-7287),,,Check-in 15min prior,,42.763365,-71.040591,#blue-star,Pfizer
Haverhill: CVS (Lowell Ave),"425 Lowell Ave, Haverhill, MA 01832",1832,All eligible people statewide,Indoor,Daily,https://www.cvs.com/immunizations/covid-19-vaccine,800-SHOP-CVS (1-800-746-7287),,,Check-in 15min prior,,42.773548,-71.115941,#blue-star,Pfizer
Haverhill: CVS (Main St),"259 Main St., Haverhill, MA 01830",1830,All eligible people statewide,Indoor,Daily,https://www.cvs.com/immunizations/covid-19-vaccine,800-SHOP-CVS (1-800-746-7287),,,Check-in 15min prior,,42.780615,-71.07739,#blue-star,Pfizer
Haverhill: Greater Lawrence Family Health Center,"2 Water St, Haverhill, MA 01830",1830,All eligible people statewide,Indoor,Monday-Saturday,https://glfhc.org/covid-19-vaccine-signup-form/,978-686-6029,,,,,42.775165,-71.076078,#green-star,Pfizer
Haverhill: Walgreens (Main St.),"310 Main St., Haverhill, MA 01830",1830,All eligible people statewide,Indoor,Daily,https://www.walgreens.com/findcare/vaccination/covid-19,800-925-4733,,,Appointment only,,42.781269,-71.077171,#blue-star,Johnson and Johnson
Haverhill: Walgreens (River St.),"800 River St., Haverhill, MA 01832",1832,All eligible people statewide,Indoor,Daily,https://www.walgreens.com/findcare/vaccination/covid-19,800-925-4733,,,Appointment only,,42.773019,-71.116968,#blue-star,Pfizer
Haverhill: Walgreens (South Main St.),"68 South Main St, Haverhill, MA 01835",1835,All eligible people statewide,Indoor,Daily,https://www.walgreens.com/findcare/vaccination/covid-19,800-925-4733,,,Appointment only,,42.771286,-71.075648,#blue-star,Moderna
Hingham: CVS (Lincoln St),"405 Lincoln St, Hingham, MA 02043",2043,All eligible people statewide,Indoor,Daily,https://www.cvs.com/immunizations/covid-19-vaccine,800-SHOP-CVS (1-800-746-7287),,,Check-in 15min prior,,42.248723,-70.923771,#blue-star,Moderna
Hingham: CVS (South Street),"86 South Street, Hingham, MA 02043",2043,All eligible people statewide,Indoor,Daily,https://www.cvs.com/immunizations/covid-19-vaccine,800-SHOP-CVS (1-800-746-7287),,,Check-in 15min prior,,42.241432,-70.890862,#blue-star,Moderna
Hingham: Hingham Centre Pharmacy (Main St.),"294 Main St, Plymouth, MA 02043",2043,All eligible people statewide,,Daily,https://bookacovidvaccine.com/,(781) 749-1277,,,,,42.232928,-70.880013,#blue-star,Moderna
Hingham: Stop & Shop (Lincoln Street),"400 Lincoln Street, Hingham, MA 02043",2043,All eligible people statewide,Indoor,Daily,https://www.stopandshop.com/covid-vaccine,781-749-5856,,,,,42.248517,-70.924044,#blue-star,Pfizer
Hingham: Walgreens (Lincoln St),"184 Lincoln St, Hingham, MA 02043",2043,All eligible people statewide,Indoor,Daily,https://www.walgreens.com/findcare/vaccination/covid-19,800-925-4733,,,Appointment only,,42.249205,-70.904284,#blue-star,Moderna
Holbrook: CVS (480 North Franklin St),"480 North Franklin St, Holbrook, MA 02343",2343,All eligible people statewide,Indoor,Daily,https://www.cvs.com/immunizations/covid-19-vaccine,800-SHOP-CVS (1-800-746-7287),,,Check-in 15min prior,,42.168155,-71.0069,#blue-star,Moderna
Holbrook: CVS (842 South Franklin St),"842 South Franklin Street, Holbrook, MA 02343",2343,All eligible people statewide,Indoor,Daily,https://www.cvs.com/immunizations/covid-19-vaccine,800-SHOP-CVS (1-800-746-7287),,,Check-in 15min prior,,42.127704,-71.009278,#blue-star,Pfizer
Holbrook: Walgreens (Plymouth St),"1 Plymouth St, Holbrook, MA 02343",2343,All eligible people statewide,Indoor,Daily,https://www.walgreens.com/findcare/vaccination/covid-19,800-925-4733,,,Appointment only,,42.15479,-71.007971,#blue-star,Moderna
Holden: CVS (Reservoir Road),"160 Reservoir Road, Holden, MA 01520",1520,All eligible people statewide,Indoor,Daily,https://www.cvs.com/immunizations/covid-19-vaccine,800-SHOP-CVS (1-800-746-7287),,,Check-in 15min prior,,42.344444,-71.864719,#blue-star,Moderna
Holden: Walgreens (Main St.),"1145 Main St, Holden, MA 01520",1520,All eligible people statewide,Indoor,Daily,https://www.walgreens.com/findcare/vaccination/covid-19,800-925-4733,,,Appointment only,,42.349817,-71.859981,#blue-star,Moderna
Holden: Walgreens (Shrewsbury St),"5 Shrewsbury St, Holden, MA 01520",1520,All eligible people statewide,Indoor,Daily,https://www.walgreens.com/findcare/vaccination/covid-19,800-925-4733,,,Appointment only,,42.336657,-71.835159,#blue-star,Pfizer
Holliston: CVS (Central Street),"101 Central Street, Holliston, MA 01746",1746,All eligible people statewide,Indoor,Daily,https://www.cvs.com/immunizations/covid-19-vaccine,800-SHOP-CVS (1-800-746-7287),,,Check-in 15min prior,,42.200044,-71.425831,#blue-star,Moderna
Holyoke: CVS (Beech St),"400 Beech St, Holyoke, MA 01040",1040,All eligible people statewide,Indoor,Daily,https://www.cvs.com/immunizations/covid-19-vaccine,800-SHOP-CVS (1-800-746-7287),,,Check-in 15min prior,,42.202581,-72.620122,#blue-star,Pfizer
Holyoke: CVS (Holyoke St),"50 Holyoke Street, Holyoke, MA 01040",1040,All eligible people statewide,Indoor,Daily,https://www.cvs.com/immunizations/covid-19-vaccine,800-SHOP-CVS (1-800-746-7287),,,Check-in 15min prior,,42.172784,-72.64023,#blue-star,Moderna
Holyoke: CVS (Whiting Farms Rd),"250 Whiting Farms Rd., Holyoke, MA 01040",1040,All eligible people statewide,Indoor,Daily,https://www.cvs.com/immunizations/covid-19-vaccine,800-SHOP-CVS (1-800-746-7287),,,Check-in 15min prior,,42.175067,-72.640313,#blue-star,Moderna
Holyoke: Stop & Shop (Lincoln Street),"28 Lincoln Street, Holyoke, MA 01040",1040,All eligible people statewide,Indoor,Daily,https://www.stopandshop.com/covid-vaccine,413-536-5483,,,,,42.214588,-72.61705,#blue-star,Pfizer
