{"name": "RI Disaster Medical Assistance Team/Medical Reserve Corps", "date": "06/16/2021", "address": "Billy Taylor Park , Providence RI, 02906", "vaccines": "Moderna COVID-19 Vaccine", "ages": "18-120", "info": "2ND DOSE MODERNA BILLY TAYLOR PARK", "hours": "05:30 pm - 07:00 pm", "available": 0, "special": "If you are signing up for a second dose, you must get the same vaccine brand as your first dose.", "clinic_id": "3370"}
{"name": "Tides Family Services ", "date": "06/16/2021", "address": "242 Dexter Strett, Pawtucket RI, 02860", "vaccines": "Moderna COVID-19 Vaccine", "ages": "18-120", "info": "2ND DOSE MODERNA TIDES", "hours": "03:30 pm - 05:00 pm", "available": 0, "special": "If you are signing up for a second dose, you must get the same vaccine brand as your first dose.", "clinic_id": "3371"}
{"name": "McCoy Stadium", "date": "06/16/2021", "address": "McCoy Stadium, Pawtucket RI, 02860", "vaccines": "Moderna COVID-19 Vaccine", "ages": "18+", "info": "", "hours": "05:00 pm - 08:00 pm", "available": 0, "special": "If you are signing up for a second dose, you must get the same vaccine brand as your first dose.", "clinic_id": "3382"}
{"name": "Mount Pleasant Library", "date": "06/17/2021", "address": "315 Academy Ave., Providence RI, 02908", "vaccines": "Moderna COVID-19 Vaccine", "ages": "18-120", "info": "2nd Dose Moderna Mt Pleasant Library", "hours": "02:00 pm - 03:30 pm", "available": 0, "special": "If you are signing up for a second dose, you must get the same vaccine brand as your first dose.", "clinic_id": "3387"}
