{"name": "AJ Pharmacy ", "date": "07/05/2021", "address": "1017 Smith St, Providence RI, 02908", "vaccines": "Contact Clinic Site", "ages": "12-120", "info": "", "hours": "10:00 am - 07:00 pm", "available": 0, "special": "If you are signing up for a second dose, you must get the same vaccine brand as your first dose.", "clinic_id": "3752"}
{"name": "AJ Pharmacy ", "date": "07/06/2021", "address": "1017 Smith St, Providence RI, 02908", "vaccines": "Contact Clinic Site", "ages": "12-120", "info": "", "hours": "10:00 am - 07:00 pm", "available": 0, "special": "If you are signing up for a second dose, you must get the same vaccine brand as your first dose.", "clinic_id": "3753"}
{"name": "AJ Pharmacy ", "date": "07/07/2021", "address": "1017 Smith St, Providence RI, 02908", "vaccines": "Contact Clinic Site", "ages": "12-120", "info": "", "hours": "10:00 am - 07:00 pm", "available": 0, "special": "If you are signing up for a second dose, you must get the same vaccine brand as your first dose.", "clinic_id": "3754"}
{"name": "AJ Pharmacy ", "date": "07/08/2021", "address": "1017 Smith St, Providence RI, 02908", "vaccines": "Contact Clinic Site", "ages": "12-120", "info": "", "hours": "10:00 am - 07:00 pm", "available": 0, "special": "If you are signing up for a second dose, you must get the same vaccine brand as your first dose.", "clinic_id": "3755"}
{"name": "AJ Pharmacy ", "date": "07/09/2021", "address": "1017 Smith St, Providence RI, 02908", "vaccines": "Contact Clinic Site", "ages": "12-120", "info": "", "hours": "10:00 am - 07:00 pm", "available": 0, "special": "If you are signing up for a second dose, you must get the same vaccine brand as your first dose.", "clinic_id": "3756"}
{"name": "AJ Pharmacy ", "date": "07/10/2021", "address": "1017 Smith St, Providence RI, 02908", "vaccines": "Contact Clinic Site", "ages": "12-120", "info": "", "hours": "10:00 am - 07:00 pm", "available": 0, "special": "If you are signing up for a second dose, you must get the same vaccine brand as your first dose.", "clinic_id": "3757"}
{"name": "AJ Pharmacy ", "date": "07/29/2021", "address": "1017 Smith St, Providence RI, 02908", "vaccines": "Pfizer-BioNTech COVID-19 Vaccine", "ages": "12-120", "info": "", "hours": "10:00 am - 07:00 pm", "available": 0, "special": "If you are signing up for a second dose, you must get the same vaccine brand as your first dose.", "clinic_id": "3701"}
