{"name": "Dunkin' of Pawtucket (Armistice Blvd) - DMAT", "date": "05/26/2021", "address": "Mobile - 337 Armistice Blvd, Pawtucket RI, 02861", "vaccines": "Moderna COVID-19 Vaccine", "ages": "Adults", "info": "", "hours": "09:00 am - 11:00 am", "available": 0, "special": "If you are signing up for a second dose, you must get the same vaccine brand as your first dose.", "clinic_id": "3432"}
{"name": "Dunkin' of North Providence (Mineral Spring Ave) - DMAT", "date": "05/26/2021", "address": "1592 Mineral Spring Ave, North Providence RI, 02904", "vaccines": "Moderna COVID-19 Vaccine", "ages": "Adults", "info": "", "hours": "09:00 am - 11:00 am", "available": 0, "special": "If you are signing up for a second dose, you must get the same vaccine brand as your first dose.", "clinic_id": "3433"}
{"name": "Dunkin' of West Warwick (Main Street) - DMAT", "date": "05/26/2021", "address": "970 Main Street, West Warwick RI, 02893", "vaccines": "Moderna COVID-19 Vaccine", "ages": "Adults", "info": "", "hours": "12:00 pm - 02:00 pm", "available": 0, "special": "If you are signing up for a second dose, you must get the same vaccine brand as your first dose.", "clinic_id": "3436"}
{"name": "Dunkin' of North Kingstown (Ten Rod Rd) - DMAT", "date": "05/26/2021", "address": "1241 Ten Rod Road, North Kingstown RI, 02852", "vaccines": "Moderna COVID-19 Vaccine", "ages": "Adults", "info": "", "hours": "01:00 pm - 03:00 pm", "available": 0, "special": "If you are signing up for a second dose, you must get the same vaccine brand as your first dose.", "clinic_id": "3437"}
{"name": "Mobile- Rhode Island National Guard", "date": "05/26/2021", "address": "Mobile - 1316 Broad Street, Washington Park Library, Providence RI, 02905", "vaccines": "Pfizer-BioNTech COVID-19 Vaccine", "ages": "12+", "info": "\u25cf\u25cf\u25cf ENGLISH: This clinic is offering the Pfizer-BioNTech COVID-19 vaccine which is for people age 12 and older only. \u25cf\u25cf\u25cf ESPA\u00d1OL: Esta cl\u00ednica ofrece la vacuna Pfizer-BioNTech contra COVID-19 que es para personas con 12 a\u00f1os o m\u00e1s solamente. \u25cf\u25cf\u25cf PORTUGU\u00caS: Esta cl\u00ednica est\u00e1 a oferecer a vacina COVID-19 da Pfizer-BioNTech, que \u00e9 apenas para pessoas com 12 anos ou mais. Para dire\u00e7\u00f5es e informa\u00e7\u00f5es de estacionamento a cl\u00ednica, visite https://health.ri.gov/vaccinesiteinfo.", "hours": "02:00 pm - 03:30 pm", "available": 0, "special": "If you are signing up for a second dose, you must get the same vaccine brand as your first dose.", "clinic_id": "3446"}
{"name": "Seaside Pharmacy", "date": "05/26/2021", "address": "224 Post Road, Westerly RI, 02891", "vaccines": "Janssen COVID-19 Vaccine", "ages": "18-110", "info": "\u25cf\u25cf\u25cf ENGLISH: This clinic is offering the Janssen (Johnson & Johnson) COVID-19 vaccine which is for people age 18 and older only.\u25cf\u25cf\u25cf ESPA\u00d1OL: Esta cl\u00ednica ofrece la vacuna Janssen (Johnson & Johnson) contra COVID-19 que es para personas con 18 a\u00f1os o m\u00e1s solamente.\u25cf\u25cf\u25cf PORTUGU\u00caS: Esta cl\u00ednica est\u00e1 a oferecer a vacina COVID-19 da Janssen (Johnson & Johnson), que \u00e9 apenas para pessoas com 18 anos ou mais.", "hours": "12:00 pm - 07:00 pm", "available": 0, "special": "If you are signing up for a second dose, you must get the same vaccine brand as your first dose.", "clinic_id": "3477"}
{"name": "AJ Pharmacy ", "date": "05/26/2021", "address": "1017 Smith Street, Providence RI, 02908", "vaccines": "Pfizer-BioNTech COVID-19 Vaccine", "ages": "12-120", "info": "", "hours": "10:00 am - 07:00 pm", "available": 0, "special": "If you are signing up for a second dose, you must get the same vaccine brand as your first dose.", "clinic_id": "3484"}
{"name": "Green Line Apothecary Providence", "date": "05/26/2021", "address": "905 North Main St, Providence RI, 02904", "vaccines": "Janssen COVID-19 Vaccine", "ages": "Adults", "info": "", "hours": "02:00 pm - 07:00 pm", "available": 0, "special": "If you are signing up for a second dose, you must get the same vaccine brand as your first dose.", "clinic_id": "3507"}
{"name": "Green Line Apothecary Wakefield", "date": "05/26/2021", "address": "245 Main Street, South Kingstown RI, 02879", "vaccines": "Moderna COVID-19 Vaccine", "ages": "Adults", "info": "", "hours": "02:00 pm - 07:00 pm", "available": 0, "special": "If you are signing up for a second dose, you must get the same vaccine brand as your first dose.", "clinic_id": "3513"}
{"name": "Independence Park", "date": "05/26/2021", "address": "Independence Park, Bristol RI, 02809", "vaccines": "Moderna COVID-19 Vaccine", "ages": "18-120", "info": "1st DOSE MODERNA BRISTOL FIRE DEPARTMENT HCZ", "hours": "03:00 pm - 06:00 pm", "available": 0, "special": "If you are signing up for a second dose, you must get the same vaccine brand as your first dose.", "clinic_id": "3533"}
