{"id": "48", "name": "TJ Health Columbia", "county": "Adair", "lat": 37.096814, "long": -85.294848, "register_online_url": "https://www.tjregionalhealth.org/vaccine/", "register_phone": "tel:270-384-4753", "address": {"street1": "901 Westlake Drive", "city": "Columbia", "state": "KY", "zip": "42728"}}
{"id": "232", "name": "Walgreens Pharmacy", "county": "Allen", "lat": 36.7614, "long": -86.1929, "register_online_url": "https://www.walgreens.com/findcare/vaccination/covid-19?ban=covid_vaccine_landing_schedule", "address": {"street1": "385 Old Gallatin Rd", "city": "Scottsville", "state": "KY", "zip": "42164"}}
{"id": "151", "name": "Walgreens Pharmacy", "county": "Anderson", "lat": 38.031864, "long": -84.951985, "register_online_url": "https://www.walgreens.com/findcare/vaccination/covid-19?ban=covid_vaccine_landing_schedule", "address": {"street1": "1000 Bypass South", "city": "Lawrensburg", "state": "KY", "zip": "40342"}}
{"id": "474", "name": "Kroger Pharmacy - Anderson Crossing (02400913)", "county": "Anderson", "lat": 38.016985, "long": -84.910068, "register_online_url": "https://www.kroger.com/rx/covid-eligibility", "address": {"street1": "1300 Anderson Crossing Drive", "city": "Lawrenceburg", "state": "KY", "zip": "40342"}}
{"id": "155", "name": "Kroger ", "county": "Ashland", "lat": 38.375223, "long": -82.747694, "register_online_url": "https://www.kroger.com/rx/covid-eligibility", "address": {"street1": "711 martin Luther King Jr Blvd", "city": "Ashland", "state": "KY", "zip": "41101"}}
{"id": "367", "name": "Ballard County Health Center", "county": "Ballard", "lat": 37.070897, "long": -88.973753, "register_phone": "tel:270-665-5432", "address": {"street1": "198 Bluegrass Drive", "city": "LaCenter", "state": "KY", "zip": "42056"}}
{"id": "403", "name": "GLASGOW PRESCRIPTION CENTER", "county": "Barren", "lat": 36.982304, "long": -85.925976, "register_phone": "tel:270-651-8889", "address": {"street1": "110 KELLY DRIVE", "city": "GLASGOW", "state": "KY", "zip": "42141"}}
{"id": "46", "name": "TJ Health Pavilion", "county": "Barren", "lat": 37.007226, "long": -85.928676, "register_online_url": "https://www.tjregionalhealth.org/vaccine/", "register_phone": "tel:270-659-1010", "address": {"street1": "310 North L. Rogers Wells Blvd.", "city": "Glasgow", "state": "KY", "zip": "42141"}}
{"id": "84", "name": "Walgreens Pharmacy", "county": "Barren", "lat": 37.002519, "long": -85.827208, "register_online_url": "https://www.walgreens.com/findcare/vaccination/covid-19?ban=covid_vaccine_landing_schedule", "address": {"street1": "1001 W Main St", "city": "Glasgow", "state": "KY", "zip": "42141"}}
{"id": "348", "name": "Gateway District", "county": "Bath", "lat": 38.142651, "long": -83.766365, "register_phone": "tel:606-674-6396", "address": {"street1": "42 Treadway Dr", "city": "Owingsville", "state": "KY", "zip": "40360"}}
{"id": "350", "name": "Owingsville Drug", "county": "Bath", "lat": 38.130834, "long": -83.758101, "register_phone": "tel:606-674-6334", "address": {"street1": "53 Miller Drive", "city": "Owingsville", "state": "KY", "zip": "40360"}}
{"id": "255", "name": "Walgreens Pharmacy", "county": "Bell", "lat": 36.7633662, "long": -83.70394, "register_online_url": "https://www.walgreens.com/findcare/vaccination/covid-19?ban=covid_vaccine_landing_schedule", "address": {"street1": "528 W Tennessee Ave", "city": "Pineville", "state": "KY", "zip": "40977"}}
{"id": "319", "name": "Kroger", "county": "Bell", "lat": 36.673022, "long": -83.732042, "register_online_url": "https://www.kroger.com/rx/covid-eligibility", "address": {"street1": "515 N 12TH St", "city": "Middlesboro", "state": "KY", "zip": "40965"}}
{"id": "371", "name": "FAMILY DISCOUNT DRUGS", "county": "Bell", "lat": 36.604968, "long": -83.739959, "register_phone": "tel:606-248-8900", "address": {"street1": "3603 CUMBERLAND AVE", "city": "MIDDLESBORO", "state": "KY", "zip": "40965"}}
{"id": "382", "name": "Bell Drug", "county": "Bell", "lat": 36.761688, "long": -83.695207, "register_phone": "tel:606-337-5050", "address": {"street1": "114 N Pine St", "city": "Pineville", "state": "KY", "zip": "40977"}}
{"id": "24", "name": "Middlesboro ARH Hospital", "county": "Bell", "lat": 36.605635, "long": -83.743541, "register_phone": "tel:855-274-2273", "address": {"street1": "3600 West Cumberland Dr", "city": "Middlesboro", "state": "KY", "zip": "40965"}}
{"id": "464", "name": "Kroger Pharmacy - Middlesboro (02400355)", "county": "Bell", "lat": 36.613532, "long": -83.704917, "register_online_url": "https://www.kroger.com/rx/covid-eligibility", "address": {"street1": "515 N 12th Street", "city": "Middlesboro", "state": "KY", "zip": "40965"}}
{"id": "515", "name": "Walmart #739", "county": "Bell", "lat": 36.622174, "long": -83.707246, "register_online_url": "https://www.walmart.com/covidvaccine", "address": {"street1": "1255 N 12th St", "city": "Middlesboro", "state": "KY", "zip": "40965"}}
{"id": "204", "name": "Kroger", "county": "Boon", "lat": 38.99696, "long": -84.65604, "register_online_url": "https://www.kroger.com/rx/covid-eligibility", "address": {"street1": "7685 Mall Rd", "city": "Florence", "state": "KY", "zip": "41042"}}
{"id": "181", "name": "Kroger Walton", "county": "Boone", "lat": 38.857835, "long": -84.620594, "register_online_url": "https://www.kroger.com/rx/covid-eligibility", "address": {"street1": "635 Chestnut Drive", "city": "Walton", "state": "KY", "zip": "41094"}}
{"id": "205", "name": "Kroger", "county": "Boone", "lat": 38.93794, "long": -84.7246, "register_online_url": "https://www.kroger.com/rx/covid-eligibility", "address": {"street1": "9950 Berberich Dr", "city": "Florence", "state": "KY", "zip": "41042"}}
{"id": "269", "name": "Walgreens Pharmacy", "county": "Boone", "lat": 38.9820422, "long": -84.6500944, "register_online_url": "https://www.walgreens.com/findcare/vaccination/covid-19?ban=covid_vaccine_landing_schedule", "address": {"street1": "8193 Mall Rd", "city": "Florence", "state": "KY", "zip": "41042"}}
{"id": "270", "name": "Walgreens Pharmacy", "county": "Boone", "lat": 39.0188532, "long": -84.6906964, "register_online_url": "https://www.walgreens.com/findcare/vaccination/covid-19?ban=covid_vaccine_landing_schedule", "address": {"street1": "1747 Patrick Dr", "city": "Burlington", "state": "KY", "zip": "41005"}}
{"id": "271", "name": "Walgreens Pharmacy", "county": "Boone", "lat": 38.962628, "long": -84.681797, "register_online_url": "https://www.walgreens.com/findcare/vaccination/covid-19?ban=covid_vaccine_landing_schedule", "address": {"street1": "8820 US Highway 42", "city": "Florence", "state": "KY", "zip": "41042"}}
{"id": "294", "name": "Walgreens Pharmacy", "county": "Boone", "lat": 39.0052077, "long": -84.6175432, "register_online_url": "https://www.walgreens.com/findcare/vaccination/covid-19?ban=covid_vaccine_landing_schedule", "address": {"street1": "6617 Dixie Hwy", "city": "Florence", "state": "KY", "zip": "41042"}}
{"id": "311", "name": "Walmart Supercenter", "county": "Boone", "lat": 39.0113575, "long": -84.6905826, "register_online_url": "https://www.walmart.com/cp/1228308", "address": {"street1": "7625 Doering Dr", "city": "Florence", "state": "KY", "zip": "41042"}}
{"id": "501", "name": "Kroger Pharmacy - Mall Rd (01400466)", "county": "Boone", "lat": 38.997014, "long": -84.656175, "register_online_url": "https://www.kroger.com/rx/covid-eligibility", "address": {"street1": "7685 Mall Road", "city": "Florence", "state": "KY", "zip": "41042"}}
{"id": "502", "name": "Kroger Pharmacy - Union (01400454)", "county": "Boone", "lat": 38.962851, "long": -84.676722, "register_online_url": "https://www.kroger.com/rx/covid-eligibility", "address": {"street1": "9001 US Highway 42", "city": "Union", "state": "KY", "zip": "41091"}}
{"id": "504", "name": "Kroegr Pharmacy - Burlington (01400434)", "county": "Boone", "lat": 39.018141, "long": -84.693044, "register_online_url": "https://www.kroger.com/rx/covid-eligibility", "address": {"street1": "1751 Patrick Drive", "city": "Burlington", "state": "KY", "zip": "41005"}}
{"id": "526", "name": "Walmart #1510", "county": "Boone", "lat": 39.01115, "long": -84.650541, "register_online_url": "https://www.walmart.com/covidvaccine", "address": {"street1": "7625 Doering Dr", "city": "Florence", "state": "KY", "zip": "41042"}}
{"id": "513", "name": "Walmart #493", "county": "Bourbon", "lat": 38.196978, "long": -84.277511, "register_online_url": "https://www.walmart.com/covidvaccine", "address": {"street1": "305 Letton Dr", "city": "Paris", "state": "KY", "zip": "40361"}}
{"id": "216", "name": "Walgreens Pharmacy", "county": "Bourbon", "lat": 38.19887, "long": -84.27448, "register_online_url": "https://www.walgreens.com/findcare/vaccination/covid-19?ban=covid_vaccine_landing_schedule", "address": {"street1": "103 Ash Dr", "city": "PARIS", "state": "KY", "zip": "40361"}}
{"id": "338", "name": "Bourbontown Pharmacy", "county": "Bourbon", "lat": 38.200358, "long": -84.264761, "register_online_url": "https://app.acuityscheduling.com/schedule.php?owner=20958135&appointmentType=20640239", "register_phone": "tel:859-900-0330", "address": {"street1": "1822 Main St", "city": "Paris", "state": "KY", "zip": "40361"}}
{"id": "342", "name": "Bourbon County Health Department", "county": "Bourbon", "lat": 38.219804, "long": -84.238728, "register_online_url": "https://www.bourboncohd.org", "register_phone": "tel:859-987-1915", "address": {"street1": "341 East Main St", "city": "Paris", "state": "KY", "zip": "40361"}}
{"id": "304", "name": "Walgreens Pharmacy", "county": "Boyd", "lat": 38.404756, "long": -82.6008684, "register_online_url": "https://www.walgreens.com/findcare/vaccination/covid-19?ban=covid_vaccine_landing_schedule", "address": {"street1": "3501 Court Street", "city": "Catlettsburg", "state": "KY", "zip": "41129"}}
{"id": "366", "name": "Gillum Drug", "county": "Boyd", "lat": 38.479962, "long": -82.644343, "register_phone": "tel:606-393-5588", "address": {"street1": "1237 Carter Avenue", "city": "Ashland", "state": "KY", "zip": "41101"}}
{"id": "399", "name": "Gallaher?s Pharmacy", "county": "Boyd", "lat": 38.456557, "long": -82.646983, "register_phone": "tel:606-329-2122", "address": {"street1": "2914 Blackburn Ave", "city": "Ashland", "state": "KY", "zip": "41139"}}
{"id": "548", "name": "Walmart #2638", "county": "Boyd", "lat": 38.389779, "long": -82.71459, "register_online_url": "https://www.walmart.com/covidvaccine", "address": {"street1": "12504 US Route 60", "city": "Ashland", "state": "KY", "zip": "41102"}}
{"id": "7", "name": "Kings Daughters Medical Center - Ashland", "county": "Boyd", "lat": 38.470408, "long": -82.634715, "register_phone": "tel:606-408-8999", "address": {"street1": "2201 Lexington Ave", "city": "Ashland", "state": "KY", "zip": "41101"}}
{"id": "98", "name": "Walgreens Pharmacy", "county": "BOYD", "lat": 38.40958, "long": -82.659321, "register_online_url": "https://www.walgreens.com/findcare/vaccination/covid-19?ban=covid_vaccine_landing_schedule", "address": {"street1": "933 Blackburn Ave", "city": "Ashland", "state": "KY", "zip": "41101"}}
{"id": "156", "name": "Kroger Ashland", "county": "Boyd", "lat": 38.302477, "long": -82.680447, "register_online_url": "https://www.kroger.com/rx/covid-eligibility", "address": {"street1": "370 Dierdrich Blvd", "city": "Ashland", "state": "KY", "zip": "41101"}}
{"id": "192", "name": "Walmart Supercenter", "county": "BOYD", "lat": 38.449777, "long": -82.613972, "register_online_url": "https://www.walmart.com/cp/1228320", "address": {"street1": "12504 U.S. Route 60", "city": "Ashland", "state": "KY", "zip": "41102"}}
{"id": "43", "name": "Ephraim McDowell Regional Medical Center", "county": "Boyle", "lat": 37.64386, "long": -84.773067, "register_online_url": "https://www.emhealth.org", "register_phone": "tel:859-936-8350", "address": {"street1": "217 South Third Street", "city": "Danville", "state": "KY", "zip": "40422"}}
{"id": "358", "name": "Boyle County Health Department", "county": "Boyle", "lat": 37.640332, "long": -84.772461, "register_online_url": "https://www.signupgenius.com/go/10C0C4FA9AC23A2FACE9-boyle2", "register_phone": "tel:859-236-2053", "address": {"street1": "448 South Third St", "city": "Danville", "state": "KY", "zip": "40422"}}
{"id": "361", "name": "Bluegrass Drug Store", "county": "Boyle", "lat": 37.659516, "long": -84.794511, "register_phone": "tel:859-236-3535", "address": {"street1": "150 War Admiral Suite 1", "city": "Danville", "state": "KY", "zip": "40422"}}
{"id": "490", "name": "Kroger Pharmacy - Danville (02400733)", "county": "Boyle", "lat": 37.618114, "long": -84.782801, "register_online_url": "https://www.kroger.com/rx/covid-eligibility", "address": {"street1": "200 Skywatch Drive", "city": "Danville", "state": "KY", "zip": "40422"}}
{"id": "352", "name": "Bracken County Health Department", "county": "Bracken", "lat": 38.676636, "long": -84.072366, "register_phone": "tel:606-735-2157", "address": {"street1": "429 FRANKFORT STREET, PO Box 117", "city": "BROOKSVILLE", "state": "KY", "zip": "41004"}}
{"id": "253", "name": "Walgreens Pharmacy", "county": "Breathitt", "lat": 37.561034, "long": -83.397424, "register_online_url": "https://www.walgreens.com/findcare/vaccination/covid-19?ban=covid_vaccine_landing_schedule", "address": {"street1": "59 Highway 15 N", "city": "Jackson", "state": "KY", "zip": "41339"}}
{"id": "375", "name": "Breathitt County Health Dept.", "county": "Breathitt", "lat": 37.560992, "long": -83.414011, "register_phone": "tel:606-666-5214", "address": {"street1": "955 Hwy. 30 West", "city": "Jackson", "state": "KY", "zip": "41339"}}
{"id": "447", "name": "Juniper Health Breathitt County", "county": "Breathitt", "lat": 37.573261, "long": -83.375933, "register_online_url": "https://bit.ly/jhicovidvaccine2021", "register_phone": "tel:606-666-9950", "address": {"street1": "1484 Lakeside Dr.", "city": "Jackson", "state": "KY", "zip": "41311"}}
{"id": "445", "name": "Save-Rite Drugs, Inc", "county": "Breckinridge", "lat": 37.871176, "long": -86.292838, "register_phone": "tel:270-547-2855", "address": {"street1": "14020 E Highway 60", "city": "Irvington", "state": "KY", "zip": "40146"}}
{"id": "389", "name": "Breckinridge Memorial Hospital", "county": "Breckinridge", "lat": 37.766947, "long": -86.441098, "register_phone": "tel:270-756-7000", "address": {"street1": "1011 Old Highway 60", "city": "Hardinsburg", "state": "KY", "zip": "40143"}}
{"id": "440", "name": "Towne & Country Pharmacy", "county": "Breckinridge", "lat": 37.761899, "long": -86.4485, "register_phone": "tel:270-756-2151", "address": {"street1": "675 E Hwy 259", "city": "Hardinsburg", "state": "KY", "zip": "40143"}}
{"id": "91", "name": "Walgreens Pharmacy", "county": "Bullitt", "lat": 37.991429, "long": -85.715595, "register_online_url": "https://www.walgreens.com/findcare/vaccination/covid-19?ban=covid_vaccine_landing_schedule", "address": {"street1": "152 N Buckman St", "city": "Shepherdsville", "state": "KY", "zip": "40165"}}
{"id": "93", "name": "Walgreens Pharmacy", "county": "Bullitt", "lat": 38.052405, "long": -85.535996, "register_online_url": "https://www.walgreens.com/findcare/vaccination/covid-19?ban=covid_vaccine_landing_schedule", "address": {"street1": "11099 Highway 44 E", "city": "Mount Washington", "state": "KY", "zip": "40047"}}
{"id": "160", "name": "Walmart Supercenter", "county": "Bullitt", "lat": 37.997899, "long": -85.707505, "register_online_url": "https://www.walmart.com/cp/1228303", "address": {"street1": "545 Conestoga Parkway Lot 1", "city": "Shepherdsville", "state": "KY", "zip": "40165"}}
{"id": "484", "name": "Kroger Pharmacy - Eastbrooke (02400758)", "county": "Bullitt", "lat": 38.054755, "long": -85.533202, "register_online_url": "https://www.kroger.com/rx/covid-eligibility", "address": {"street1": "234 Eastbrooke Parkway", "city": "Mt Washington", "state": "KY", "zip": "40047"}}
{"id": "491", "name": "Kroger Pharmacy - Shepherds Crossing (02400728)", "county": "Bullitt", "lat": 37.991721, "long": -85.71084, "register_online_url": "https://www.kroger.com/rx/covid-eligibility", "address": {"street1": "185 Adam Shepherd Parkway", "city": "Shepherdsville", "state": "KY", "zip": "40165"}}
{"id": "510", "name": "Walmart #4118", "county": "Bullitt", "lat": 38.000086, "long": -85.70893, "register_online_url": "https://www.walmart.com/covidvaccine", "address": {"street1": "545 Conestoga Pkwy Lot 1", "city": "Shepherdsville", "state": "KY", "zip": "40165"}}
{"id": "563", "name": "Kroger Pharmacy - Hebron  (01400409)", "county": "Bullitt", "lat": 39.064375, "long": -84.707042, "register_online_url": "https://www.kroger.com/rx/covid-eligibility", "address": {"street1": "3105 N Bend Road", "city": "Hebron", "state": "KY", "zip": "41048"}}
{"id": "252", "name": "Walgreens Pharmacy", "county": "Butler", "lat": 37.2002, "long": -86.6859, "register_online_url": "https://www.walgreens.com/findcare/vaccination/covid-19?ban=covid_vaccine_landing_schedule", "address": {"street1": "205 West GL Smith St", "city": "Morgantown", "state": "KY", "zip": "42261"}}
{"id": "394", "name": "Caldwell Medical Center", "county": "Caldwell", "lat": 37.11363, "long": -87.909441, "register_phone": "tel:270-365-0428", "address": {"street1": "100 Medical Center Drive", "city": "Princeton", "state": "KY", "zip": "42445"}}
{"id": "540", "name": "Walmart #204", "county": "Caldwell", "lat": 37.110733, "long": -87.918787, "register_online_url": "https://www.walmart.com/covidvaccine", "address": {"street1": "1500 US Highway 62 W", "city": "Princeton", "state": "KY", "zip": "42445"}}
{"id": "61", "name": "Caldwell Medical Center", "county": "Caldwell", "lat": 37.11371, "long": -87.90925, "register_phone": "tel:270-365-0428", "address": {"street1": "100 Medical Center Drive", "city": "Princeton", "state": "KY", "zip": "42445"}}
{"id": "184", "name": "Walmart Supercenter", "county": "Caldwell", "lat": 37.10814, "long": -87.91889, "register_online_url": "https://www.walmart.com/cp/1228312", "address": {"street1": "1500 US Highway 62 W", "city": "Princeton", "state": "KY", "zip": "42445"}}
{"id": "47", "name": "Murray State CFSB Center", "county": "Calloway", "lat": 36.621274, "long": -88.318178, "register_online_url": "https://www.callowayhealth.org/", "register_phone": "tel:270-753-3381", "address": {"street1": "1401 State Route 121 North", "city": "Murray", "state": "KY", "zip": "42071"}}
{"id": "123", "name": "Walgreens Pharmacy", "county": "Calloway", "lat": 36.610477, "long": -88.316243, "register_online_url": "https://www.walgreens.com/findcare/vaccination/covid-19?ban=covid_vaccine_landing_schedule", "address": {"street1": "1205 Main St", "city": "MURRAY", "state": "KY", "zip": "42071"}}
{"id": "158", "name": "Kroger Murray", "county": "Calloway", "lat": 36.723316, "long": -88.23867, "register_online_url": "https://www.kroger.com/rx/covid-eligibility", "address": {"street1": "808 N12th Street", "city": "Murray", "state": "KY", "zip": "42071"}}
{"id": "387", "name": "Murray Regional Vaccination Site - CFSB Center", "county": "Calloway", "lat": 36.621274, "long": -88.318178, "register_online_url": "https://www.MurrayKYvaccine.org", "register_phone": "tel:270-762-1197", "address": {"street1": "CFSB Center - Murray State University   1401 KY-121", "city": "Murray", "state": "KY", "zip": "42071"}}
{"id": "503", "name": "Kroger Pharmacy - Murray (02600435)", "county": "Calloway", "lat": 36.624891, "long": -88.312906, "register_online_url": "https://www.kroger.com/rx/covid-eligibility", "address": {"street1": "808 N 12th Street", "city": "Murray", "state": "KY", "zip": "42071"}}
{"id": "466", "name": "Kroger Pharmacy - Bellevue  (02400359)", "county": "Campbell", "lat": 39.098983, "long": -84.481909, "register_online_url": "https://www.kroger.com/rx/covid-eligibility", "address": {"street1": "53 Donnermeyer Drive", "city": "Bellevue", "state": "KY", "zip": "41073"}}
{"id": "473", "name": "Kroger Pharmacy - Highland Heights (01400946)", "county": "Campbell", "lat": 39.025866, "long": -84.453388, "register_online_url": "https://www.kroger.com/rx/covid-eligibility", "address": {"street1": "70 Martha Layne Collins Blvd", "city": "Cold Spring", "state": "KY", "zip": "41076"}}
{"id": "505", "name": "Kroger Pharmacy - Memorial Parkway (01400423)", "county": "Campbell", "lat": 39.090271, "long": -84.478318, "register_online_url": "https://www.kroger.com/rx/covid-eligibility", "address": {"street1": "130 Pavilion Parkway", "city": "Newport", "state": "KY", "zip": "41071"}}
{"id": "508", "name": "Kroegr Pharmacy - Cold Spring 901400410)", "county": "Campbell", "lat": 39.006287, "long": -84.420695, "register_online_url": "https://www.kroger.com/rx/covid-eligibility", "address": {"street1": "375 Crossroads Blvd", "city": "Cold Spring", "state": "KY", "zip": "41076"}}
{"id": "541", "name": "Walmart #1961", "county": "Campbell", "lat": 38.988313, "long": -84.401044, "register_online_url": "https://www.walmart.com/covidvaccine", "address": {"street1": "6711 Alexandria Pike", "city": "Alexandria", "state": "KY", "zip": "41001"}}
{"id": "185", "name": "Walmart Supercenter", "county": "Campbell", "lat": 38.986098, "long": -84.403409, "register_online_url": "https://www.walmart.com/cp/1228313", "address": {"street1": "6711 ALEXANDRIA PIKE", "city": "Alexandria", "state": "KY", "zip": "41001"}}
{"id": "214", "name": "Walgreens Pharmacy", "county": "Campbell", "lat": 39.08387, "long": -84.48266, "register_online_url": "https://www.walgreens.com/findcare/vaccination/covid-19?ban=covid_vaccine_landing_schedule", "address": {"street1": "1601 MONMOUTH ST", "city": "Newport", "state": "KY", "zip": "41071"}}
{"id": "282", "name": "Walgreens Pharmacy", "county": "Campbell", "lat": 38.985748, "long": -84.402969, "register_online_url": "https://www.walgreens.com/findcare/vaccination/covid-19?ban=covid_vaccine_landing_schedule", "address": {"street1": "1 VIEWPOINT DR", "city": "Alexandria", "state": "KY", "zip": "41001"}}
{"id": "286", "name": "Walgreens Pharmacy", "county": "Campbell ", "lat": 37.8668874, "long": -84.5784884, "register_online_url": "https://www.walgreens.com/findcare/vaccination/covid-19?ban=covid_vaccine_landing_schedule", "address": {"street1": "951 SOUTH MAIN STREET", "city": "Nicholasville", "state": "KY", "zip": "40356"}}
{"id": "287", "name": "Walgreens Pharmacy", "county": "Campbell", "lat": 39.0319199, "long": -84.451829, "register_online_url": "https://www.walgreens.com/findcare/vaccination/covid-19?ban=covid_vaccine_landing_schedule", "address": {"street1": "2840 ALEXANDRIA PIKE", "city": "Highland Heights", "state": "KY", "zip": "41076"}}
{"id": "324", "name": "Kroger", "county": "Campbell", "lat": 39.10709, "long": -84.47063, "register_online_url": "https://www.kroger.com/rx/covid-eligibility", "address": {"street1": "130 PAVILION PARKWAY", "city": "Newport", "state": "KY", "zip": "41071"}}
{"id": "380", "name": "NEWPORT DRUG CENTER", "county": "Campbell", "lat": 39.09035, "long": -84.471643, "register_phone": "tel:859-291-2578", "address": {"street1": "39 WEST", "city": "Newport", "state": "KY", "zip": "41071"}}
{"id": "373", "name": "Carlisle County Health Department", "county": "Carlisle", "lat": 36.880915, "long": -89.002717, "register_phone": "tel:270-628-5431", "address": {"street1": "62 John Roberts Drive", "city": "Bardwell", "state": "KY", "zip": "42023"}}
{"id": "75", "name": "Kroger ", "county": "Carroll", "lat": 38.656536, "long": -85.072432, "register_online_url": "https://www.kroger.com/rx/covid-eligibility", "address": {"street1": "2549 Highway 227", "city": "Carrollton", "state": "KY", "zip": "41008"}}
{"id": "111", "name": "Walgreens Pharmacy", "county": "Carroll", "lat": 38.683489, "long": -85.162468, "register_online_url": "https://www.walgreens.com/findcare/vaccination/covid-19?ban=covid_vaccine_landing_schedule", "address": {"street1": "204 PARK AVE", "city": "Carrollton", "state": "KY", "zip": "41008"}}
{"id": "161", "name": "Walmart Supercenter", "county": "Carroll", "lat": 38.65766, "long": -85.12969, "register_online_url": "https://www.walmart.com/cp/1228304", "address": {"street1": "200 FLOYD DR", "city": "Carrollton", "state": "KY", "zip": "41008"}}
{"id": "52", "name": "Kings Daughters Family Care - Grayson", "county": "Carter", "lat": 38.345558, "long": -82.931908, "register_phone": "tel:606-474-5109", "address": {"street1": "100 Bellefonte Drive", "city": "Grayson", "state": "KY", "zip": "41143"}}
{"id": "234", "name": "Walgreens Pharmacy", "county": "Carter", "lat": 38.3222661, "long": -82.9473194, "register_online_url": "https://www.walgreens.com/findcare/vaccination/covid-19?ban=covid_vaccine_landing_schedule", "address": {"street1": "100 S CAROL MALONE BLVD", "city": "Grayson", "state": "KY", "zip": "41143"}}
{"id": "254", "name": "Walgreens Pharmacy", "county": "Carter", "lat": 38.296694, "long": -83.180187, "register_online_url": "https://www.walgreens.com/findcare/vaccination/covid-19?ban=covid_vaccine_landing_schedule", "address": {"street1": "410 W TOM T HALL BLVD", "city": "Olive Hill", "state": "KY", "zip": "41164"}}
{"id": "241", "name": "Walgreens Pharmacy", "county": "Casey", "lat": 37.3146, "long": -84.9719, "register_online_url": "https://www.walgreens.com/findcare/vaccination/covid-19?ban=covid_vaccine_landing_schedule", "address": {"street1": "343 NORTH WALLACE WILKINSON BOULEVARD", "city": "Liberty", "state": "KY", "zip": "42539"}}
{"id": "346", "name": "Christian County Health Dept- Bruce Convention Center", "county": "Christian", "lat": 36.805625, "long": -87.481183, "register_online_url": "https://app.acuityscheduling.com/schedule.php?owner=21662423&appointmentType=20060026", "register_phone": "tel:270-887-4160", "address": {"street1": "303 Conference Dr", "city": "Hopkinsville", "state": "KY", "zip": "42240"}}
{"id": "6", "name": "The Bruce Center- Christian County Health Dept", "county": "Christian", "lat": 36.805625, "long": -87.481183, "register_online_url": "https://app.acuityscheduling.com/schedule.php?owner=21662423&appointmentType=20060026", "register_phone": "tel:270-887-4160", "address": {"street1": "303 Conference Center Drive", "city": "Hopkinsville", "state": "KY", "zip": "42240"}}
{"id": "86", "name": "Walgreens Pharmacy", "county": "Christian", "lat": 36.838556, "long": -87.579773, "register_online_url": "https://www.walgreens.com/findcare/vaccination/covid-19?ban=covid_vaccine_landing_schedule", "address": {"street1": "2901 FORT CAMPBELL BLVD", "city": "Hopkinsville", "state": "KY", "zip": "42240"}}
{"id": "213", "name": "Kroger", "county": "Christian", "lat": 36.89039, "long": -87.57788, "register_online_url": "https://www.kroger.com/rx/covid-eligibility", "address": {"street1": "1213 Skyline Dr", "city": "Hopkinsville", "state": "KY", "zip": "42240"}}
{"id": "140", "name": "Walgreens Pharmacy", "county": "Clark", "lat": 37.989618, "long": -84.311178, "register_online_url": "https://www.walgreens.com/findcare/vaccination/covid-19?ban=covid_vaccine_landing_schedule", "address": {"street1": "104 PEDRO WAY", "city": "Wincheater", "state": "KY", "zip": "40391"}}
{"id": "141", "name": "Walgreens Pharmacy", "county": "Clark", "lat": 37.886045, "long": -84.25776, "register_online_url": "https://www.walgreens.com/findcare/vaccination/covid-19?ban=covid_vaccine_landing_schedule", "address": {"street1": "2045 BYPASS RD", "city": "Wincheater", "state": "KY", "zip": "40391"}}
{"id": "162", "name": "Walmart Supercenter", "county": "Clark", "lat": 37.988743, "long": -84.208998, "register_online_url": "https://www.walmart.com/cp/1228305", "address": {"street1": "1859 BYPASS RD", "city": "Wincheater", "state": "KY", "zip": "40391"}}
{"id": "211", "name": "Kroger", "county": "Clark", "lat": 37.95434, "long": -84.15751, "register_online_url": "https://www.kroger.com/rx/covid-eligibility", "address": {"street1": "1661 BYP 1958", "city": "Winchester", "state": "KY", "zip": "40391"}}
{"id": "559", "name": "Kroger Pharmacy - Bypass Rd Hwy 1958 (02400402)", "county": "Clark", "lat": 37.994119, "long": -84.217629, "register_online_url": "https://www.kroger.com/rx/covid-eligibility", "address": {"street1": "1661 BYP 1958", "city": "Winchester", "state": "KY", "zip": "40391"}}
{"id": "372", "name": "Clark County Health Department", "county": "Clark", "lat": 38.00566, "long": -84.215601, "register_phone": "tel:859-744-1488", "address": {"street1": "273 Shoppers Drive", "city": "Winchester", "state": "KY", "zip": "40391"}}
{"id": "237", "name": "Walgreens Pharmacy", "county": "Clay ", "lat": 37.1511, "long": -83.7793, "register_online_url": "https://www.walgreens.com/findcare/vaccination/covid-19?ban=covid_vaccine_landing_schedule", "address": {"street1": "560 MANCHESTER SQUARE SHPG CTR", "city": "Manchester", "state": "KY", "zip": "40962"}}
{"id": "57", "name": "Clinton County Welcome Center-Hosted by The Medical Center at Albany", "county": "Clinton", "lat": 36.703119, "long": -85.131957, "register_phone": "tel:606-387-3646", "address": {"street1": "28 Welcome Center Drive", "city": "Albany", "state": "KY", "zip": "42602"}}
{"id": "59", "name": "Crittenden Community Hospital", "county": "Crittenden", "lat": 37.328807, "long": -88.092714, "register_online_url": "https://ptserver.fasthealth.com/web_cch_ky/forms/?formID=9319", "register_phone": "tel:270-965-5281", "address": {"street1": "520 West Gum Street", "city": "Marion", "state": "KY", "zip": "42064"}}
{"id": "62", "name": "Cumberland County Hospital ", "county": "Cumberland", "lat": 36.79612, "long": -85.37282, "register_phone": "tel:270-864-2511", "address": {"street1": "299 Glasgow Rd.", "city": "Burkesville", "state": "KY", "zip": "42717"}}
{"id": "408", "name": "CUMBERLAND COUNTY HOSPITAL", "county": "Cumberland", "lat": 36.796658, "long": -85.372517, "register_phone": "tel:270-864-2511", "address": {"street1": "299 GLASGOW RD", "city": "BURKESVILLE", "state": "KY", "zip": "42717"}}
{"id": "197", "name": "Walmart Supercenter", "county": "Davies", "lat": 37.69023, "long": -87.15171, "register_online_url": "https://www.walmart.com/cp/1228325", "address": {"street1": "5031 Frederica St", "city": "Owensboro", "state": "KY", "zip": "42301"}}
{"id": "16", "name": "Owensboro Health Regional Hospital", "county": "Daviess", "lat": 37.779084, "long": -87.064129, "register_online_url": "https://www.owensborohealth.org/patient-visitor/schedule-an-appointment/covid-19-vaccination/", "register_phone": "tel:270-685-7100 option #6", "address": {"street1": "1201 Pleasant Valley Road", "city": "Owensboro", "state": "KY", "zip": "42303"}}
{"id": "118", "name": "Walgreens Pharmacy", "county": "Daviess", "lat": 37.752894, "long": -87.111379, "register_online_url": "https://www.walgreens.com/findcare/vaccination/covid-19?ban=covid_vaccine_landing_schedule", "address": {"street1": "2318 FREDERICA ST", "city": "Owensboro", "state": "KY", "zip": "42301"}}
{"id": "139", "name": "Walgreens Pharmacy", "county": "Daviess", "lat": 37.759065, "long": -87.134328, "register_online_url": "https://www.walgreens.com/findcare/vaccination/covid-19?ban=covid_vaccine_landing_schedule", "address": {"street1": "1921 WEST PARRISH AVENUE", "city": "Owensboro", "state": "KY", "zip": "42301"}}
{"id": "182", "name": "Kroger Owensboro", "county": "Daviess", "lat": 37.749588, "long": -87.152249, "register_online_url": "https://www.kroger.com/rx/covid-eligibility", "address": {"street1": "2630 Frederica Street", "city": "Owensboro", "state": "KY", "zip": "42301"}}
{"id": "277", "name": "Walgreens Pharmacy", "county": "Daviess", "lat": 37.753108, "long": -87.058659, "register_online_url": "https://www.walgreens.com/findcare/vaccination/covid-19?ban=covid_vaccine_landing_schedule", "address": {"street1": "3312 STATE ROUTE 54", "city": "Owensboro", "state": "KY", "zip": "42303"}}
{"id": "351", "name": "Owensboro Health Regional Hospital", "county": "Daviess", "lat": 37.779084, "long": -87.064129, "register_online_url": "https://www.owensborohealth.org/patient-visitor/schedule-an-appointment/covid-19-vaccination/", "register_phone": "tel:270-417-2000", "address": {"street1": "1201 Pleasant Valley Road", "city": "Owensboro", "state": "KY", "zip": "42303"}}
{"id": "362", "name": "Danhauer Drugs and Health Equipment", "county": "Daviess", "lat": 37.772689, "long": -87.113576, "register_phone": "tel:270-684-2341", "address": {"street1": "330 Frederica St", "city": "Owensboro", "state": "KY", "zip": "42301"}}
{"id": "379", "name": "Wilson Family Pharmacy", "county": "Daviess", "lat": 37.758792, "long": -87.149811, "register_phone": "tel:270-688-0100", "address": {"street1": "2845 West Parrish Ave   Suite E", "city": "Owensboro", "state": "KY", "zip": "42301"}}
{"id": "416", "name": "Kroger Pharmacy - Fredereica (02400770)", "county": "Daviess", "lat": 37.750234, "long": -87.114139, "register_online_url": "https://www.kroger.com/rx/covid-eligibility", "register_phone": "tel:270-926-4977", "address": {"street1": "2630 Frederica Street", "city": "Owensboro", "state": "KY", "zip": "42301"}}
{"id": "424", "name": "Kroger Pharmacy - Starlite Drive (02400718)", "county": "Daviess", "lat": 37.754392, "long": -87.150809, "register_online_url": "https://www.kroger.com/rx/covid-eligibility", "register_phone": "tel:270-926-2340", "address": {"street1": "1670 Starlite Drive", "city": "Owensboro", "state": "KY", "zip": "42301"}}
{"id": "458", "name": "Kroger Pharmacy - Owensboro (02400336)", "county": "Daviess", "lat": 37.789652, "long": -87.002599, "register_online_url": "https://www.kroger.com/rx/covid-eligibility", "address": {"street1": "2308 Highway 144", "city": "Owensboro", "state": "KY", "zip": "42303"}}
{"id": "518", "name": "Walmart #3363", "county": "Daviess", "lat": 37.757163, "long": -87.060672, "register_online_url": "https://www.walmart.com/covidvaccine", "address": {"street1": "3151 Leitchfield Rd", "city": "Owensboro", "state": "KY", "zip": "42303"}}
{"id": "533", "name": "Walmart #701", "county": "Daviess", "lat": 37.720039, "long": -87.121732, "register_online_url": "https://www.walmart.com/covidvaccine", "address": {"street1": "5031 Frederica St", "city": "Owensboro", "state": "KY", "zip": "42301"}}
{"id": "450", "name": "Juniper Health Elliott County", "county": "Elliott", "lat": 38.091644, "long": -83.125224, "register_online_url": "https://bit.ly/jhicovidvaccine2021", "register_phone": "tel:606-738-9785", "address": {"street1": "308 N. KY 7", "city": "Sandy Hook", "state": "KY", "zip": "41171"}}
{"id": "244", "name": "Walgreens Pharmacy", "county": "Estill", "lat": 37.695522, "long": -83.9800828, "register_online_url": "https://www.walgreens.com/findcare/vaccination/covid-19?ban=covid_vaccine_landing_schedule", "address": {"street1": "110 RICHMOND ROAD", "city": "Irvine", "state": "KY", "zip": "40336"}}
{"id": "223", "name": "Walgreens Pharmacy", "county": "Fayette", "lat": 38.0932, "long": -84.5007, "register_online_url": "https://www.walgreens.com/findcare/vaccination/covid-19?ban=covid_vaccine_landing_schedule", "address": {"street1": "110 TOWNE CENTER DR", "city": "Lexington", "state": "KY", "zip": "40511"}}
{"id": "275", "name": "Walgreens Pharmacy", "county": "Fayette", "lat": 38.0086755, "long": -84.4545968, "register_online_url": "https://www.walgreens.com/findcare/vaccination/covid-19?ban=covid_vaccine_landing_schedule", "address": {"street1": "2700 RICHMOND RD", "city": "Lexington", "state": "KY", "zip": "40509"}}
{"id": "292", "name": "Walgreens Pharmacy", "county": "Fayette", "lat": 37.9848221, "long": -84.4614443, "register_online_url": "https://www.walgreens.com/findcare/vaccination/covid-19?ban=covid_vaccine_landing_schedule", "address": {"street1": "3120 PIMLICO PKWY STE 178", "city": "Lexington", "state": "KY", "zip": "40517"}}
{"id": "300", "name": "Walgreens Pharmacy", "county": "Fayette", "lat": 37.9958181, "long": -84.4967029, "register_online_url": "https://www.walgreens.com/findcare/vaccination/covid-19?ban=covid_vaccine_landing_schedule", "address": {"street1": "3349 TATES CREEK RD", "city": "Lexington", "state": "KY", "zip": "40502"}}
{"id": "316", "name": "Kroger", "county": "Fayette", "lat": 38.0370769, "long": -84.5521077, "register_online_url": "https://www.kroger.com/rx/covid-eligibility", "address": {"street1": "1808 ALEXANDRIA DR", "city": "Lexington", "state": "KY", "zip": "40504"}}
{"id": "320", "name": "Kroger", "county": "Fayette", "lat": 37.9705618, "long": -84.4386918, "register_online_url": "https://www.kroger.com/rx/covid-eligibility", "address": {"street1": "4101 TATES CREEK CENTRE DR", "city": "Lexington", "state": "KY", "zip": "40517"}}
{"id": "323", "name": "Kroger", "county": "Fayette", "lat": 38.0585925, "long": -84.4607332, "register_online_url": "https://www.kroger.com/rx/covid-eligibility", "address": {"street1": "1650 BRYAN STATION ROAD", "city": "Lexington", "state": "KY", "zip": "40505"}}
{"id": "330", "name": "Grassroots Pharmacy", "county": "Fayette", "lat": 38.023326, "long": -84.420999, "register_online_url": "https://www.grassrootspharmacy.com/vaccines", "register_phone": "tel:859-263-1382", "address": {"street1": "2304 Sir Barton Way Ste 195", "city": "Lexington", "state": "KY", "zip": "40509"}}
{"id": "347", "name": "Wheeler Pharmacy", "county": "Fayette", "lat": 38.019934, "long": -84.486259, "register_online_url": "https://wheelerpharmacycovidvaccine.as.me/", "register_phone": "tel:859-266-1131", "address": {"street1": "336 Romany Road", "city": "Lexington", "state": "KY", "zip": "40502"}}
{"id": "431", "name": "Baptist Health Lexington", "county": "Fayette", "lat": 38.018605, "long": -84.512312, "register_online_url": "https://scheduleyourvaccine.com/", "address": {"street1": "1740 Nicholasville Road", "city": "Lexington", "state": "KY", "zip": "40503"}}
{"id": "3", "name": "University of Kentucky HealthCare", "county": "Fayette", "lat": 38.02275, "long": -84.50519, "register_online_url": "https://ukvaccine.org  ", "register_phone": "tel:859-218-0111", "address": {"street1": "Kroger Field - Blue Lot 1540 University Drive", "city": "Lexington", "state": "KY", "zip": "40506"}}
{"id": "41", "name": "KY Horse Park", "county": "Fayette", "lat": 38.149689, "long": -84.517597, "register_online_url": "https://www.kroger.com/rx/covid-eligibility", "register_phone": "tel:866-211-5320", "address": {"street1": "4089 Iron Works Pkwy", "city": "Lexington", "state": "KY", "zip": "40511"}}
{"id": "82", "name": "Walgreens Pharmacy", "county": "Fayette", "lat": 38.026112, "long": -84.535933, "register_online_url": "https://www.walgreens.com/findcare/vaccination/covid-19?ban=covid_vaccine_landing_schedule", "address": {"street1": "2001 HARRODSBURG RD", "city": "Lexington", "state": "KY", "zip": "40504"}}
{"id": "88", "name": "Walgreens Pharmacy", "county": "Fayette", "lat": 38.017918, "long": -84.464354, "register_online_url": "https://www.walgreens.com/findcare/vaccination/covid-19?ban=covid_vaccine_landing_schedule", "address": {"street1": "2209 RICHMOND RD", "city": "Lexington", "state": "KY", "zip": "40502"}}
{"id": "99", "name": "Walgreens Pharmacy", "county": "Fayette", "lat": 38.046782, "long": -84.551412, "register_online_url": "https://www.walgreens.com/findcare/vaccination/covid-19?ban=covid_vaccine_landing_schedule", "address": {"street1": "2284 VERSAILLES ROAD", "city": "Lexington", "state": "KY", "zip": "40504"}}
{"id": "101", "name": "Walgreens Pharmacy", "county": "Fayette", "lat": 38.060864, "long": -84.465735, "register_online_url": "https://www.walgreens.com/findcare/vaccination/covid-19?ban=covid_vaccine_landing_schedule", "address": {"street1": "260 E NEW CIRCLE RD", "city": "Lexington", "state": "KY", "zip": "40505"}}
{"id": "108", "name": "Walgreens Pharmacy", "county": "Fayette", "lat": 38.028104, "long": -84.490349, "register_online_url": "https://www.walgreens.com/findcare/vaccination/covid-19?ban=covid_vaccine_landing_schedule", "address": {"street1": "878 EAST HIGH STREET", "city": "Lexington", "state": "KY", "zip": "40502"}}
{"id": "121", "name": "Walgreens Pharmacy", "county": "Fayette", "lat": 37.971374, "long": -84.497911, "register_online_url": "https://www.walgreens.com/findcare/vaccination/covid-19?ban=covid_vaccine_landing_schedule", "address": {"street1": "4101 TATES CREEK CENTRE DR STE 156", "city": "Lexington", "state": "KY", "zip": "40517"}}
{"id": "128", "name": "Walgreens Pharmacy", "county": "Fayette", "lat": 37.981888, "long": -84.55172, "register_online_url": "https://www.walgreens.com/findcare/vaccination/covid-19?ban=covid_vaccine_landing_schedule", "address": {"street1": "3813 DYLAN PL", "city": "Lexington", "state": "KY", "zip": "40514"}}
{"id": "129", "name": "Walgreens Pharmacy", "county": "Fayette", "lat": 38.015968, "long": -84.419054, "register_online_url": "https://www.walgreens.com/findcare/vaccination/covid-19?ban=covid_vaccine_landing_schedule", "address": {"street1": "3001 PINK PIGEON PKWY", "city": "Lexington", "state": "KY", "zip": "40509"}}
{"id": "135", "name": "Walgreens Pharmacy", "county": "Fayette", "lat": 38.004626, "long": -84.569109, "register_online_url": "https://www.walgreens.com/findcare/vaccination/covid-19?ban=covid_vaccine_landing_schedule", "address": {"street1": "3735 PALOMAR CENTRE DR STE 80", "city": "Lexington", "state": "KY", "zip": "40513"}}
{"id": "142", "name": "Walgreens Pharmacy", "county": "Fayette", "lat": 38.024846, "long": -84.404999, "register_online_url": "https://www.walgreens.com/findcare/vaccination/covid-19?ban=covid_vaccine_landing_schedule", "address": {"street1": "6401 POLO CLUB LANE", "city": "Lexington", "state": "KY", "zip": "40509"}}
{"id": "144", "name": "Walgreens Pharmacy", "county": "Fayette", "lat": 37.990998, "long": -84.523187, "register_online_url": "https://www.walgreens.com/findcare/vaccination/covid-19?ban=covid_vaccine_landing_schedule", "address": {"street1": "101 E REYNOLDS RD", "city": "Lexington", "state": "KY", "zip": "40517"}}
{"id": "147", "name": "Walgreens Pharmacy", "county": "Fayette", "lat": 38.006097, "long": -84.518448, "register_online_url": "https://www.walgreens.com/findcare/vaccination/covid-19?ban=covid_vaccine_landing_schedule", "address": {"street1": "2290 NICHOLASVILLE RD", "city": "Lexington", "state": "KY", "zip": "40503"}}
{"id": "461", "name": "Kroger Pharmacy - Tates Creek (02400347)", "county": "Fayette", "lat": 37.971403, "long": -84.498648, "register_online_url": "https://www.kroger.com/rx/covid-eligibility", "address": {"street1": "4101 Tates Creek Centre Drive", "city": "Lexington", "state": "KY", "zip": "40517"}}
{"id": "467", "name": "Kroger Pharmacy - Bryan Station (02400359)", "county": "Fayette", "lat": 38.058403, "long": -84.46126, "register_online_url": "https://www.kroger.com/rx/covid-eligibility", "address": {"street1": "1650 Bryan Station Road", "city": "Lexington", "state": "KY", "zip": "40505"}}
{"id": "469", "name": "Kroger Pharmacy - Gardenside (02400361)", "county": "Fayette", "lat": 38.037585, "long": -84.550567, "register_online_url": "https://www.kroger.com/rx/covid-eligibility", "address": {"street1": "1808 Alexandria Drive", "city": "Lexington", "state": "KY", "zip": "40504"}}
{"id": "476", "name": "Kroger Pharmacy - Euclid (02400784)", "county": "Fayette", "lat": 38.030796, "long": -84.492723, "register_online_url": "https://www.kroger.com/rx/covid-eligibility", "address": {"street1": "704 Euclid Avenue", "city": "Lexington", "state": "KY", "zip": "40502"}}
{"id": "480", "name": "Kroger Pharmacy - Meadowthorpe (02400768)", "county": "Fayette", "lat": 38.065525, "long": -84.527401, "register_online_url": "https://www.kroger.com/rx/covid-eligibility", "address": {"street1": "1600 Leestown Rd #150", "city": "Lexington", "state": "KY", "zip": "40511"}}
{"id": "481", "name": "Kroger Pharmacy - Beaumont Centre (02400767)", "county": "Fayette", "lat": 38.022527, "long": -84.559457, "register_online_url": "https://www.kroger.com/rx/covid-eligibility", "address": {"street1": "3175 Beaumont Centre", "city": "Lexington", "state": "KY", "zip": "40513"}}
{"id": "489", "name": "Kroger Pharmacy - Chinoe (02400737)", "county": "Fayette", "lat": 37.99775, "long": -84.479745, "register_online_url": "https://www.kroger.com/rx/covid-eligibility", "address": {"street1": "1060 Chinoe Road Suite 190", "city": "Lexington", "state": "KY", "zip": "40502"}}
{"id": "492", "name": "Kroger Pharmacy - Hartland Parkway (02400721)", "county": "Fayette", "lat": 37.961937, "long": -84.479651, "register_online_url": "https://www.kroger.com/rx/covid-eligibility", "address": {"street1": "4750 Hartland Parkway", "city": "Lexington", "state": "KY", "zip": "40515"}}
{"id": "550", "name": "Kroger Pharmacy - Millpond Center  (02400371)", "county": "Fayette", "lat": 37.979723, "long": -84.548638, "register_online_url": "https://www.kroger.com/rx/covid-eligibility", "address": {"street1": "3650 Boston Road", "city": "Lexington", "state": "KY", "zip": "40514"}}
{"id": "561", "name": "Kroger Pharmacy - Man - o - War (02400407)", "county": "Fayette", "lat": 38.003375, "long": -84.444288, "register_online_url": "https://www.kroger.com/rx/covid-eligibility", "address": {"street1": "3101 Richmond Road", "city": "Lexington", "state": "KY", "zip": "40509"}}
{"id": "443", "name": "Betsy Layne Pharmacy, Inc", "county": "Floyd", "lat": 37.555613, "long": -82.63078, "register_phone": "tel:606-478-9474", "address": {"street1": "11155 US Hwy 23 S", "city": "Betsy Layne", "state": "KY", "zip": "41605"}}
{"id": "246", "name": "Walgreens Pharmacy", "county": "Floyd", "lat": 37.5708, "long": -82.7819, "register_online_url": "https://www.walgreens.com/findcare/vaccination/covid-19?ban=covid_vaccine_landing_schedule", "address": {"street1": "10 CHARBY HOLLOW RD", "city": "Martin", "state": "KY", "zip": "41649"}}
{"id": "303", "name": "Walgreens Pharmacy", "county": "Floyd", "lat": 37.66565, "long": -82.77155, "register_online_url": "https://www.walgreens.com/findcare/vaccination/covid-19?ban=covid_vaccine_landing_schedule", "address": {"street1": "152 COLLINS CIRCLE", "city": "Prestonsburg", "state": "KY", "zip": "41653"}}
{"id": "18", "name": "ARH Our Lady of the Way Hospital", "county": "Floyd", "lat": 37.576407, "long": -82.751212, "register_phone": "tel:855-274-2273", "address": {"street1": "11203 Main Street", "city": "Martin", "state": "KY", "zip": "41649"}}
{"id": "21", "name": "Highlands ARH Regional Medical Center", "county": "Floyd", "lat": 37.728985, "long": -82.765938, "register_phone": "tel:855-274-2273", "address": {"street1": "5000 KY Rt. 321", "city": "Prestonsburg", "state": "KY", "zip": "41653"}}
{"id": "23", "name": "McDowell ARH Hospital", "county": "Floyd", "lat": 37.457041, "long": -82.746222, "register_phone": "tel:855-274-2273", "address": {"street1": "9879 KY 122", "city": "McDowell", "state": "KY", "zip": "41647"}}
{"id": "150", "name": "Walgreens Pharmacy", "county": "Floyd", "lat": 37.659303, "long": -82.786362, "register_online_url": "https://www.walgreens.com/findcare/vaccination/covid-19?ban=covid_vaccine_landing_schedule", "address": {"street1": "103 GLYNNVIEW PLAZA", "city": "Prestonsburg", "state": "KY", "zip": "41653"}}
{"id": "53", "name": "Frankfort Clinic", "county": "Franklin", "lat": 38.158516, "long": -84.921748, "register_online_url": "https://www.kroger.com/rx/covid-eligibility", "register_phone": "tel:866-211-5320", "address": {"street1": "669 Chamberlin Avenue", "city": "Frankfort", "state": "KY", "zip": "40601"}}
{"id": "132", "name": "Walgreens Pharmacy", "county": "Franklin", "lat": 38.195774, "long": -84.929024, "register_online_url": "https://www.walgreens.com/findcare/vaccination/covid-19?ban=covid_vaccine_landing_schedule", "address": {"street1": "385 VERSAILLES RD", "city": "Frankfort", "state": "KY", "zip": "40601"}}
{"id": "472", "name": "Kroger Pharmacy - Franklin Square (02400368)", "county": "Franklin", "lat": 38.166018, "long": -84.895903, "register_online_url": "https://www.kroger.com/rx/covid-eligibility", "address": {"street1": "1309 US Highway 127 S Suite H", "city": "Frankfort", "state": "KY", "zip": "40601"}}
{"id": "523", "name": "Walmart #720", "county": "Franklin", "lat": 38.160395, "long": -84.898735, "register_online_url": "https://www.walmart.com/covidvaccine", "address": {"street1": "301 Leonardwood Rd", "city": "Frankfort", "state": "KY", "zip": "40601"}}
{"id": "557", "name": "Kroger Pharmacy - Brighton Park (02400397)", "county": "Franklin", "lat": 38.199182, "long": -84.82649, "register_online_url": "https://www.kroger.com/rx/covid-eligibility", "address": {"street1": "300 Brighton Park Blvd", "city": "Frankfort", "state": "KY", "zip": "40601"}}
{"id": "284", "name": "Walgreens Pharmacy", "county": "Franklin", "lat": 38.167102, "long": -84.898925, "register_online_url": "https://www.walgreens.com/findcare/vaccination/covid-19?ban=covid_vaccine_landing_schedule", "address": {"street1": "1300 US HIGHWAY 127 S", "city": "Frankfort", "state": "KY", "zip": "40601"}}
{"id": "308", "name": "Walmart Supercenter", "county": "Franklin", "lat": 38.161166, "long": -84.903138, "register_online_url": "https://www.walmart.com/cp/1228305", "address": {"street1": "301 LEONARDWOOD RD", "city": "Frankfort", "state": "KY", "zip": "40601"}}
{"id": "392", "name": "Franklin County Health Department- Public Health Center", "county": "Franklin", "lat": 38.195474, "long": -84.895962, "register_online_url": "https://www.fchd.org/FCJJ", "register_phone": "tel:502-564-7647", "address": {"street1": "851 East-West Connector", "city": "Frankfort", "state": "KY", "zip": "40601"}}
{"id": "186", "name": "Walmart Supercenter", "county": "Fulton", "lat": 36.5617918, "long": -89.056454, "register_online_url": "https://www.walmart.com/cp/1228314", "address": {"street1": "1405 MIDDLE RD", "city": "Fulton", "state": "KY", "zip": "42041"}}
{"id": "542", "name": "Walmart #106", "county": "Fulton", "lat": 36.517304, "long": -88.900083, "register_online_url": "https://www.walmart.com/covidvaccine", "address": {"street1": "1405 Middle Rd", "city": "Fulton", "state": "KY", "zip": "42041"}}
{"id": "406", "name": "Fulton County Health Department", "county": "Garrard", "lat": 36.510759, "long": -88.876024, "register_phone": "tel:270-472-1982", "address": {"street1": "350 Browder St", "city": "Fulton", "state": "KY", "zip": "42041"}}
{"id": "149", "name": "Walgreens Pharmacy", "county": "Garrard", "lat": 37.601756, "long": -84.591262, "register_online_url": "https://www.walgreens.com/findcare/vaccination/covid-19?ban=covid_vaccine_landing_schedule", "address": {"street1": "154 PLEASANT RETREAT DRIVE", "city": "Lancaster", "state": "KY", "zip": "40444"}}
{"id": "200", "name": "Walmart Supercenter", "county": "Grant", "lat": 38.67951, "long": -84.5973, "register_online_url": "https://www.walmart.com/cp/1228328", "address": {"street1": "20 Ferguson Blvd", "city": "Dry Ridge", "state": "KY", "zip": "41035"}}
{"id": "536", "name": "Walmart #584", "county": "Grant", "lat": 38.679076, "long": -84.597168, "register_online_url": "https://www.walmart.com/covidvaccine", "address": {"street1": "20 Ferguson Blvd", "city": "Dry Ridge", "state": "KY", "zip": "41035"}}
{"id": "344", "name": "Grant County Drugs", "county": "Grant", "lat": 38.681774, "long": -84.58917, "register_phone": "tel:859-823-5271", "address": {"street1": "24 South Main street", "city": "Dry ridge", "state": "KY", "zip": "41035"}}
{"id": "365", "name": "Stones health mart pharmacy", "county": "Graves", "lat": 36.737945, "long": -88.638378, "register_phone": "tel:270-247-3232", "address": {"street1": "414 s 9th street", "city": "Mayfield", "state": "KY", "zip": "42066"}}
{"id": "103", "name": "Walgreens Pharmacy", "county": "Graves", "lat": 36.754677, "long": -88.734586, "register_online_url": "https://www.walgreens.com/findcare/vaccination/covid-19?ban=covid_vaccine_landing_schedule", "address": {"street1": "635 S 6TH ST", "city": "Mayfield", "state": "KY", "zip": "42066"}}
{"id": "163", "name": "Walmart Supercenter", "county": "Graves", "lat": 36.721084, "long": -88.626503, "register_online_url": "https://www.walmart.com/cp/1228306", "address": {"street1": "1225 PARIS RD", "city": "Mayfield", "state": "KY", "zip": "42066"}}
{"id": "187", "name": "Walmart Supercenter", "county": "Grayson", "lat": 37.486289, "long": -86.467308, "register_online_url": "https://www.walmart.com/cp/1228315", "address": {"street1": "1801 ELIZABETHTOWN RD", "city": "Leitchfield", "state": "KY", "zip": "42754"}}
{"id": "228", "name": "Walgreens Pharmacy", "county": "Grayson", "lat": 37.4831041, "long": -86.2932689, "register_online_url": "https://www.walgreens.com/findcare/vaccination/covid-19?ban=covid_vaccine_landing_schedule", "address": {"street1": "311 N MAIN ST", "city": "Leitchfield", "state": "KY", "zip": "42754"}}
{"id": "437", "name": "Grayson County Health Department", "county": "Grayson", "lat": 37.477013, "long": -86.293076, "register_online_url": "https://www.graysonhealthcenter.com/vaccine", "register_phone": "tel:270-259-3141", "address": {"street1": "124 E White Oak Street", "city": "Leitchfield", "state": "KY", "zip": "42754"}}
{"id": "439", "name": "Owensboro Health Twin Lakes Medical Center", "county": "Grayson", "lat": 37.472741, "long": -86.2886, "register_online_url": "https://www.owensborohealth.org/patient-visitor/schedule-an-appointment/covid-19-vaccination/", "register_phone": "tel:270-685-7100", "address": {"street1": "910 Wallace Ave", "city": "Leitchfield", "state": "KY", "zip": "42754"}}
{"id": "543", "name": "Walmart #445", "county": "Grayson", "lat": 37.484733, "long": -86.26596, "register_online_url": "https://www.walmart.com/covidvaccine", "address": {"street1": "1801 Elizabethtown Rd", "city": "Leitchfield", "state": "KY", "zip": "42754"}}
{"id": "115", "name": "Walgreens Pharmacy", "county": "Green", "lat": 37.249453, "long": -85.501619, "register_online_url": "https://www.walgreens.com/findcare/vaccination/covid-19?ban=covid_vaccine_landing_schedule", "address": {"street1": "603 COLUMBIA HIGHWAY", "city": "Greensburg", "state": "KY", "zip": "42743"}}
{"id": "106", "name": "Walgreens Pharmacy", "county": "Greenup", "lat": 38.522309, "long": -82.817561, "register_online_url": "https://www.walgreens.com/findcare/vaccination/covid-19?ban=covid_vaccine_landing_schedule", "address": {"street1": "1900 ARGILLITE RD", "city": "Flatwoods", "state": "KY", "zip": "41139"}}
{"id": "335", "name": "Daniels Pharmacy", "county": "Greenup", "lat": 38.513504, "long": -82.718406, "register_phone": "tel:606-836-4313", "address": {"street1": "903 Bellefonte Rd Suite A", "city": "Flatwoods", "state": "KY", "zip": "41139"}}
{"id": "337", "name": "Poole's Pharmacy Care", "county": "Hancock", "lat": 37.925625, "long": -86.890715, "register_phone": "tel:270-295-3131", "address": {"street1": "8180 US HWY 60 W", "city": "Lewisport", "state": "KY", "zip": "42351"}}
{"id": "309", "name": "Walmart Supercenter", "county": "Hardin", "lat": 37.8490297, "long": -85.9420536, "register_online_url": "https://www.walmart.com/cp/1228306", "address": {"street1": "1165 WALMART WAY", "city": "Radcliff", "state": "KY", "zip": "40160"}}
{"id": "345", "name": "Save rite Drugs radclidd", "county": "Hardin", "lat": 37.829156, "long": -85.928421, "register_online_url": "https://www.Saveritedrugs.com", "register_phone": "tel:270-351-3784", "address": {"street1": "990 s dixie ste 6", "city": "Radcliff", "state": "KY", "zip": "40160"}}
{"id": "383", "name": "Baptist Health Hardin - Towne Mall Vaccination Clinic", "county": "Hardin", "lat": 37.731753, "long": -85.888612, "register_phone": "tel:270-706-1004", "address": {"street1": "1704 North Dixie Highway", "city": "Elizabethtown", "state": "KY", "zip": "42701"}}
{"id": "470", "name": "Kroger Pharmacy - Towne Center (02400362)", "county": "Hardin", "lat": 37.735043, "long": -85.888481, "register_online_url": "https://www.kroger.com/rx/covid-eligibility", "address": {"street1": "111 Towne Drive", "city": "Elizabethtown", "state": "KY", "zip": "42701"}}
{"id": "524", "name": "Walmart #1165", "county": "Hardin", "lat": 37.84918, "long": -85.94265, "register_online_url": "https://www.walmart.com/covidvaccine", "address": {"street1": "1165 Walmart Way", "city": "Radcliff", "state": "KY", "zip": "40160"}}
{"id": "30", "name": "Baptist Health Hardin", "county": "Hardin", "lat": 37.711129, "long": -85.876828, "register_online_url": "https://www.hmh.net/covid-19-vaccine/", "register_phone": "tel:270-706-1004", "address": {"street1": "913 N Dixie Hwy", "city": "Elizabethtown", "state": "KY", "zip": "42701"}}
{"id": "74", "name": "Kroger", "county": "Hardin", "lat": 37.711681, "long": -85.75, "register_online_url": "https://www.kroger.com/rx/covid-eligibility", "address": {"street1": "3040 Dolphin Dr.", "city": "Elizabethtown", "state": "KY", "zip": "42701"}}
{"id": "90", "name": "Walgreens Pharmacy", "county": "Hardin", "lat": 37.833542, "long": -85.932562, "register_online_url": "https://www.walgreens.com/findcare/vaccination/covid-19?ban=covid_vaccine_landing_schedule", "address": {"street1": "635 S DIXIE BLVD", "city": "Radcliff", "state": "KY", "zip": "40160"}}
{"id": "119", "name": "Walgreens Pharmacy", "county": "Hardin", "lat": 37.758654, "long": -85.784407, "register_online_url": "https://www.walgreens.com/findcare/vaccination/covid-19?ban=covid_vaccine_landing_schedule", "address": {"street1": "1602 N DIXIE HWY", "city": "Elizabethtown", "state": "KY", "zip": "42701"}}
{"id": "138", "name": "Walgreens Pharmacy", "county": "Hardin", "lat": 37.703905, "long": -85.870912, "register_online_url": "https://www.walgreens.com/findcare/vaccination/covid-19?ban=covid_vaccine_landing_schedule", "address": {"street1": "550 W DIXIE AVE", "city": "Elizabethtown", "state": "KY", "zip": "42701"}}
{"id": "217", "name": "Walgreens Pharmacy", "county": "Hardin", "lat": 37.70943, "long": -85.83956, "register_online_url": "https://www.walgreens.com/findcare/vaccination/covid-19?ban=covid_vaccine_landing_schedule", "address": {"street1": "1008 N MULBERRY ST", "city": "Elizabethtown", "state": "KY", "zip": "42701"}}
{"id": "20", "name": "Harlan ARH Hospital", "county": "Harlan", "lat": 36.809957, "long": -83.313967, "register_phone": "tel:855-274-2273", "address": {"street1": "81 Ball Park Rd", "city": "Harlan", "state": "KY", "zip": "40831"}}
{"id": "268", "name": "Walgreens Pharmacy", "county": "Harlan", "lat": 36.974741, "long": -82.979235, "register_online_url": "https://www.walgreens.com/findcare/vaccination/covid-19?ban=covid_vaccine_landing_schedule", "address": {"street1": "2307 E MAIN ST", "city": "Cumberland", "state": "KY", "zip": "40823"}}
{"id": "296", "name": "Walgreens Pharmacy", "county": "Harrison", "lat": 38.422509, "long": -84.282235, "register_online_url": "https://www.walgreens.com/findcare/vaccination/covid-19?ban=covid_vaccine_landing_schedule", "address": {"street1": "629 US HIGHWAY 27 SOUTH", "city": "Cynthiana", "state": "KY", "zip": "41031"}}
{"id": "516", "name": "Walmart #591", "county": "Harrison", "lat": 38.378028, "long": -84.306004, "register_online_url": "https://www.walmart.com/covidvaccine", "address": {"street1": "805 US Highway 27 S", "city": "Cynthiana", "state": "KY", "zip": "41031"}}
{"id": "249", "name": "Walgreens Pharmacy", "county": "Hart", "lat": 37.1829511, "long": -85.9032475, "register_online_url": "https://www.walgreens.com/findcare/vaccination/covid-19?ban=covid_vaccine_landing_schedule", "address": {"street1": "394 NORTH DIXIE STREET", "city": "Horse Cave", "state": "KY", "zip": "42749"}}
{"id": "256", "name": "Walgreens Pharmacy", "county": "Hart", "lat": 37.297562, "long": -85.90794, "register_online_url": "https://www.walgreens.com/findcare/vaccination/covid-19?ban=covid_vaccine_landing_schedule", "address": {"street1": "600 NORTH MAIN STREET", "city": "Munfordville", "state": "KY", "zip": "42765"}}
{"id": "233", "name": "Walgreens Pharmacy", "county": "Henderson", "lat": 37.8436086, "long": -87.5858974, "register_online_url": "https://www.walgreens.com/findcare/vaccination/covid-19?ban=covid_vaccine_landing_schedule", "address": {"street1": "517 N GREEN ST", "city": "Henderson", "state": "KY", "zip": "42420"}}
{"id": "353", "name": "Deaconess Henderson Hospital", "county": "Henderson", "lat": 37.854739, "long": -87.582378, "register_online_url": "https://www.deaconess.com/Deaconess-Henderson-Hospital", "register_phone": "tel:270-833-7796", "address": {"street1": "1305 N Elm St", "city": "Henderson", "state": "KY", "zip": "42420"}}
{"id": "369", "name": "Midway Pharmacy", "county": "Henderson", "lat": 37.831364, "long": -87.572105, "register_phone": "tel:270-212-1001", "address": {"street1": "1640 2nd St", "city": "Henderson", "state": "KY", "zip": "42420"}}
{"id": "50", "name": "Deaconess Henderson Hospital", "county": "Henderson", "lat": 37.854739, "long": -87.582378, "register_online_url": "https://www.deaconess.com/Coronavirus/COVID-19-Vaccine/COVID-Vaccine-Scheduling/Henderson-COVID-Vaccine-Clinic", "register_phone": "tel:270-833-7796", "address": {"street1": "1305 N. Elm St", "city": "Henderson", "state": "KY", "zip": "42420"}}
{"id": "87", "name": "Walgreens Pharmacy", "county": "Henderson", "lat": 37.839264, "long": -87.487906, "register_online_url": "https://www.walgreens.com/findcare/vaccination/covid-19?ban=covid_vaccine_landing_schedule", "address": {"street1": "402 2ND ST", "city": "Henderson", "state": "KY", "zip": "42420"}}
{"id": "218", "name": "Walgreens Pharmacy", "county": "Henderson", "lat": 37.83307, "long": -87.57188, "register_online_url": "https://www.walgreens.com/findcare/vaccination/covid-19?ban=covid_vaccine_landing_schedule", "address": {"street1": "1355 2ND STREET", "city": "Henderson", "state": "KY", "zip": "42420"}}
{"id": "511", "name": "Walmart #694", "county": "Henderson", "lat": 37.856299, "long": -87.566041, "register_online_url": "https://www.walmart.com/covidvaccine", "address": {"street1": "1195 Barrett Blvd", "city": "Henderson", "state": "KY", "zip": "42420"}}
{"id": "384", "name": "Hickman County Health Center", "county": "Hickman", "lat": 36.660522, "long": -88.994296, "register_phone": "tel:270-653-6110", "address": {"street1": "370 S. Washington St.", "city": "Clinton", "state": "KY", "zip": "42031"}}
{"id": "359", "name": "Hopkins County Health Department", "county": "Hopkins", "lat": 37.333966, "long": -87.492564, "register_online_url": "https://www.hopkinscohealthdept.com", "register_phone": "tel:270-821-5242", "address": {"street1": "412 N. Kentucky Ave.", "city": "Madisonville", "state": "KY", "zip": "42431"}}
{"id": "429", "name": "Kroger Pharmacy- Madisonville (02400563)", "county": "Hopkins", "lat": 37.34969, "long": -87.489835, "register_online_url": "https://www.kroger.com/rx/covid-eligibility", "register_phone": "tel:270-821-0692", "address": {"street1": "540 Island Ford Road", "city": "Madisonville", "state": "KY", "zip": "42431"}}
{"id": "444", "name": "Bluegrass Pharmacy", "county": "Hopkins", "lat": 37.347273, "long": -87.4978, "register_online_url": "https://www.bluegrasspharmacy.com", "register_phone": "tel:270-825-2775", "address": {"street1": "1128 North Main St, Suite 1", "city": "Madisonville", "state": "KY", "zip": "42431"}}
{"id": "547", "name": "Walmart #655", "county": "Hopkins", "lat": 37.423604, "long": -87.473951, "register_online_url": "https://www.walmart.com/covidvaccine", "address": {"street1": "420 Factory Outlet Drive", "city": "Hanson", "state": "KY", "zip": "42413"}}
{"id": "29", "name": "Baptist Health Madisonville", "county": "Hopkins", "lat": 37.34066, "long": -87.493231, "register_online_url": "https://ScheduleYourVaccine.com", "register_phone": "tel:270-825-6637", "address": {"street1": "900 Hospital Dr", "city": "Madisonville", "state": "KY", "zip": "42431"}}
{"id": "191", "name": "Walmart Supercenter", "county": "Hopkins", "lat": 37.421227, "long": -87.474454, "register_online_url": "https://www.walmart.com/cp/1228319", "address": {"street1": "420 FACTORY OUTLET DRIVE", "city": "Hanson", "state": "KY", "zip": "42413"}}
{"id": "219", "name": "Walgreens Pharmacy", "county": "Hopkins", "lat": 37.34901, "long": -87.49921, "register_online_url": "https://www.walgreens.com/findcare/vaccination/covid-19?ban=covid_vaccine_landing_schedule", "address": {"street1": "1801 N MAIN ST", "city": "Madisonville", "state": "KY", "zip": "42431"}}
{"id": "222", "name": "Walgreens Pharmacy", "county": "Hopkins", "lat": 37.3193826, "long": -87.5003928, "register_online_url": "https://www.walgreens.com/findcare/vaccination/covid-19?ban=covid_vaccine_landing_schedule", "address": {"street1": "679 S MAIN ST", "city": "Madisonville", "state": "KY", "zip": "42431"}}
{"id": "259", "name": "Walgreens Pharmacy", "county": "Jackson", "lat": 37.4302459, "long": -83.9998374, "register_online_url": "https://www.walgreens.com/findcare/vaccination/covid-19?ban=covid_vaccine_landing_schedule", "address": {"street1": "551 MAIN STREET NORTH", "city": "McKee", "state": "KY", "zip": "40447"}}
{"id": "225", "name": "Walgreens Pharmacy", "county": "Jefferson", "lat": 38.1801156, "long": -85.7827688, "register_online_url": "https://www.walgreens.com/findcare/vaccination/covid-19?ban=covid_vaccine_landing_schedule", "address": {"street1": "4149 TAYLOR BOULEVARD", "city": "Louisville", "state": "KY", "zip": "40215"}}
{"id": "229", "name": "Walgreens Pharmacy", "county": "Jefferson", "lat": 38.2452031, "long": -85.7513354, "register_online_url": "https://www.walgreens.com/findcare/vaccination/covid-19?ban=covid_vaccine_landing_schedule", "address": {"street1": "200 E BROADWAY", "city": "Louisville", "state": "KY", "zip": "40202"}}
{"id": "238", "name": "Walgreens Pharmacy", "county": "Jefferson", "lat": 38.2286874, "long": -85.7896427, "register_online_url": "https://www.walgreens.com/findcare/vaccination/covid-19?ban=covid_vaccine_landing_schedule", "address": {"street1": "1475 DIXIE HWY", "city": "Louisville", "state": "KY", "zip": "40210"}}
{"id": "242", "name": "Walgreens Pharmacy", "county": "Jefferson", "lat": 38.2146605, "long": -85.7419958, "register_online_url": "https://www.walgreens.com/findcare/vaccination/covid-19?ban=covid_vaccine_landing_schedule", "address": {"street1": "808 EASTERN PKWY", "city": "Louisville", "state": "KY", "zip": "40217"}}
{"id": "245", "name": "Walgreens Pharmacy", "county": "Jefferson", "lat": 38.1681545, "long": -85.8297235, "register_online_url": "https://www.walgreens.com/findcare/vaccination/covid-19?ban=covid_vaccine_landing_schedule", "address": {"street1": "5100 DIXIE HWY", "city": "Louisville", "state": "KY", "zip": "40216"}}
{"id": "251", "name": "Walgreens Pharmacy", "county": "Jefferson", "lat": 38.178417, "long": -85.8633503, "register_online_url": "https://www.walgreens.com/findcare/vaccination/covid-19?ban=covid_vaccine_landing_schedule", "address": {"street1": "4926 CANE RUN RD", "city": "Louisville", "state": "KY", "zip": "40216"}}
{"id": "276", "name": "Walgreens Pharmacy", "county": "Jefferson", "lat": 38.1503771, "long": -85.7769074, "register_online_url": "https://www.walgreens.com/findcare/vaccination/covid-19?ban=covid_vaccine_landing_schedule", "address": {"street1": "5400 NEW CUT RD", "city": "Louisville", "state": "KY", "zip": "40214"}}
{"id": "278", "name": "Walgreens Pharmacy", "county": "Jefferson", "lat": 38.2871475, "long": -85.6293465, "register_online_url": "https://www.walgreens.com/findcare/vaccination/covid-19?ban=covid_vaccine_landing_schedule", "address": {"street1": "2420 LIME KILN LN", "city": "Louisville", "state": "KY", "zip": "40222"}}
{"id": "279", "name": "Walgreens Pharmacy", "county": "Jefferson", "lat": 38.2874306, "long": -85.5711534, "register_online_url": "https://www.walgreens.com/findcare/vaccination/covid-19?ban=covid_vaccine_landing_schedule", "address": {"street1": "9702 WESTPORT RD", "city": "Louisville", "state": "KY", "zip": "40241"}}
{"id": "280", "name": "Walgreens Pharmacy", "county": "Jefferson", "lat": 38.1385251, "long": -85.6580486, "register_online_url": "https://www.walgreens.com/findcare/vaccination/covid-19?ban=covid_vaccine_landing_schedule", "address": {"street1": "7700 SHEPHERDSVILLE ROAD", "city": "Louisville", "state": "KY", "zip": "40219"}}
{"id": "281", "name": "Walgreens Pharmacy", "county": "Jefferson", "lat": 38.2470957, "long": -85.5781097, "register_online_url": "https://www.walgreens.com/findcare/vaccination/covid-19?ban=covid_vaccine_landing_schedule", "address": {"street1": "9409 SHELBYVILLE RD", "city": "Louisville", "state": "KY", "zip": "40222"}}
{"id": "283", "name": "Walgreens Pharmacy", "county": "Jefferson", "lat": 38.1566234, "long": -85.6954991, "register_online_url": "https://www.walgreens.com/findcare/vaccination/covid-19?ban=covid_vaccine_landing_schedule", "address": {"street1": "3600 FERN VALLEY RD", "city": "Louisville", "state": "KY", "zip": "40219"}}
{"id": "288", "name": "Walgreens Pharmacy", "county": "Jefferson", "lat": 38.1830641, "long": -85.6057201, "register_online_url": "https://www.walgreens.com/findcare/vaccination/covid-19?ban=covid_vaccine_landing_schedule", "address": {"street1": "8300 WATTERSON TRL", "city": "Louisville", "state": "KY", "zip": "40299"}}
{"id": "289", "name": "Walgreens Pharmacy", "county": "Jefferson", "lat": 38.2228655, "long": -85.6852504, "register_online_url": "https://www.walgreens.com/findcare/vaccination/covid-19?ban=covid_vaccine_landing_schedule", "address": {"street1": "2490 BARDSTOWN RD", "city": "Louisville", "state": "KY", "zip": "40205"}}
{"id": "290", "name": "Walgreens Pharmacy", "county": "Jefferson", "lat": 38.3381285, "long": -85.6216861, "register_online_url": "https://www.walgreens.com/findcare/vaccination/covid-19?ban=covid_vaccine_landing_schedule", "address": {"street1": "5900 TIMBER RIDGE DR", "city": "Prospect", "state": "KY", "zip": "40059"}}
{"id": "293", "name": "Walgreens Pharmacy", "county": "Jefferson", "lat": 38.2531127, "long": -85.6611533, "register_online_url": "https://www.walgreens.com/findcare/vaccination/covid-19?ban=covid_vaccine_landing_schedule", "address": {"street1": "3700 FRANKFORT AVE", "city": "Louisville", "state": "KY", "zip": "40207"}}
{"id": "295", "name": "Walgreens Pharmacy", "county": "Jefferson", "lat": 38.2579018, "long": -85.6034883, "register_online_url": "https://www.walgreens.com/findcare/vaccination/covid-19?ban=covid_vaccine_landing_schedule", "address": {"street1": "520 LYNDON LN", "city": "Lyndon", "state": "KY", "zip": "40222"}}
{"id": "298", "name": "Walgreens Pharmacy", "county": "Jefferson", "lat": 38.2047338, "long": -85.7134879, "register_online_url": "https://www.walgreens.com/findcare/vaccination/covid-19?ban=covid_vaccine_landing_schedule", "address": {"street1": "3800 POPLAR LEVEL RD", "city": "Louisville", "state": "KY", "zip": "40213"}}
{"id": "299", "name": "Walgreens Pharmacy", "county": "Jefferson", "lat": 38.2529601, "long": -85.6558489, "register_online_url": "https://www.walgreens.com/findcare/vaccination/covid-19?ban=covid_vaccine_landing_schedule", "address": {"street1": "4240 SHELBYVILLE RD", "city": "Louisville", "state": "KY", "zip": "40207"}}
{"id": "301", "name": "Walgreens Pharmacy", "county": "Jefferson", "lat": 38.1305473, "long": -85.5785928, "register_online_url": "https://www.walgreens.com/findcare/vaccination/covid-19?ban=covid_vaccine_landing_schedule", "address": {"street1": "8014 BARDSTOWN ROAD", "city": "Louisville", "state": "KY", "zip": "40291"}}
{"id": "302", "name": "Walgreens Pharmacy", "county": "Jefferson", "lat": 38.2535529, "long": -85.700138, "register_online_url": "https://www.walgreens.com/findcare/vaccination/covid-19?ban=covid_vaccine_landing_schedule", "address": {"street1": "2368 FRANKFORT AVE", "city": "Louisville", "state": "KY", "zip": "40206"}}
{"id": "306", "name": "Walmart Supercenter", "county": "Jefferson", "lat": 38.2470017, "long": -85.512807, "register_online_url": "https://www.walmart.com/cp/1228303", "address": {"street1": "12981 SHELBYVILLE RD", "city": "Middletown", "state": "KY", "zip": "40243"}}
{"id": "313", "name": "Walmart Supercenter", "county": "Jefferson", "lat": 38.128895, "long": -85.7799063, "register_online_url": "https://www.walmart.com/cp/1228310", "address": {"street1": "175 OUTER LOOP", "city": "Louisville", "state": "KY", "zip": "40214"}}
{"id": "325", "name": "UofL Health Cardinal Stadium Vaccination Site", "county": "Jefferson", "lat": 38.20205, "long": -85.72568, "register_online_url": "https://uoflhealth.org/louisville-covid-19-vaccinations/", "register_phone": "tel:502-681-1435", "address": {"street1": "2800 S. Floyd Street", "city": "Jefferson", "state": "KY", "zip": "40209"}}
{"id": "327", "name": "Whitney Young Elementary", "county": "Jefferson", "lat": 38.25644, "long": -85.81032, "register_online_url": "https://nortonhealthcare.com/", "address": {"street1": "3526 W Muhammad Ali Blvd", "city": "Louisville", "state": "KY", "zip": "40212"}}
{"id": "388", "name": "Baptist Health Louisville", "county": "Jefferson", "lat": 38.23802, "long": -85.638782, "register_online_url": "https://www.scheduleyourvaccine.com", "register_phone": "tel:555-555-5555", "address": {"street1": "4000 Kresge Way", "city": "Louisville", "state": "KY", "zip": "40207"}}
{"id": "414", "name": "ValuMarket Pharmacy", "county": "Jefferson", "lat": 38.138814, "long": -85.620078, "register_phone": "tel:502-231-2424", "address": {"street1": "7519 Outer Loop", "city": "louisville", "state": "KY", "zip": "40228"}}
{"id": "417", "name": "Kroger Pharmacy - Portland (02400763)", "county": "Jefferson", "lat": 38.270693, "long": -85.805659, "register_online_url": "https://www.kroger.com/rx/covid-eligibility", "register_phone": "tel:502-776-3765", "address": {"street1": "520 N. 35th Street", "city": "Louisville", "state": "KY", "zip": "40212"}}
{"id": "423", "name": "Kroger Pharmacy Buechel (02400729)", "county": "Jefferson", "lat": 38.19829, "long": -85.663391, "register_online_url": "https://www.kroger.com/rx/covid-eligibility", "register_phone": "tel:502-458-9511", "address": {"street1": "3616 Buechel Bypass", "city": "Louisville", "state": "KY", "zip": "40218"}}
{"id": "4", "name": "Broadbent Arena", "county": "Jefferson", "lat": 38.199731, "long": -85.74037, "register_phone": "tel:502-912-8598", "address": {"street1": "937 Phillips Ln", "city": "Louisville", "state": "KY", "zip": "40209"}}
{"id": "9", "name": "UofL Health Jewish Hospital", "county": "Jefferson", "lat": 38.249177, "long": -85.751251, "register_phone": "tel:502-569-7983", "address": {"street1": "200 Abraham Flexner Way", "city": "Louisville", "state": "KY", "zip": "40202"}}
{"id": "31", "name": "Baptist Health Louisville", "county": "Jefferson", "lat": 38.238068, "long": -85.638638, "register_online_url": "https://ScheduleYourVaccine.com", "address": {"street1": "4000 Kresge Way", "city": "Louisville", "state": "KY", "zip": "40207"}}
{"id": "67", "name": "Norton Healthcare- Breckenridge Lane", "county": "Jefferson", "lat": 38.23278, "long": -85.6377, "register_online_url": "https://nortonhealthcare.com/", "register_phone": "tel:502-861-4499", "address": {"street1": "1001 Breckenridge Lane    Suite 113", "city": "Louisville", "state": "KY", "zip": "40207"}}
{"id": "68", "name": "Norton Healthcare- Angies Way", "county": "Jefferson", "lat": 38.31395, "long": -85.56914, "register_online_url": "https://nortonhealthcare.com/", "register_phone": "tel:502-861-4499", "address": {"street1": "9880 Angies Way    Suite 120", "city": "Louisville", "state": "KY", "zip": "40241"}}
{"id": "69", "name": "Norton Healthcare- Republic Bank Foundation YMCA", "county": "Jefferson", "lat": 38.24847, "long": -85.78081, "register_online_url": "https://nortonhealthcare.com/", "register_phone": "tel:502-861-4499 ", "address": {"street1": "1720 W Broadway", "city": "Louisville", "state": "KY", "zip": "40203"}}
{"id": "70", "name": "Norton Healthcare- Dixie Highway", "county": "Jefferson", "lat": 38.18127, "long": -85.8161, "register_online_url": "https://nortonhealthcare.com/", "register_phone": "tel:502-861-4499 ", "address": {"street1": "4420 Dixie Highway   Suite 107", "city": "Jefferson", "state": "KY", "zip": "40216"}}
{"id": "80", "name": "Walgreens Pharmacy", "county": "Jefferson", "lat": 38.08802, "long": -85.666184, "register_online_url": "https://www.walgreens.com/findcare/vaccination/covid-19?ban=covid_vaccine_landing_schedule", "address": {"street1": "11930 STANDIFORD PLAZA DR", "city": "Louisville", "state": "KY", "zip": "40229"}}
{"id": "92", "name": "Walgreens Pharmacy", "county": "Jefferson", "lat": 38.192474, "long": -85.807794, "register_online_url": "https://www.walgreens.com/findcare/vaccination/covid-19?ban=covid_vaccine_landing_schedule", "address": {"street1": "3980 DIXIE HWY", "city": "Louisville", "state": "KY", "zip": "40216"}}
{"id": "96", "name": "Walgreens Pharmacy", "county": "Jefferson", "lat": 38.171927, "long": -85.76794, "register_online_url": "https://www.walgreens.com/findcare/vaccination/covid-19?ban=covid_vaccine_landing_schedule", "address": {"street1": "5201 S 3RD ST", "city": "Louisville", "state": "KY", "zip": "40214"}}
{"id": "107", "name": "Walgreens Pharmacy", "county": "Jefferson", "lat": 38.249939, "long": -85.809448, "register_online_url": "https://www.walgreens.com/findcare/vaccination/covid-19?ban=covid_vaccine_landing_schedule", "address": {"street1": "3410 W BROADWAY", "city": "Louisville", "state": "KY", "zip": "40211"}}
{"id": "109", "name": "Walgreens Pharmacy", "county": "Jefferson", "lat": 38.239782, "long": -85.723937, "register_online_url": "https://www.walgreens.com/findcare/vaccination/covid-19?ban=covid_vaccine_landing_schedule", "address": {"street1": "990 BAXTER AVE", "city": "Louisville", "state": "KY", "zip": "40204"}}
{"id": "116", "name": "Walgreens Pharmacy", "county": "Jefferson", "lat": 38.211653, "long": -85.769928, "register_online_url": "https://www.walgreens.com/findcare/vaccination/covid-19?ban=covid_vaccine_landing_schedule", "address": {"street1": "700 ALGONQUIN PKWY", "city": "Louisville", "state": "KY", "zip": "40208"}}
{"id": "117", "name": "Walgreens Pharmacy", "county": "Jefferson", "lat": 38.211338, "long": -85.598057, "register_online_url": "https://www.walgreens.com/findcare/vaccination/covid-19?ban=covid_vaccine_landing_schedule", "address": {"street1": "2360 STONY BROOK DR", "city": "Louisville", "state": "KY", "zip": "40220"}}
{"id": "120", "name": "Walgreens Pharmacy", "county": "Jefferson", "lat": 38.143825, "long": -85.83942, "register_online_url": "https://www.walgreens.com/findcare/vaccination/covid-19?ban=covid_vaccine_landing_schedule", "address": {"street1": "7338 DIXIE HWY", "city": "Louisville", "state": "KY", "zip": "40258"}}
{"id": "122", "name": "Walgreens Pharmacy", "county": "Jefferson", "lat": 38.248565, "long": -85.53123, "register_online_url": "https://www.walgreens.com/findcare/vaccination/covid-19?ban=covid_vaccine_landing_schedule", "address": {"street1": "12101 SHELBYVILLE RD", "city": "Middletown", "state": "KY", "zip": "40243"}}
{"id": "124", "name": "Walgreens Pharmacy", "county": "Jefferson", "lat": 38.138846, "long": -85.616032, "register_online_url": "https://www.walgreens.com/findcare/vaccination/covid-19?ban=covid_vaccine_landing_schedule", "address": {"street1": "7914 FEGENBUSH LN", "city": "Louisville", "state": "KY", "zip": "40228"}}
{"id": "125", "name": "Walgreens Pharmacy", "county": "Jefferson", "lat": 38.144055, "long": -85.871992, "register_online_url": "https://www.walgreens.com/findcare/vaccination/covid-19?ban=covid_vaccine_landing_schedule", "address": {"street1": "7500 TERRY ROAD", "city": "Louisville", "state": "KY", "zip": "40258"}}
{"id": "126", "name": "Walgreens Pharmacy", "county": "Jefferson", "lat": 38.107269, "long": -85.866997, "register_online_url": "https://www.walgreens.com/findcare/vaccination/covid-19?ban=covid_vaccine_landing_schedule", "address": {"street1": "10201 DIXIE HWY", "city": "Louisville", "state": "KY", "zip": "40272"}}
{"id": "127", "name": "Walgreens Pharmacy", "county": "Jefferson", "lat": 38.198086, "long": -85.661633, "register_online_url": "https://www.walgreens.com/findcare/vaccination/covid-19?ban=covid_vaccine_landing_schedule", "address": {"street1": "2021 HIKES LN", "city": "Louisville", "state": "KY", "zip": "40218"}}
{"id": "134", "name": "Walgreens Pharmacy", "county": "Jefferson", "lat": 38.240146, "long": -85.495738, "register_online_url": "https://www.walgreens.com/findcare/vaccination/covid-19?ban=covid_vaccine_landing_schedule", "address": {"street1": "13807 ENGLISH VILLA DR", "city": "Louisville", "state": "KY", "zip": "40245"}}
{"id": "136", "name": "Walgreens Pharmacy", "county": "Jefferson", "lat": 38.138157, "long": -85.68094, "register_online_url": "https://www.walgreens.com/findcare/vaccination/covid-19?ban=covid_vaccine_landing_schedule", "address": {"street1": "4310 OUTER LOOP", "city": "Louisville", "state": "KY", "zip": "40219"}}
{"id": "137", "name": "Walgreens Pharmacy", "county": "Jefferson", "lat": 38.312979, "long": -85.566751, "register_online_url": "https://www.walgreens.com/findcare/vaccination/covid-19?ban=covid_vaccine_landing_schedule", "address": {"street1": "9801 BROWNSBORO RD", "city": "Louisville", "state": "KY", "zip": "40241"}}
{"id": "143", "name": "Walgreens Pharmacy", "county": "Jefferson", "lat": 38.150354, "long": -85.58755, "register_online_url": "https://www.walgreens.com/findcare/vaccination/covid-19?ban=covid_vaccine_landing_schedule", "address": {"street1": "6620 BARDSTOWN RD", "city": "Louisville", "state": "KY", "zip": "40291"}}
{"id": "146", "name": "Walgreens Pharmacy", "county": "Jefferson", "lat": 38.219797, "long": -85.624192, "register_online_url": "https://www.walgreens.com/findcare/vaccination/covid-19?ban=covid_vaccine_landing_schedule", "address": {"street1": "4025 TAYLORSVILLE RD", "city": "Louisville", "state": "KY", "zip": "40220"}}
{"id": "148", "name": "Walgreens Pharmacy", "county": "Jefferson", "lat": 38.265667, "long": -85.666431, "register_online_url": "https://www.walgreens.com/findcare/vaccination/covid-19?ban=covid_vaccine_landing_schedule", "address": {"street1": "3805 BROWNSBORO ROAD", "city": "Louisville", "state": "KY", "zip": "40207"}}
{"id": "208", "name": "Kroger", "county": "Jefferson", "lat": 38.21803, "long": -85.8567, "register_online_url": "https://www.kroger.com/rx/covid-eligibility", "address": {"street1": "4915 Dixie Hwy", "city": "Louisville", "state": "KY", "zip": "40216"}}
{"id": "452", "name": "Kroger Pharmacy - Holiday Manor (02400186)", "county": "Jefferson", "lat": 38.283905, "long": -85.630658, "register_online_url": "https://www.kroger.com/rx/covid-eligibility", "address": {"street1": "2219 Holiday Manor", "city": "Louisville", "state": "KY", "zip": "40222"}}
{"id": "453", "name": "Kroger Pharmacy Brownsboro (02400224)", "county": "Jefferson", "lat": 38.258012, "long": -85.704231, "register_online_url": "https://www.kroger.com/rx/covid-eligibility", "address": {"street1": "2200 Brownsboro Road", "city": "Louisville", "state": "KY", "zip": "40206"}}
{"id": "454", "name": "Kroger Pharmacy - Terry Road (02400292)", "county": "Jefferson", "lat": 38.142762, "long": -85.870819, "register_online_url": "https://www.kroger.com/rx/covid-eligibility", "address": {"street1": "7509 Terry Road", "city": "Louisville", "state": "KY", "zip": "40258"}}
{"id": "455", "name": "Kroger Pharmacy - Plainview (02400309)", "county": "Jefferson", "lat": 38.22628, "long": -85.576421, "register_online_url": "https://www.kroger.com/rx/covid-eligibility", "address": {"street1": "9812 Linn Station Road", "city": "Louisville", "state": "KY", "zip": "40223"}}
{"id": "456", "name": "Kroger Pharmacy - Broadway (02400327)", "county": "Jefferson", "lat": 38.248692, "long": -85.797075, "register_online_url": "https://www.kroger.com/rx/covid-eligibility", "address": {"street1": "2710 W Broadway Street", "city": "Louisville", "state": "KY", "zip": "40211"}}
{"id": "457", "name": "Kroger Pharmacy - 3rd Street (02400332)", "county": "Jefferson", "lat": 38.194985, "long": -85.764612, "register_online_url": "https://www.kroger.com/rx/covid-eligibility", "address": {"street1": "4211 S 3rd Street", "city": "Louisville", "state": "KY", "zip": "40214"}}
{"id": "459", "name": "Kroger Pharmacy - Highlands (02400339)", "county": "Jefferson", "lat": 38.223178, "long": -85.687631, "register_online_url": "https://www.kroger.com/rx/covid-eligibility", "address": {"street1": "2440 Bardstown Road", "city": "Louisville", "state": "KY", "zip": "40205"}}
{"id": "460", "name": "Kroger Pharmacy - McMahan Plaza (02400346)", "county": "Jefferson", "lat": 38.217729, "long": -85.62661, "register_online_url": "https://www.kroger.com/rx/covid-eligibility", "address": {"street1": "3039 Breckenridge Lane", "city": "Louisvlle", "state": "KY", "zip": "40220"}}
{"id": "462", "name": "Kroger Pharmacy - New Cut (02400350)", "county": "Jefferson", "lat": 38.144554, "long": -85.773602, "register_online_url": "https://www.kroger.com/rx/covid-eligibility", "address": {"street1": "5533 New Cut Road", "city": "Louisville", "state": "KY", "zip": "40214"}}
{"id": "463", "name": "Kroger Pharmacy - Regency Center (02400352)", "county": "Jefferson", "lat": 38.004874, "long": -84.520636, "register_online_url": "https://www.kroger.com/rx/covid-eligibility", "address": {"street1": "150 W Lowry Lane Suite 190", "city": "Lexington", "state": "KY", "zip": "40503"}}
{"id": "465", "name": "Kroger Pharmacy - Middletown (02400356)", "county": "Jefferson", "lat": 38.242313, "long": -85.507962, "register_online_url": "https://www.kroger.com/rx/covid-eligibility", "address": {"street1": "1201 Shelbyville Road", "city": "Louisville", "state": "KY", "zip": "40243"}}
{"id": "468", "name": "Kroger Pharmacy - Fern Creek (02400360)", "county": "Jefferson", "lat": 38.146237, "long": -85.587686, "register_online_url": "https://www.kroger.com/rx/covid-eligibility", "address": {"street1": "6900 Bardstown Road", "city": "Louisville", "state": "KY", "zip": "40291"}}
{"id": "471", "name": "Kroger Pharmacy - Hillview (02400366)", "county": "Jefferson", "lat": 38.092788, "long": -85.669275, "register_online_url": "https://www.kroger.com/rx/covid-eligibility", "address": {"street1": "500 Mud Lane", "city": "Louisville", "state": "KY", "zip": "40229"}}
{"id": "477", "name": "Kroger Pharmacy - Valley Commons (02400780)", "county": "Jefferson", "lat": 38.098695, "long": -85.869917, "register_online_url": "https://www.kroger.com/rx/covid-eligibility", "address": {"street1": "10645 Dixie Highway", "city": "Louisville", "state": "KY", "zip": "40272"}}
{"id": "482", "name": "Kroger Pharmacy - Westport Rd (02400764)", "county": "Jefferson", "lat": 38.288461, "long": -85.5744, "register_online_url": "https://www.kroger.com/rx/covid-eligibility", "address": {"street1": "9501 Westport Road", "city": "Louisville", "state": "KY", "zip": "40241"}}
{"id": "485", "name": "Kroger Pharmacy - Germantown Square (02400753)", "county": "Jefferson", "lat": 38.226034, "long": -85.730048, "register_online_url": "https://www.kroger.com/rx/covid-eligibility", "address": {"street1": "1265 Goss Avenue", "city": "Louisville", "state": "KY", "zip": "40217"}}
{"id": "486", "name": "Kroger Pharmacy - Central Station (02400752)", "county": "Jefferson", "lat": 38.202508, "long": -85.761487, "register_online_url": "https://www.kroger.com/rx/covid-eligibility", "address": {"street1": "3165 S 2nd Street", "city": "Louisville", "state": "KY", "zip": "40208"}}
{"id": "487", "name": "Kroger Pharmacy - Tyler Center (02400743)", "county": "Jefferson", "lat": 38.188795, "long": -85.51904, "register_online_url": "https://www.kroger.com/rx/covid-eligibility", "address": {"street1": "12611 Taylorsville Road", "city": "Louisville", "state": "KY", "zip": "40299"}}
{"id": "488", "name": "Kroger Pharmacy - Forest Springs (02400739)", "county": "Jefferson", "lat": 38.290579, "long": -85.508864, "register_online_url": "https://www.kroger.com/rx/covid-eligibility", "address": {"street1": "12450 LaGrange Road", "city": "Louisville", "state": "KY", "zip": "40245"}}
{"id": "495", "name": "Kroger Pharmacy - Springhurst (02400707)", "county": "Jefferson", "lat": 38.305669, "long": -85.575137, "register_online_url": "https://www.kroger.com/rx/covid-eligibility", "address": {"street1": "9440 Brownsboro Road", "city": "Louisville", "state": "KY", "zip": "40241"}}
{"id": "512", "name": "Walmart #4450", "county": "Jefferson", "lat": 38.199337, "long": -85.66775, "register_online_url": "https://www.walmart.com/covidvaccine", "address": {"street1": "2020 Bashford Manor Lane", "city": "Louisville", "state": "KY", "zip": "40218"}}
{"id": "521", "name": "Walmart #4450", "county": "Jefferson", "lat": 38.242962, "long": -85.511861, "register_online_url": "https://www.walmart.com/covidvaccine", "address": {"street1": "12983 Shelbyville Rd", "city": "Louisville", "state": "KY", "zip": "40243"}}
{"id": "528", "name": "Walmart #5417", "county": "Jefferson", "lat": 38.128788, "long": -85.779987, "register_online_url": "https://www.walmart.com/covidvaccine", "address": {"street1": "175 Outer Loop", "city": "Louisville", "state": "KY", "zip": "40214"}}
{"id": "530", "name": "Walmart #3610", "county": "Jefferson", "lat": 38.171664, "long": -85.870282, "register_online_url": "https://www.walmart.com/covidvaccine", "address": {"street1": "7100 Raggard Rd", "city": "Louisville", "state": "KY", "zip": "40216"}}
{"id": "551", "name": "Kroger Pharmacy - Festival on the Court (02400376)", "county": "Jefferson", "lat": 38.139778, "long": -85.679367, "register_online_url": "https://www.kroger.com/rx/covid-eligibility", "address": {"street1": "4501 Outer Loop", "city": "Louisville", "state": "KY", "zip": "40219"}}
{"id": "552", "name": "Kroger Pharmacy - Stonybrook  (02400379)", "county": "Jefferson", "lat": 38.21293, "long": -85.592257, "register_online_url": "https://www.kroger.com/rx/covid-eligibility", "address": {"street1": "9080 Taylorsville Road", "city": "Louisville", "state": "KY", "zip": "40299"}}
{"id": "554", "name": "Kroger Pharmacy - Woodlawn (02400387)", "county": "Jefferson", "lat": 38.259147, "long": -85.636919, "register_online_url": "https://www.kroger.com/rx/covid-eligibility", "address": {"street1": "291 N Hubbards Lane, Suite 130", "city": "Louisville", "state": "KY", "zip": "40207"}}
{"id": "555", "name": "Kroger Pharmacy - Prospect Village (02400389)", "county": "Jefferson", "lat": 38.340231, "long": -85.621472, "register_online_url": "https://www.kroger.com/rx/covid-eligibility", "address": {"street1": "5929 Timber Ridge Drive", "city": "Prospect", "state": "KY", "zip": "40059"}}
{"id": "558", "name": "Kroger Pharmacy - Poplar Level (02400400)", "county": "Jefferson", "lat": 38.201978, "long": -85.707914, "register_online_url": "https://www.kroger.com/rx/covid-eligibility", "address": {"street1": "4009 Poplar Level Road", "city": "Louisville", "state": "KY", "zip": "40213"}}
{"id": "180", "name": "Kroger Louisville", "county": "Jefferson\u00c2\u00a0", "lat": 38.150602, "long": -85.884885, "register_online_url": "https://www.kroger.com/rx/covid-eligibility", "address": {"street1": "520 N 35th Street", "city": "Louisville", "state": "KY", "zip": "40212"}}
{"id": "131", "name": "Walgreens Pharmacy", "county": "Jessamine", "lat": 37.894986, "long": -84.566844, "register_online_url": "https://www.walgreens.com/findcare/vaccination/covid-19?ban=covid_vaccine_landing_schedule", "address": {"street1": "901 N MAIN ST", "city": "Nicholasville", "state": "KY", "zip": "40356"}}
{"id": "145", "name": "Walgreens Pharmacy", "county": "Jessamine", "lat": 37.901785, "long": -84.653463, "register_online_url": "https://www.walgreens.com/findcare/vaccination/covid-19?ban=covid_vaccine_landing_schedule", "address": {"street1": "1401 KEENE ROAD", "city": "Nicholasville", "state": "KY", "zip": "40356"}}
{"id": "209", "name": "Kroger", "county": "Jessamine", "lat": 37.86584, "long": -84.58068, "register_online_url": "https://www.kroger.com/rx/covid-eligibility", "address": {"street1": "995 S Main St", "city": "Nicholasville", "state": "KY", "zip": "40356"}}
{"id": "419", "name": "Kroger Pharmacy - Brannon Crossing (02400766)", "county": "Jessamine", "lat": 37.954794, "long": -84.536165, "register_online_url": "https://www.kroger.com/rx/covid-eligibility", "register_phone": "tel:859-971-4303", "address": {"street1": "200 E Brannon", "city": "Nicholasville", "state": "KY", "zip": "40356"}}
{"id": "426", "name": "Kroger Pharmacy Nicholasville (02400713)", "county": "Jessamine", "lat": 37.86546, "long": -84.581023, "register_online_url": "https://www.kroger.com/rx/covid-eligibility", "register_phone": "tel:859-881-9086", "address": {"street1": "995 S Main Street", "city": "Nicholasville", "state": "KY", "zip": "40356"}}
{"id": "494", "name": "Kroger Pharmacy - Bellerive Plaza (02400708)", "county": "Jessamine", "lat": 37.984392, "long": -84.589356, "register_online_url": "https://www.kroger.com/rx/covid-eligibility", "address": {"street1": "170 Bellerive Blvd", "city": "Nicholasville", "state": "KY", "zip": "40356"}}
{"id": "164", "name": "Walmart Supercenter", "county": "Johnson", "lat": 37.818145, "long": -82.815744, "register_online_url": "https://www.walmart.com/cp/1228307", "address": {"street1": "470 NO. MAYO TRAIL", "city": "Paintsville", "state": "KY", "zip": "41240"}}
{"id": "236", "name": "Walgreens Pharmacy", "county": "Johnson", "lat": 37.809169, "long": -82.802068, "register_online_url": "https://www.walgreens.com/findcare/vaccination/covid-19?ban=covid_vaccine_landing_schedule", "address": {"street1": "308 S MAYO TRL", "city": "Paintsville", "state": "KY", "zip": "41240"}}
{"id": "224", "name": "Walgreens Pharmacy", "county": "Kenton", "lat": 39.0773939, "long": -84.5084347, "register_online_url": "https://www.walgreens.com/findcare/vaccination/covid-19?ban=covid_vaccine_landing_schedule", "address": {"street1": "1220 MADISON AVE", "city": "Covington", "state": "KY", "zip": "41011"}}
{"id": "273", "name": "Walgreens Pharmacy", "county": "Kenton", "lat": 39.020879, "long": -84.589958, "register_online_url": "https://www.walgreens.com/findcare/vaccination/covid-19?ban=covid_vaccine_landing_schedule", "address": {"street1": "3104 DIXIE HWY", "city": "Erlanger", "state": "KY", "zip": "41018"}}
{"id": "274", "name": "Walgreens Pharmacy", "county": "Kenton", "lat": 38.9304422, "long": -84.5426308, "register_online_url": "https://www.walgreens.com/findcare/vaccination/covid-19?ban=covid_vaccine_landing_schedule", "address": {"street1": "2005 CENTENNIAL BLVD", "city": "Independence", "state": "KY", "zip": "41051"}}
{"id": "285", "name": "Walgreens Pharmacy", "county": "Kenton", "lat": 39.051946, "long": -84.577241, "register_online_url": "https://www.walgreens.com/findcare/vaccination/covid-19?ban=covid_vaccine_landing_schedule", "address": {"street1": "606 BUTTERMILK PIKE", "city": "Crescent Springs", "state": "KY", "zip": "41017"}}
{"id": "291", "name": "Walgreens Pharmacy", "county": "Kenton", "lat": 39.0415144, "long": -84.5065901, "register_online_url": "https://www.walgreens.com/findcare/vaccination/covid-19?ban=covid_vaccine_landing_schedule", "address": {"street1": "4299 WINSTON AVE", "city": "Covington", "state": "KY", "zip": "41015"}}
{"id": "297", "name": "Walgreens Pharmacy", "county": "Kenton", "lat": 39.059175, "long": -84.541123, "register_online_url": "https://www.walgreens.com/findcare/vaccination/covid-19?ban=covid_vaccine_landing_schedule", "address": {"street1": "1825 DIXIE HWY", "city": "Ft Wright", "state": "KY", "zip": "41011"}}
{"id": "312", "name": "Walmart Supercenter", "county": "Kenton", "lat": 39.0361571, "long": -84.5364443, "register_online_url": "https://www.walmart.com/cp/1228309", "address": {"street1": "3450 VALLEY PLAZA PKWY", "city": "Ft Wright", "state": "KY", "zip": "41017"}}
{"id": "340", "name": "Nie's Pharmacy & Wellness Center", "county": "Kenton", "lat": 38.911065, "long": -84.545271, "register_phone": "tel:859-356-3941", "address": {"street1": "11745 Madison Pike", "city": "INDEPENDENCE", "state": "KY", "zip": "41051"}}
{"id": "410", "name": "Kroger Pharmacy - Erlanger (01400901)", "county": "Kenton", "lat": 39.02133, "long": -84.593915, "register_online_url": "https://www.kroger.com/rx/covid-eligibility", "register_phone": "tel:859-344-0434", "address": {"street1": "3158 Dixie Highway", "city": "Erlanger", "state": "KY", "zip": "41018"}}
{"id": "499", "name": "Kroger Pharmacy - Ft Mitchell (01400477)", "county": "Kenton", "lat": 39.048603, "long": -84.553111, "register_online_url": "https://www.kroger.com/rx/covid-eligibility", "address": {"street1": "2150 Dixie Highway", "city": "Ft Mitchell", "state": "KY", "zip": "41017"}}
{"id": "500", "name": "Kroger Pharmacy - Independence (01400475)", "county": "Kenton", "lat": 38.930174, "long": -84.548576, "register_online_url": "https://www.kroger.com/rx/covid-eligibility", "address": {"street1": "1700 Declaration Drive", "city": "Independence", "state": "KY", "zip": "41051"}}
{"id": "527", "name": "Walmart #2967", "county": "Kenton", "lat": 39.035283, "long": -84.536224, "register_online_url": "https://www.walmart.com/covidvaccine", "address": {"street1": "3450 Valley Plaza Pkwy", "city": "Ft Wright", "state": "KY", "zip": "41017"}}
{"id": "553", "name": "Kroger Pharmacy - 15th Madison (01400381)", "county": "Kenton", "lat": 39.072845, "long": -84.508477, "register_online_url": "https://www.kroger.com/rx/covid-eligibility", "address": {"street1": "1525 Madison Avenue", "city": "Covington", "state": "KY", "zip": "41011"}}
{"id": "556", "name": "Kroger Pharmacy - Latonia  (01400392)", "county": "Kenton", "lat": 39.04079, "long": -84.507546, "register_online_url": "https://www.kroger.com/rx/covid-eligibility", "address": {"street1": "4303 Winston Avenue", "city": "Latonia", "state": "KY", "zip": "41015"}}
{"id": "15", "name": "St Elizabeth Training & Education Center", "county": "Kenton", "lat": 39.054437, "long": -84.633939, "register_online_url": "https://www.stelizabeth.com/get-vaccinated", "address": {"street1": "3861 Olympic Blvd", "city": "Erlanger", "state": "KY", "zip": "41018"}}
{"id": "44", "name": "Northern Kentucky Convention Center", "county": "Kenton", "lat": 39.089064, "long": -84.512396, "register_online_url": "https://www.kroger.com/rx/covid-eligibility", "register_phone": "tel:866-211-5320", "address": {"street1": "1 W Rivercenter Boulevard", "city": "Covington", "state": "KY", "zip": "41011"}}
{"id": "261", "name": "Walgreens Pharmacy", "county": "Knott", "lat": 37.313997, "long": -82.941986, "register_online_url": "https://www.walgreens.com/findcare/vaccination/covid-19?ban=covid_vaccine_landing_schedule", "address": {"street1": "100 HOLLY HILLS MALL", "city": "Hindman", "state": "KY", "zip": "41822"}}
{"id": "364", "name": "UK June Buchanan Medical Clinic", "county": "Knott", "lat": 37.329971, "long": -82.988237, "register_phone": "tel:606-785-3175", "address": {"street1": "59 Cowtown Road", "city": "Hindman", "state": "KY", "zip": "41822"}}
{"id": "240", "name": "Walgreens Pharmacy", "county": "Knox", "lat": 36.8101, "long": -83.8949, "register_online_url": "https://www.walgreens.com/findcare/vaccination/covid-19?ban=covid_vaccine_landing_schedule", "address": {"street1": "1121 S US HIGHWAY 25E", "city": "Barbourville", "state": "KY", "zip": "40906"}}
{"id": "19", "name": "Barbourville ARH Hospital", "county": "Knox", "lat": 36.851231, "long": -83.870192, "register_phone": "tel:855-274-2273", "address": {"street1": "80 Hospital Drive", "city": "Barbourville", "state": "KY", "zip": "40906"}}
{"id": "97", "name": "Walgreens Pharmacy", "county": "Knox", "lat": 36.85738, "long": -83.73988, "register_online_url": "https://www.walgreens.com/findcare/vaccination/covid-19?ban=covid_vaccine_landing_schedule", "address": {"street1": "14659 N US HWY 25 E", "city": "CORBIN", "state": "KY", "zip": "40701"}}
{"id": "483", "name": "Kroger Pharmacy - Parkway (02400760)", "county": "Knox", "lat": 36.956628, "long": -84.069044, "register_online_url": "https://www.kroger.com/rx/covid-eligibility", "address": {"street1": "14889 N US Highway 25E Suite A", "city": "Corbin", "state": "KY", "zip": "40701"}}
{"id": "235", "name": "Walgreens Pharmacy", "county": "Larue", "lat": 37.5783004, "long": -85.7387969, "register_online_url": "https://www.walgreens.com/findcare/vaccination/covid-19?ban=covid_vaccine_landing_schedule", "address": {"street1": "415 NORTH LINCOLN BOULEVARD", "city": "Hodgenville", "state": "KY", "zip": "42748"}}
{"id": "376", "name": "Laurel County Health Department", "county": "Laurel", "lat": 37.113398, "long": -84.085425, "register_phone": "tel:606-878-7754", "address": {"street1": "525 Whitley Street", "city": "London", "state": "KY", "zip": "40741"}}
{"id": "436", "name": "Thompson Drug Saddlebrook", "county": "Laurel", "lat": 37.103658, "long": -84.108075, "register_phone": "tel:606-862-6261", "address": {"street1": "575 West Laurel Road", "city": "London", "state": "KY", "zip": "40741"}}
{"id": "509", "name": "Walmart #1259", "county": "Laurel", "lat": 36.972397, "long": -84.102723, "register_online_url": "https://www.walmart.com/covidvaccine", "address": {"street1": "60 S STEWART RD", "city": "Corbin", "state": "KY", "zip": "40701"}}
{"id": "73", "name": "Kroger ", "county": "Laurel", "lat": 37.108057, "long": -84.087865, "register_online_url": "https://www.kroger.com/rx/covid-eligibility", "address": {"street1": "1732 West Highway 192", "city": "London", "state": "KY", "zip": "40741"}}
{"id": "130", "name": "Walgreens Pharmacy", "county": "Laurel", "lat": 37.140765, "long": -84.22133, "register_online_url": "https://www.walgreens.com/findcare/vaccination/covid-19?ban=covid_vaccine_landing_schedule", "address": {"street1": "1775 HIGHWAY 192 W", "city": "London", "state": "KY", "zip": "40741"}}
{"id": "159", "name": "Walmart Supercenter", "county": "Laurel", "lat": 36.994255, "long": -84.203527, "register_online_url": "https://www.walmart.com/cp/1228302", "address": {"street1": "60 S STEWART RD", "city": "Corbin", "state": "KY", "zip": "40701"}}
{"id": "49", "name": "Lawrence County Community Center", "county": "Lawrence", "lat": 38.095703, "long": -82.605571, "register_online_url": "https://COVID19Vaccine.as.me/", "register_phone": "tel:606-638-4389", "address": {"street1": "205 Bulldog Lane", "city": "Louisa", "state": "KY", "zip": "41230"}}
{"id": "248", "name": "Walgreens Pharmacy", "county": "Lawrence", "lat": 38.1043, "long": -82.6056, "register_online_url": "https://www.walgreens.com/findcare/vaccination/covid-19?ban=covid_vaccine_landing_schedule", "address": {"street1": "4311 HIGHWAY 2565", "city": "Louisa", "state": "KY", "zip": "41230"}}
{"id": "402", "name": "Lawrence County Health Department", "county": "Lawrence", "lat": 38.093553, "long": -82.600292, "register_online_url": "https://COVID19Vaccine.as.me/", "register_phone": "tel:606-638-4389", "address": {"street1": "1080   Meadowbrook Lane", "city": "Louisa", "state": "KY", "zip": "41230"}}
{"id": "264", "name": "Walgreens Pharmacy", "county": "Lee", "lat": 37.582062, "long": -83.7012176, "register_online_url": "https://www.walgreens.com/findcare/vaccination/covid-19?ban=covid_vaccine_landing_schedule", "address": {"street1": "31 BIG HILL DRIVE", "city": "Beattyville", "state": "KY", "zip": "41311"}}
{"id": "267", "name": "Walgreens Pharmacy", "county": "Leslie", "lat": 37.155191, "long": -83.371256, "register_online_url": "https://www.walgreens.com/findcare/vaccination/covid-19?ban=covid_vaccine_landing_schedule", "address": {"street1": "21287 HIGHWAY 421", "city": "Hyden", "state": "KY", "zip": "41749"}}
{"id": "22", "name": "Mary Breckinridge ARH Hospital", "county": "Leslie", "lat": 37.163887, "long": -83.378705, "register_phone": "tel:855-274-2273", "address": {"street1": "130 Kate Ireland Drive", "city": "Hyden", "state": "KY", "zip": "41749"}}
{"id": "27", "name": "Whitesburg ARH Hospital", "county": "Letcher", "lat": 37.11291, "long": -82.812641, "register_phone": "tel:855-274-2273", "address": {"street1": "240 Hospital Road", "city": "Whitesburg", "state": "KY", "zip": "41858"}}
{"id": "265", "name": "Walgreens Pharmacy", "county": "Letcher", "lat": 37.172484, "long": -82.632853, "register_online_url": "https://www.walgreens.com/findcare/vaccination/covid-19?ban=covid_vaccine_landing_schedule", "address": {"street1": "9485 HIGHWAY 805", "city": "Jenkins", "state": "KY", "zip": "41537"}}
{"id": "566", "name": "MCHC Whitesburg Medical/Dental Clinic", "county": "Letcher", "lat": 37.123433, "long": -82.842245, "register_phone": "tel:606-633-4871", "address": {"street1": "226 Medical Plaza Lane", "city": "Whitesburg", "state": "KY", "zip": "41858"}}
{"id": "535", "name": "Walmart #825", "county": "Lincoln", "lat": 37.547822, "long": -84.646931, "register_online_url": "https://www.walmart.com/covidvaccine", "address": {"street1": "1283 US Highway 27 N", "city": "Stanford", "state": "KY", "zip": "40484"}}
{"id": "199", "name": "Walmart Supercenter", "county": "Lincoln", "lat": 37.54782, "long": -84.64697, "register_online_url": "https://www.walmart.com/cp/1228327", "address": {"street1": "1283 US Highway 27 N", "city": "Stanford", "state": "KY", "zip": "40484"}}
{"id": "221", "name": "Walgreens Pharmacy", "county": "Lincoln", "lat": 37.5245, "long": -84.6912, "register_online_url": "https://www.walgreens.com/findcare/vaccination/covid-19?ban=covid_vaccine_landing_schedule", "address": {"street1": "1261 NORTH HIGHWAY 27", "city": "Stanford", "state": "KY", "zip": "40484"}}
{"id": "188", "name": "Walmart Supercenter", "county": "Logan", "lat": 36.84664, "long": -86.91856, "register_online_url": "https://www.walmart.com/cp/1228316", "address": {"street1": "120 SAM WALTON DR", "city": "Russellville", "state": "KY", "zip": "42276"}}
{"id": "544", "name": "Walmart #736", "county": "Logan", "lat": 36.845912, "long": -86.916865, "register_online_url": "https://www.walmart.com/covidvaccine", "address": {"street1": "120 Sam Walton Dr", "city": "Russellville", "state": "KY", "zip": "42276"}}
{"id": "343", "name": "Riley White Drugs", "county": "Logan", "lat": 36.845915, "long": -86.88801, "register_phone": "tel:270-726-7626", "address": {"street1": "153 Park Square N.W.", "city": "Russellville", "state": "KY", "zip": "42276"}}
{"id": "332", "name": "Lyon Drug Sore", "county": "Lyon", "lat": 37.089734, "long": -88.086103, "register_online_url": "https://www.lyondrugstore.com", "register_phone": "tel:270-388-2236", "address": {"street1": "201 W Main St", "city": "Eddyville", "state": "KY", "zip": "42038"}}
{"id": "321", "name": "Kroger", "county": "Madison", "lat": 37.75419, "long": -84.274938, "register_online_url": "https://www.kroger.com/rx/covid-eligibility", "address": {"street1": "890 RICHMOND PLZ", "city": "Richmond", "state": "KY", "zip": "40475"}}
{"id": "334", "name": "Med Save Berea", "county": "Madison", "lat": 37.569494, "long": -84.310489, "register_phone": "tel:859-985-7283", "address": {"street1": "102 Prince Royal Drive   Suite 2", "city": "Berea", "state": "KY", "zip": "40403"}}
{"id": "363", "name": "Baptist Health Richmond at Eastern Kentucky University Perkins Building", "county": "Madison", "lat": 37.730836, "long": -84.30208, "register_online_url": "https://www.scheduleyourvaccine.com", "register_phone": "tel:859-624-3131", "address": {"street1": "4436 Kit Carson Dr.", "city": "Richmond", "state": "KY", "zip": "40475"}}
{"id": "428", "name": "Kroger Pharmacy Richmond (02400705)", "county": "Madison", "lat": 37.731105, "long": -84.274633, "register_online_url": "https://www.kroger.com/rx/covid-eligibility", "register_phone": "tel:859-624-1093", "address": {"street1": "890 Richmond Plaza", "city": "Richmond", "state": "KY", "zip": "40475"}}
{"id": "78", "name": "Walgreens Pharmacy", "county": "Madison", "lat": 37.733955, "long": -84.276864, "register_online_url": "https://www.walgreens.com/findcare/vaccination/covid-19?ban=covid_vaccine_landing_schedule", "address": {"street1": "501 CAPERTON DR", "city": "Richmond", "state": "KY", "zip": "40475"}}
{"id": "102", "name": "Walgreens Pharmacy", "county": "Madison", "lat": 37.736249, "long": -84.306247, "register_online_url": "https://www.walgreens.com/findcare/vaccination/covid-19?ban=covid_vaccine_landing_schedule", "address": {"street1": "654 UNIVERSITY SHOPPING CENTER", "city": "Richmond", "state": "KY", "zip": "40475"}}
{"id": "104", "name": "Walgreens Pharmacy", "county": "Madison", "lat": 37.585694, "long": -84.283898, "register_online_url": "https://www.walgreens.com/findcare/vaccination/covid-19?ban=covid_vaccine_landing_schedule", "address": {"street1": "220 RICHMOND RD N", "city": "Berea", "state": "KY", "zip": "40403"}}
{"id": "166", "name": "Walmart Supercenter", "county": "Madison", "lat": 37.761238, "long": -84.3535, "register_online_url": "https://www.walmart.com/cp/1228309", "address": {"street1": "820 EASTERN BYP", "city": "Richmond", "state": "KY", "zip": "40475"}}
{"id": "167", "name": "Walmart Supercenter", "county": "Madison", "lat": 37.767265, "long": -84.430634, "register_online_url": "https://www.walmart.com/cp/1228310", "address": {"street1": "120 JILL DR", "city": "Berea", "state": "KY", "zip": "40403"}}
{"id": "215", "name": "Walgreens Pharmacy", "county": "Madison", "lat": 36.84401, "long": -86.8916, "register_online_url": "https://www.walgreens.com/findcare/vaccination/covid-19?ban=covid_vaccine_landing_schedule", "address": {"street1": "485 W 4TH ST", "city": "Russellville", "state": "KY", "zip": "42276"}}
{"id": "266", "name": "Walgreens Pharmacy", "county": "Magoffin", "lat": 37.744247, "long": -83.054873, "register_online_url": "https://www.walgreens.com/findcare/vaccination/covid-19?ban=covid_vaccine_landing_schedule", "address": {"street1": "308 PARKWAY DR", "city": "Salyersville", "state": "KY", "zip": "41465"}}
{"id": "401", "name": "Pat's Pharmacy", "county": "Marion", "lat": 37.565204, "long": -85.261526, "register_phone": "tel:270-692-4950", "address": {"street1": "498 West Main St", "city": "Lebanon", "state": "KY", "zip": "40033"}}
{"id": "422", "name": "Kroger Pharmacy Lebanon (0240730)", "county": "Marion", "lat": 37.576715, "long": -85.233976, "register_online_url": "https://www.kroger.com/rx/covid-eligibility", "register_phone": "tel:270-692-2123", "address": {"street1": "705 E Main Street", "city": "Lebanon", "state": "KY", "zip": "40033"}}
{"id": "113", "name": "Walgreens Pharmacy", "county": "Marion", "lat": 37.565256, "long": -85.262356, "register_online_url": "https://www.walgreens.com/findcare/vaccination/covid-19?ban=covid_vaccine_landing_schedule", "address": {"street1": "512 W MAIN ST", "city": "Lebanon", "state": "KY", "zip": "40033"}}
{"id": "202", "name": "Walmart Supercenter", "county": "Marion", "lat": 37.50848, "long": -85.26057, "register_online_url": "https://www.walmart.com/cp/1228330", "address": {"street1": "2136 Campbellsville Rd", "city": "Calvary", "state": "KY", "zip": "40033"}}
{"id": "538", "name": "Walmart #1675", "county": "Marion", "lat": 37.553515, "long": -85.284377, "register_online_url": "https://www.walmart.com/covidvaccine", "address": {"street1": "2136 Campbellsville Rd", "city": "Lebanon", "state": "KY", "zip": "40033"}}
{"id": "564", "name": "Family & Internal Medicine Associates", "county": "Marion", "lat": 37.570119, "long": -85.259868, "register_phone": "tel:270-699-9500", "address": {"street1": "325 W Walnut St", "city": "Lebanon", "state": "KY", "zip": "40033"}}
{"id": "525", "name": "Walmart #143", "county": "Marshall", "lat": 36.869274, "long": -88.360438, "register_online_url": "https://www.walmart.com/covidvaccine", "address": {"street1": "310 W 5th St", "city": "Benton", "state": "KY", "zip": "42025"}}
{"id": "310", "name": "Walmart Supercenter", "county": "Marshall", "lat": 36.869686, "long": -88.3604105, "register_online_url": "https://www.walmart.com/cp/1228307", "address": {"street1": "310 W 5TH ST", "city": "Benton", "state": "KY", "zip": "42025"}}
{"id": "326", "name": "Kentucky Dam Village, Convention Center", "county": "Marshall", "lat": 36.99766, "long": -88.28975, "register_online_url": "https://kyvax.com/kydam", "register_phone": "tel:859-217-4679", "address": {"street1": "113 Administration Drive", "city": "Calvert City", "state": "KY", "zip": "42029"}}
{"id": "336", "name": "Marshall County Hospital", "county": "Marshall", "lat": 36.868388, "long": -88.368684, "register_online_url": "https://marshallcountyhospital.net", "register_phone": "tel:270-527-4850", "address": {"street1": "615 Old Symsonia Road", "city": "benton", "state": "KY", "zip": "42025"}}
{"id": "263", "name": "Walgreens Pharmacy", "county": "Martin", "lat": 37.83981, "long": -82.436985, "register_online_url": "https://www.walgreens.com/findcare/vaccination/covid-19?ban=covid_vaccine_landing_schedule", "address": {"street1": "9145 BEAUTY ROAD", "city": "Warfield", "state": "KY", "zip": "41267"}}
{"id": "331", "name": "Martin County Health Department", "county": "Martin", "lat": 37.869761, "long": -82.542244, "register_phone": "tel:606-298-7752", "address": {"street1": "136 Rockcastle Road", "city": "Inez", "state": "KY", "zip": "41224"}}
{"id": "385", "name": "Buffalo Trace District Health Department", "county": "Mason", "lat": 38.645984, "long": -83.760909, "register_online_url": "https://www.buffalotracehealth.com", "register_phone": "tel:606-564-9447", "address": {"street1": "130 East Second Street", "city": "Maysville", "state": "KY", "zip": "41056"}}
{"id": "398", "name": "Kroger Pharmacy - Maysville (01400420)", "county": "Mason", "lat": 38.625531, "long": -83.790823, "register_online_url": "https://www.kroger.com/rx/covid-eligibility", "register_phone": "tel:606-759-7973", "address": {"street1": "381 Market Square Drive", "city": "Maysville", "state": "KY", "zip": "41056"}}
{"id": "519", "name": "Walmart #1569", "county": "Mason", "lat": 38.621607, "long": -83.787688, "register_online_url": "https://www.walmart.com/covidvaccine", "address": {"street1": "240 Wal Mart Way", "city": "Maysville", "state": "KY", "zip": "41056"}}
{"id": "55", "name": "Buffalo Trace District Health Department", "county": "Mason", "lat": 38.645984, "long": -83.760909, "register_online_url": "http://www.buffalotracehealth.com", "register_phone": "tel:606-564-9447 ext. 141", "address": {"street1": "130 East Second Street", "city": "Maysville", "state": "KY", "zip": "41056"}}
{"id": "100", "name": "Walgreens Pharmacy", "county": "Mason", "lat": 38.638278, "long": -83.786317, "register_online_url": "https://www.walgreens.com/findcare/vaccination/covid-19?ban=covid_vaccine_landing_schedule", "address": {"street1": "1160 US HIGHWAY 68", "city": "Maysville", "state": "KY", "zip": "41056"}}
{"id": "154", "name": "Kroger Maysville", "county": "Mason", "lat": 38.625853, "long": -83.791742, "register_online_url": "https://www.kroger.com/rx/covid-eligibility", "address": {"street1": "381 Market Square Drive", "city": "Maysville", "state": "KY", "zip": "41056"}}
{"id": "40", "name": "Mercy Health - Paducah Medical Pavilion", "county": "McCracken", "lat": 37.054107, "long": -88.64402, "register_online_url": "https://www.mercy.com/mercy-health-monitoring-coronavirus-covid-19/covid-19-vaccine/kentucky", "register_phone": "tel:(866) 624-0366 ", "address": {"street1": "225 Medical Center Dr.", "city": "Paducah", "state": "KY", "zip": "42003"}}
{"id": "42", "name": "Baptist Health Paducah", "county": "McCracken", "lat": 37.073589, "long": -88.62668, "register_online_url": "https://www.scheduleyourvaccine.com", "address": {"street1": "2501 Kentucky Ave", "city": "Paducah", "state": "KY", "zip": "42003"}}
{"id": "79", "name": "Walgreens Pharmacy", "county": "McCracken", "lat": 37.083529, "long": -88.53864, "register_online_url": "https://www.walgreens.com/findcare/vaccination/covid-19?ban=covid_vaccine_landing_schedule", "address": {"street1": "521 LONE OAK RD", "city": "Paducah", "state": "KY", "zip": "42003"}}
{"id": "152", "name": "Walgreens Pharmacy", "county": "McCracken", "lat": 37.069778, "long": -88.726008, "register_online_url": "https://www.walgreens.com/findcare/vaccination/covid-19?ban=covid_vaccine_landing_schedule", "address": {"street1": "3360 IRVIN COBB DR", "city": "Paducah", "state": "KY", "zip": "42003"}}
{"id": "157", "name": "Kroger Paducah", "county": "McCracken", "lat": 37.05371, "long": -88.5406612, "register_online_url": "https://www.kroger.com/rx/covid-eligibility", "address": {"street1": "3141 Park Avenue", "city": "Paducah", "state": "KY", "zip": "42001"}}
{"id": "165", "name": "Walmart Supercenter", "county": "McCracken", "lat": 37.154174, "long": -88.866456, "register_online_url": "https://www.walmart.com/cp/1228308", "address": {"street1": "3220 IRVIN COBB DR", "city": "Paducah", "state": "KY", "zip": "42003"}}
{"id": "378", "name": "MCCRACKEN COUNTY HEALTH DEPT", "county": "McCracken", "lat": 37.082822, "long": -88.604226, "register_online_url": "https://www.PURCHASEHEALTH.ORG", "register_phone": "tel:270-444-9631", "address": {"street1": "916 Kentucky Ave", "city": "Paducah", "state": "KY", "zip": "42003"}}
{"id": "407", "name": "Purchase District Health Department at Julian Carroll Convention Center", "county": "McCracken", "lat": 37.091662, "long": -88.60164, "register_online_url": "https://app.acuityscheduling.com/schedule.php?owner=21724745&appointmentType=20738518", "register_phone": "tel:270-444-5170", "address": {"street1": "415 Park Ave", "city": "Paducah", "state": "KY", "zip": "42003"}}
{"id": "442", "name": "Mercy Health Lourdes", "county": "McCracken", "lat": 37.054107, "long": -88.64402, "register_online_url": "https://www.mercy.com/mercy-health-monitoring-coronavirus-covid-19/covid-19-vaccine/kentucky", "register_phone": "tel:866-624-0366", "address": {"street1": "225 Medical Center Drive", "city": "Paducah", "state": "KY", "zip": "42003"}}
{"id": "506", "name": "Kroger Pharmacy - Paducah (02500414)", "county": "McCracken", "lat": 37.085943, "long": -88.646247, "register_online_url": "https://www.kroger.com/rx/covid-eligibility", "address": {"street1": "3141 Park Avenue", "city": "Paducah", "state": "KY", "zip": "42001"}}
{"id": "114", "name": "Walgreens Pharmacy", "county": "McCreary", "lat": 36.729549, "long": -84.469251, "register_online_url": "https://www.walgreens.com/findcare/vaccination/covid-19?ban=covid_vaccine_landing_schedule", "address": {"street1": "500 N HIGHWAY 27", "city": "Whitley City", "state": "KY", "zip": "42653"}}
{"id": "318", "name": "Kroger", "county": "McCreary", "lat": 36.760196, "long": -84.572058, "register_online_url": "https://www.kroger.com/rx/covid-eligibility", "address": {"street1": "1187 N. HIGHWAY 27", "city": "Whitley City", "state": "KY", "zip": "42653"}}
{"id": "409", "name": "Kroger Pharmacy - Whitley CIty (02400916)", "county": "McCreary", "lat": 36.739366, "long": -84.474069, "register_online_url": "https://www.kroger.com/rx/covid-eligibility", "register_phone": "tel:606-376-2911", "address": {"street1": "1187 N. Highway 27", "city": "Whitley City", "state": "KY", "zip": "42653"}}
{"id": "262", "name": "Walgreens Pharmacy", "county": "McLean", "lat": 37.536045, "long": -87.258927, "register_online_url": "https://www.walgreens.com/findcare/vaccination/covid-19?ban=covid_vaccine_landing_schedule", "address": {"street1": "115 STATE ROUTE 81 NORTH", "city": "Calhoun", "state": "KY", "zip": "42327"}}
{"id": "349", "name": "Save Rite Drugs, Brandenburg", "county": "Meade", "lat": 37.991588, "long": -86.190331, "register_phone": "tel:270-422-2422", "address": {"street1": "1230 High St", "city": "Brandenburg", "state": "KY", "zip": "40108"}}
{"id": "72", "name": "Kroger", "county": "Meade", "lat": 37.970668, "long": -86.152862, "register_online_url": "https://www.kroger.com/rx/covid-eligibility", "address": {"street1": "568 River Ridge Plaza", "city": "Brandenburg", "state": "KY", "zip": "40108"}}
{"id": "220", "name": "Walgreens Pharmacy", "county": "Meade", "lat": 37.98095, "long": -86.16408, "register_online_url": "https://www.walgreens.com/findcare/vaccination/covid-19?ban=covid_vaccine_landing_schedule", "address": {"street1": "610 BYPASS RD", "city": "Brandenburg", "state": "KY", "zip": "40108"}}
{"id": "190", "name": "Walmart Supercenter", "county": "Mercer", "lat": 37.844161, "long": -84.841402, "register_online_url": "https://www.walmart.com/cp/1228318", "address": {"street1": "591 JOSEPH DR", "city": "Harrodsburg", "state": "KY", "zip": "40330"}}
{"id": "546", "name": "Walmart #519", "county": "Mercer", "lat": 37.742737, "long": -84.844565, "register_online_url": "https://www.walmart.com/covidvaccine", "address": {"street1": "591 Joseph Dr", "city": "Harrodsburg", "state": "KY", "zip": "40330"}}
{"id": "393", "name": "Kroger Pharmacy  - Harrodsburg (02400363)", "county": "Mercer", "lat": 37.746283, "long": -84.843891, "register_online_url": "https://www.kroger.com/rx/covid-eligibility", "register_phone": "tel:859-734-0081", "address": {"street1": "844 S College Street", "city": "Harrodsburg", "state": "KY", "zip": "40330"}}
{"id": "260", "name": "Walgreens Pharmacy", "county": "Metcalfe", "lat": 37.000783, "long": -85.609522, "register_online_url": "https://www.walgreens.com/findcare/vaccination/covid-19?ban=covid_vaccine_landing_schedule", "address": {"street1": "612 WEST STOCKSTON STREET", "city": "Edmonton", "state": "KY", "zip": "42129"}}
{"id": "168", "name": "Walmart Supercenter", "county": "Monroe", "lat": 36.724133, "long": -85.687417, "register_online_url": "https://www.walmart.com/cp/1228311", "address": {"street1": "1650 EDMONTON RD", "city": "Tompkinsville", "state": "KY", "zip": "42167"}}
{"id": "179", "name": "Kroger Mt Sterling", "county": "Montgomery", "lat": 38.061311, "long": -83.955546, "register_online_url": "https://www.kroger.com/rx/covid-eligibility", "address": {"street1": "810 Indian Mound Drive", "city": "Mt Sterling", "state": "KY", "zip": "40353"}}
{"id": "201", "name": "Walmart Supercenter", "county": "Montgomery", "lat": 38.06855, "long": -83.95542, "register_online_url": "https://www.walmart.com/cp/1228329", "address": {"street1": "499 Indian Mound Dr", "city": "Mt Sterling", "state": "KY", "zip": "40353"}}
{"id": "391", "name": "Montgomery County Health Department", "county": "Montgomery", "lat": 38.055164, "long": -83.939814, "register_phone": "tel:859-498-3808", "address": {"street1": "108 East Locust Street", "city": "Mount Sterling", "state": "KY", "zip": "40353"}}
{"id": "537", "name": "Walmart #1140", "county": "Montgomery", "lat": 38.069125, "long": -83.957905, "register_online_url": "https://www.walmart.com/covidvaccine", "address": {"street1": "499 Indian Mound Dr", "city": "Mount Sterling", "state": "KY", "zip": "40353"}}
{"id": "449", "name": "Juniper Health Morgan County", "county": "Morgan", "lat": 37.926228, "long": -83.25823, "register_online_url": "https://bit.ly/jhicovidvaccine2021", "register_phone": "tel:606-743-4808", "address": {"street1": "905 Main St.", "city": "West Liberty", "state": "KY", "zip": "41472"}}
{"id": "25", "name": "Morgan County ARH", "county": "Morgan", "lat": 37.9201, "long": -83.265279, "register_phone": "tel:855-274-2273", "address": {"street1": "476 Liberty Rd", "city": "West Liberty", "state": "KY", "zip": "41472"}}
{"id": "257", "name": "Walgreens Pharmacy", "county": "Morgan", "lat": 37.920006, "long": -83.244368, "register_online_url": "https://www.walgreens.com/findcare/vaccination/covid-19?ban=covid_vaccine_landing_schedule", "address": {"street1": "275 PRESTONBURG ST", "city": "West Liberty", "state": "KY", "zip": "41472"}}
{"id": "63", "name": "Owensboro Health Muhlenberg Community Hospital", "county": "Muhlenberg", "lat": 37.196629, "long": -87.189301, "register_online_url": "https://www.owensborohealth.org/", "register_phone": "tel:270-685-7100 option #6", "address": {"street1": "440 Hopkinsville Street", "city": "Greenville", "state": "KY", "zip": "42345"}}
{"id": "105", "name": "Walgreens Pharmacy", "county": "Muhlenberg", "lat": 37.198701, "long": -87.178101, "register_online_url": "https://www.walgreens.com/findcare/vaccination/covid-19?ban=covid_vaccine_landing_schedule", "address": {"street1": "201 SOUTH MAIN STREET", "city": "Greenville", "state": "KY", "zip": "42345"}}
{"id": "169", "name": "Walmart Supercenter", "county": "Muhlenberg", "lat": 37.255259, "long": -87.111163, "register_online_url": "https://www.walmart.com/cp/1228312", "address": {"street1": "1725 WEST EVERELY BR", "city": "Central City", "state": "KY", "zip": "42330"}}
{"id": "170", "name": "Walmart Supercenter", "county": "Muhlenberg", "lat": 38.396361, "long": -85.373188, "register_online_url": "https://www.walmart.com/cp/1228313", "address": {"street1": "1015 NEW MOODY LN", "city": "La Grange", "state": "KY", "zip": "40031"}}
{"id": "85", "name": "Walgreens Pharmacy", "county": "Nelson", "lat": 37.825112, "long": -85.461675, "register_online_url": "https://www.walgreens.com/findcare/vaccination/covid-19?ban=covid_vaccine_landing_schedule", "address": {"street1": "824 N 3RD ST", "city": "Bardstown", "state": "KY", "zip": "40004"}}
{"id": "189", "name": "Walmart Supercenter", "county": "Nelson", "lat": 37.799974, "long": -85.436759, "register_online_url": "https://www.walmart.com/cp/1228317", "address": {"street1": "3795 E JOHN ROWAN BLVD", "city": "Bardstown", "state": "KY", "zip": "40004"}}
{"id": "545", "name": "Walmart #729", "county": "Nelson", "lat": 37.799963, "long": -85.436581, "register_online_url": "https://www.walmart.com/covidvaccine", "address": {"street1": "3795 E John Rowan Blvd", "city": "Bardstown", "state": "KY", "zip": "40004"}}
{"id": "562", "name": "Kroger Pharmacy - W John Roawn (02400408)", "county": "Nelson", "lat": 37.828613, "long": -85.464659, "register_online_url": "https://www.kroger.com/rx/covid-eligibility", "address": {"street1": "102 W John Rowan Blvd", "city": "Bardstown", "state": "KY", "zip": "40004"}}
{"id": "520", "name": "Walmart #333", "county": "Ohio", "lat": 37.429296, "long": -86.880443, "register_online_url": "https://www.walmart.com/covidvaccine", "address": {"street1": "1701 N Main St", "city": "Beaver Dam", "state": "KY", "zip": "42320"}}
{"id": "565", "name": "Midtown Pharmacy Express", "county": "Ohio", "lat": 37.407058, "long": -86.876002, "register_phone": "tel:270-274-9224", "address": {"street1": "500 N Main St", "city": "Beaver Dam", "state": "KY", "zip": "42320"}}
{"id": "56", "name": "Ohio County HealthCare", "county": "Ohio", "lat": 37.44843, "long": -86.8964, "register_online_url": "https://outlook.office365.com/owa/calendar/OhioCountyHealthcareCOVIDVaccination@ochcares.com/bookings/s/BUn_ZQ3mqEimSnJ0uK_iyQ2", "register_phone": "tel:270-215-9082", "address": {"street1": "1211 Old Main Street", "city": "Hartford", "state": "KY", "zip": "42347"}}
{"id": "305", "name": "Walmart Supercenter", "county": "Ohio", "lat": 37.4197119, "long": -86.8802041, "register_online_url": "https://www.walmart.com/cp/1228302", "address": {"street1": "1701 N MAIN ST", "city": "Bardstown", "state": "KY", "zip": "42320"}}
{"id": "405", "name": "Rice Pharmacy", "county": "Ohio", "lat": 37.417583, "long": -86.87848, "register_online_url": "https://Ricepharmacy.com", "register_phone": "tel:270-274-3318", "address": {"street1": "1209 N Main St", "city": "Beaver Dam", "state": "KY", "zip": "42320"}}
{"id": "329", "name": "Baptist Health La Grange", "county": "Oldham", "lat": 38.396298, "long": -85.372381, "register_online_url": "https://scheduleyourvaccine.com", "register_phone": "tel:555-555-5555", "address": {"street1": "1009 New Moody Lane", "city": "La Grange", "state": "KY", "zip": "40031"}}
{"id": "395", "name": "Kroger Pharmacy - LaGrange (02400394)", "county": "Oldham", "lat": 38.393151, "long": -85.367242, "register_online_url": "https://www.kroger.com/rx/covid-eligibility", "register_phone": "tel:502-222-2028", "address": {"street1": "2034 S highway 53", "city": "LaGrange", "state": "KY", "zip": "40031"}}
{"id": "404", "name": "Med Save LaGrange", "county": "Oldham", "lat": 38.395602, "long": -85.369338, "register_online_url": "https://book-ch.appointment-plus.com/ctt7skcm", "register_phone": "tel:502-465-5500", "address": {"street1": "1000 Cherrywood Place   Suite 100", "city": "LaGrange", "state": "KY", "zip": "40031"}}
{"id": "433", "name": "Oldham County Health Department", "county": "Oldham", "lat": 38.392903, "long": -85.390523, "register_online_url": "https://oldhamcountyhealthdepartment.org/start-here-vaccine-appointment/", "register_phone": "tel:502-222-3516", "address": {"street1": "1786 Commerce Pkwy", "city": "LaGrange", "state": "KY", "zip": "40031"}}
{"id": "66", "name": "Baptist Health La Grange Vaccine Clinic", "county": "Oldham", "lat": 38.39632, "long": -85.37246, "register_online_url": "https://ScheduleYourVaccine.com", "address": {"street1": "1009 New Moody Lane", "city": "La Grange", "state": "KY", "zip": "40031"}}
{"id": "89", "name": "Walgreens Pharmacy", "county": "Oldham", "lat": 38.39773, "long": -85.471109, "register_online_url": "https://www.walgreens.com/findcare/vaccination/covid-19?ban=covid_vaccine_landing_schedule", "address": {"street1": "807 S HIGHWAY 53", "city": "La Grange", "state": "KY", "zip": "40031"}}
{"id": "171", "name": "Walmart Supercenter", "county": "Oldham", "lat": 38.437473, "long": -85.574553, "register_online_url": "https://www.walmart.com/cp/1228314", "address": {"street1": "6501 VETERANS MEMORIAL PARKWAY", "city": "Crestwood", "state": "KY", "zip": "40014"}}
{"id": "176", "name": "Kroger LaGrange", "county": "Oldham", "lat": 38.394137, "long": -85.466084, "register_online_url": "https://www.kroger.com/rx/covid-eligibility", "address": {"street1": "2034 S Highway 53", "city": "LaGrange", "state": "KY", "zip": "40031"}}
{"id": "569", "name": "MCHC Owsley County Medical Clinic", "county": "Owsley", "lat": 37.477727, "long": -83.683973, "register_phone": "tel:606-593-6395", "address": {"street1": "826 KY 11 N", "city": "Booneville", "state": "KY", "zip": "41314"}}
{"id": "567", "name": "MCHC Leatherwood/Blackey Medical Clinic", "county": "Perry", "lat": 37.122137, "long": -83.086702, "register_phone": "tel:606-476-2593", "address": {"street1": "464 KY HWY 699", "city": "Cornettsville", "state": "KY", "zip": "41731"}}
{"id": "568", "name": "MCHC Buckhorn Medical Clinic", "county": "Perry", "lat": 37.346694, "long": -83.46988, "register_phone": "tel:606-398-7141", "address": {"street1": "72 Buckhorn Clinic Rd", "city": "Buckhorn", "state": "KY", "zip": "41721"}}
{"id": "17", "name": "Hazard ARH Regional Medical Center", "county": "Perry", "lat": 37.278196, "long": -83.227797, "register_phone": "tel:855-274-2273", "address": {"street1": "100 Medical Center Drive", "city": "Hazard", "state": "KY", "zip": "41701"}}
{"id": "231", "name": "Walgreens Pharmacy", "county": "Perry", "lat": 37.283617, "long": -83.226617, "register_online_url": "https://www.walgreens.com/findcare/vaccination/covid-19?ban=covid_vaccine_landing_schedule", "address": {"street1": "426 VILLAGE LANE", "city": "Hazard", "state": "KY", "zip": "41701"}}
{"id": "368", "name": "Primary Care Centers of Eastern Kentucky - Hazard", "county": "Perry", "lat": 37.11575, "long": -83.025907, "register_phone": "tel:606-435-7695", "address": {"street1": "101 Town and Country Lane", "city": "Hazard", "state": "KY", "zip": "41701"}}
{"id": "227", "name": "Walgreens Pharmacy", "county": "Pike", "lat": 37.4950984, "long": -82.5315039, "register_online_url": "https://www.walgreens.com/findcare/vaccination/covid-19?ban=covid_vaccine_landing_schedule", "address": {"street1": "4209 N MAYO TRL", "city": "Pikeville", "state": "KY", "zip": "41501"}}
{"id": "258", "name": "Walgreens Pharmacy", "county": "Pike", "lat": 37.387253, "long": -82.539302, "register_online_url": "https://www.walgreens.com/findcare/vaccination/covid-19?ban=covid_vaccine_landing_schedule", "address": {"street1": "5571 COLLINS HWY", "city": "Pikeville", "state": "KY", "zip": "41501"}}
{"id": "307", "name": "Walmart Supercenter", "county": "PIKE", "lat": 37.5789588, "long": -82.3710317, "register_online_url": "https://www.walmart.com/cp/1228304", "address": {"street1": "28402 US HIGHWAY 119", "city": "South Williamson", "state": "KY", "zip": "41503"}}
{"id": "434", "name": "Pike County Health Department", "county": "Pike", "lat": 37.473511, "long": -82.524179, "register_phone": "tel:606-509-5500", "address": {"street1": "119 River Drive", "city": "Pikeville", "state": "KY", "zip": "41501"}}
{"id": "522", "name": "Walmart #2548", "county": "Pike", "lat": 37.658554, "long": -82.270938, "register_online_url": "https://www.walmart.com/covidvaccine", "address": {"street1": "28402 US HIGHWAY 119", "city": "South Williamson", "state": "KY", "zip": "41503"}}
{"id": "539", "name": "Walmart #1505", "county": "Pike", "lat": 37.506799, "long": -82.540471, "register_online_url": "https://www.walmart.com/covidvaccine", "address": {"street1": "254 Cassidy Blvd", "city": "Pikeville", "state": "KY", "zip": "41501"}}
{"id": "5", "name": "Pikeville Medical Center", "county": "Pike", "lat": 37.4719, "long": -82.522707, "register_online_url": "http://www.pmcvaccine.com", "register_phone": "tel:606-218-3500", "address": {"street1": "911 Bypass Road", "city": "Pikeville", "state": "KY", "zip": "41501"}}
{"id": "26", "name": "Tug Valley ARH Regional Medical Center", "county": "Pike", "lat": 37.67685, "long": -82.296058, "register_phone": "tel:855-274-2273", "address": {"street1": "260 Hospital Drive", "city": "South Williamson", "state": "KY", "zip": "41503"}}
{"id": "153", "name": "Walgreens Pharmacy", "county": "Pike", "lat": 37.619702, "long": -82.167417, "register_online_url": "https://www.walgreens.com/findcare/vaccination/covid-19?ban=covid_vaccine_landing_schedule", "address": {"street1": "11349 STATE HIGHWAY 1056", "city": "Mc Carr", "state": "KY", "zip": "41544"}}
{"id": "203", "name": "Walmart Supercenter", "county": "Pike", "lat": 37.57705, "long": -82.54049, "register_online_url": "https://www.walmart.com/cp/1228331", "address": {"street1": "254 Cassidy Blvd", "city": "Pikeville", "state": "KY", "zip": "41501"}}
{"id": "247", "name": "Walgreens Pharmacy", "county": "Powell", "lat": 37.850263, "long": -83.85755, "register_online_url": "https://www.walgreens.com/findcare/vaccination/covid-19?ban=covid_vaccine_landing_schedule", "address": {"street1": "125 N MAIN ST", "city": "Stanton", "state": "KY", "zip": "40380"}}
{"id": "507", "name": "Kroger Pharmacy - College Avenu (02400411)", "county": "Powell", "lat": 37.84436, "long": -83.861792, "register_online_url": "https://www.kroger.com/rx/covid-eligibility", "address": {"street1": "179 W College Avenue", "city": "Stanton", "state": "KY", "zip": "40380"}}
{"id": "446", "name": "Pulaski County Health Department", "county": "Pulaski", "lat": 37.097887, "long": -84.583823, "register_phone": "tel:606-678-4761", "address": {"street1": "50 Roberts Street", "city": "Somerset", "state": "KY", "zip": "42501"}}
{"id": "549", "name": "Walmart #689", "county": "Pulaski", "lat": 37.068515, "long": -84.623056, "register_online_url": "https://www.walmart.com/covidvaccine", "address": {"street1": "177 Washington Dr", "city": "Somerset", "state": "KY", "zip": "42501"}}
{"id": "36", "name": "Lake Cumberland Regional Hospital ", "county": "Pulaski", "lat": 37.08597, "long": -84.619553, "address": {"street1": "305 Langdon Street", "city": "Somerset", "state": "KY", "zip": "42503"}}
{"id": "418", "name": "Kroger Pharmacy - Tradewinds (02400757)", "county": "Pulaski", "lat": 37.090863, "long": -84.619287, "register_online_url": "https://www.kroger.com/rx/covid-eligibility", "register_phone": "tel:606-451-4341", "address": {"street1": "181 S Highway 27", "city": "Somerset", "state": "KY", "zip": "42501"}}
{"id": "420", "name": "Kroger Pharmacy Marketplace (02400745)", "county": "Pulaski", "lat": 37.057811, "long": -84.62671, "register_online_url": "https://www.kroger.com/rx/covid-eligibility", "register_phone": "tel:606-678-4012", "address": {"street1": "50 Stonegate Center", "city": "Somerset", "state": "KY", "zip": "42501"}}
{"id": "432", "name": "Sav Rite Pharmacy South", "county": "Pulaski", "lat": 37.017097, "long": -84.627051, "register_phone": "tel:606-802-2636", "address": {"street1": "5418 South Hwy 27", "city": "Somerset", "state": "KY", "zip": "42501"}}
{"id": "77", "name": "Walgreens Pharmacy", "county": "Pulaski\u00c2\u00a0", "lat": 37.095679, "long": -84.716584, "register_online_url": "https://www.walgreens.com/findcare/vaccination/covid-19?ban=covid_vaccine_landing_schedule", "address": {"street1": "600 S HIGHWAY 27", "city": "Somerset", "state": "KY", "zip": "42501"}}
{"id": "193", "name": "Walmart Supercenter", "county": "Pulaski\u00c2\u00a0", "lat": 37.0671, "long": -84.5212, "register_online_url": "https://www.walmart.com/cp/1228321", "address": {"street1": "177 WASHINGTON DR", "city": "Somerset", "state": "KY", "zip": "42501"}}
{"id": "212", "name": "Kroger", "county": "Pulaski\u00c2\u00a0", "lat": 37.0608, "long": -84.41923, "register_online_url": "https://www.kroger.com/rx/covid-eligibility", "address": {"street1": "181 S. Highway 27", "city": "Somerset", "state": "KY", "zip": "42501"}}
{"id": "65", "name": "Rockcastle Regional Hospital & Respiratory Care Center", "county": "Rockcastle", "lat": 37.35745, "long": -84.33633, "register_phone": "tel:606-256-7767", "address": {"street1": "145 Newcomb Avenue", "city": "Mount Vernon", "state": "KY", "zip": "40456"}}
{"id": "243", "name": "Walgreens Pharmacy", "county": "Rockcastle", "lat": 37.368565, "long": -84.336633, "register_online_url": "https://www.walgreens.com/findcare/vaccination/covid-19?ban=covid_vaccine_landing_schedule", "address": {"street1": "1040 RICHMOND ST", "city": "Mount Vernon", "state": "KY", "zip": "40456"}}
{"id": "341", "name": "Rockcastle Regional Hospital", "county": "Rockcastle", "lat": 37.357377, "long": -84.336422, "register_phone": "tel:606-256-7767", "address": {"street1": "145 Newcomb Avenue", "city": "Mount Vernon", "state": "KY", "zip": "40456"}}
{"id": "438", "name": "Mount Vernon Drug", "county": "Rockcastle", "lat": 37.358014, "long": -84.338713, "register_phone": "tel:606-256-3447", "address": {"street1": "410 Richmond St.", "city": "Mount Vernon", "state": "KY", "zip": "40456"}}
{"id": "226", "name": "Walgreens Pharmacy", "county": "Rowan", "lat": 38.1787844, "long": -83.4373332, "register_online_url": "https://www.walgreens.com/findcare/vaccination/covid-19?ban=covid_vaccine_landing_schedule", "address": {"street1": "380 W MAIN ST", "city": "Morehead", "state": "KY", "zip": "40351"}}
{"id": "421", "name": "Kroger Pharmacy Morehead (02400734)", "county": "Rowan", "lat": 38.193632, "long": -83.482463, "register_online_url": "https://www.kroger.com/rx/covid-eligibility", "register_phone": "tel:606-783-1476", "address": {"street1": "300 kroger Center", "city": "Morehead", "state": "KY", "zip": "40351"}}
{"id": "514", "name": "Walmart #1113", "county": "Rowan", "lat": 38.201416, "long": -83.481654, "register_online_url": "https://www.walmart.com/covidvaccine", "address": {"street1": "200 Walmart Way", "city": "Morehead", "state": "KY", "zip": "40351"}}
{"id": "531", "name": "Walmart #1139", "county": "Rowan", "lat": 38.201416, "long": -83.481654, "register_online_url": "https://www.walmart.com/covidvaccine", "address": {"street1": "200 Walmart Way", "city": "Morehead", "state": "KY", "zip": "40351"}}
{"id": "39", "name": "St. Claire HealthCare ", "county": "Rowan", "lat": 38.17934, "long": -83.44125, "register_online_url": "https://www.st-claire.org/getthevaccine/", "register_phone": "tel:606-783-7539", "address": {"street1": "245 Flemingsburg Rd", "city": "Morehead", "state": "KY", "zip": "40351"}}
{"id": "177", "name": "Kroger Morehead", "county": "Rowan", "lat": 38.211575, "long": -83.364527, "register_online_url": "https://www.kroger.com/rx/covid-eligibility", "address": {"street1": "300 Kroger Center", "city": "Morehead", "state": "KY", "zip": "40351"}}
{"id": "194", "name": "Walmart Supercenter", "county": "Rowan", "lat": 38.20002, "long": -83.47966, "register_online_url": "https://www.walmart.com/cp/1228322", "address": {"street1": "200 Walmart Way", "city": "Morehead", "state": "KY", "zip": "40351"}}
{"id": "230", "name": "Walgreens Pharmacy", "county": "Russell", "lat": 37.063206, "long": -85.070506, "register_online_url": "https://www.walgreens.com/findcare/vaccination/covid-19?ban=covid_vaccine_landing_schedule", "address": {"street1": "503 STEVE DR", "city": "Russell Springs", "state": "KY", "zip": "42642"}}
{"id": "333", "name": "Russell County Hospital", "county": "Russell", "lat": 37.057859, "long": -85.067513, "register_phone": "tel:270-866-4141", "address": {"street1": "153 Dowell Road", "city": "Russell Springs", "state": "KY", "zip": "42642"}}
{"id": "339", "name": "Russell Springs Pharmacy", "county": "Russell", "lat": 37.057158, "long": -85.0688, "register_phone": "tel:270-866-2778", "address": {"street1": "92 Joe T Pettey Dr   Suite 1", "city": "Russell Springs", "state": "KY", "zip": "42642"}}
{"id": "475", "name": "Kroger Pharmacy - Northridge (02400900)", "county": "Russell", "lat": 37.063574, "long": -85.071715, "register_online_url": "https://www.kroger.com/rx/covid-eligibility", "address": {"street1": "181 S HIghway 127", "city": "Russell Springs", "state": "KY", "zip": "42642"}}
{"id": "478", "name": "Kroger Pharmacy - Georgetown (02400779)", "county": "Scott", "lat": 38.186141, "long": -84.568386, "register_online_url": "https://www.kroger.com/rx/covid-eligibility", "address": {"street1": "106 Marketplace Circle", "city": "Georgetown", "state": "KY", "zip": "40324"}}
{"id": "81", "name": "Walgreens Pharmacy", "county": "Scott", "lat": 38.231578, "long": -84.561958, "register_online_url": "https://www.walgreens.com/findcare/vaccination/covid-19?ban=covid_vaccine_landing_schedule", "address": {"street1": "926 S BROADWAY ST", "city": "Georgetown", "state": "KY", "zip": "40324"}}
{"id": "83", "name": "Walgreens Pharmacy", "county": "Shelby", "lat": 38.213601, "long": -85.259, "register_online_url": "https://www.walgreens.com/findcare/vaccination/covid-19?ban=covid_vaccine_landing_schedule", "address": {"street1": "2188 MIDLAND TRL", "city": "Shellbyville", "state": "KY", "zip": "40065"}}
{"id": "172", "name": "Walmart Supercenter", "county": "Shelby", "lat": 38.209139, "long": -85.262626, "register_online_url": "https://www.walmart.com/cp/1228315", "address": {"street1": "500 TAYLORSVILLE RD", "city": "Shellbyville", "state": "KY", "zip": "40065"}}
{"id": "207", "name": "Kroger", "county": "Shelby", "lat": 38.31602, "long": -85.20492, "register_online_url": "https://www.kroger.com/rx/covid-eligibility", "address": {"street1": "311 Boone Station Rd", "city": "Shellbyville", "state": "KY", "zip": "40065"}}
{"id": "374", "name": "North Central District Health Dept. Shelby County", "county": "Shelby", "lat": 38.210492, "long": -85.224626, "register_online_url": "https://ncdhd.com", "register_phone": "tel:502-633-1243", "address": {"street1": "1020 Henry Clay Street", "city": "Shelbyville", "state": "KY", "zip": "40065"}}
{"id": "415", "name": "Kroger Pharmacy - Shelbyville (02400777)", "county": "Shelby", "lat": 38.215765, "long": -85.206404, "register_online_url": "https://www.kroger.com/rx/covid-eligibility", "register_phone": "tel:502-633-5331", "address": {"street1": "311 Boone Station Road", "city": "Shelbyville", "state": "KY", "zip": "40065"}}
{"id": "532", "name": "Walmart #282", "county": "Simpson", "lat": 36.695169, "long": -86.572541, "register_online_url": "https://www.walmart.com/covidvaccine", "address": {"street1": "1550 Nashville Rd", "city": "Franklin", "state": "KY", "zip": "42134"}}
{"id": "110", "name": "Walgreens Pharmacy", "county": "Simpson", "lat": 36.719201, "long": -86.578534, "register_online_url": "https://www.walgreens.com/findcare/vaccination/covid-19?ban=covid_vaccine_landing_schedule", "address": {"street1": "224 S MAIN ST", "city": "Franklin", "state": "KY", "zip": "42134"}}
{"id": "196", "name": "Walmart Supercenter", "county": "Simpson", "lat": 36.725, "long": -86.49253, "register_online_url": "https://www.walmart.com/cp/1228324", "address": {"street1": "1550 Nashville Rd", "city": "Franklin", "state": "KY", "zip": "42134"}}
{"id": "400", "name": "Your Hometown Pharmacy", "county": "Spencer", "lat": 38.044701, "long": -85.341794, "register_phone": "tel:502-477-1973", "address": {"street1": "913 Taylorsville Rd", "city": "Taylorsville", "state": "KY", "zip": "40071"}}
{"id": "54", "name": "TAYLOR REGIONAL HOSPITAL", "county": "Taylor", "lat": 37.366542, "long": -85.337764, "register_online_url": "https://ptserver.fasthealth.com/web_trh_ky/forms/?formID=9271", "register_phone": "tel:270-465-3561", "address": {"street1": "1700 OLD LEBANON ROAD", "city": "Campbellsville", "state": "KY", "zip": "42718"}}
{"id": "71", "name": "Kroger ", "county": "Taylor ", "lat": 37.342715, "long": -85.364117, "register_online_url": "https://www.kroger.com/rx/covid-eligibility", "address": {"street1": "399 Campbellsville Bypass, Suite 100", "city": "Campbellsville", "state": "KY", "zip": "42718"}}
{"id": "173", "name": "Walmart Supercenter", "county": "Taylor ", "lat": 37.3462, "long": -85.271539, "register_online_url": "https://www.walmart.com/cp/1228316", "address": {"street1": "725 CAMPBELLSVILLE BYP", "city": "Campbellsville", "state": "KY", "zip": "42718"}}
{"id": "560", "name": "Kroger Pharmacy - E Broadway Street (02400403)", "county": "Taylor", "lat": 37.3561, "long": -85.328593, "register_online_url": "https://www.kroger.com/rx/covid-eligibility", "address": {"street1": "1509 E Broadway", "city": "Campbellsville", "state": "KY", "zip": "42718"}}
{"id": "386", "name": "Main Street Pharmacy", "county": "Trigg", "lat": 36.867753, "long": -87.818607, "register_phone": "tel:270-882-2222", "address": {"street1": "289 Main Street, P.O. Box 918", "city": "Cadiz", "state": "KY", "zip": "42211"}}
{"id": "58", "name": "Trigg County Hospital", "county": "Trigg", "lat": 36.866355, "long": -87.821523, "register_phone": "tel:270-522-3215", "address": {"street1": "254 Main Street", "city": "Cadiz", "state": "KY", "zip": "42211"}}
{"id": "51", "name": "Deaconess Union County Hospital", "county": "Union", "lat": 37.628473, "long": -87.947854, "register_online_url": "https://www.deaconess.com/Coronavirus/COVID-19-Vaccine/COVID-Vaccine-Scheduling/Union-County-COVID-Vaccine-Clinic", "register_phone": "tel:270-389-5120", "address": {"street1": "4604 US-60", "city": "Morganfield", "state": "KY", "zip": "42437"}}
{"id": "112", "name": "Walgreens Pharmacy", "county": "Union", "lat": 37.687826, "long": -87.882063, "register_online_url": "https://www.walgreens.com/findcare/vaccination/covid-19?ban=covid_vaccine_landing_schedule", "address": {"street1": "408 NORTH MORGAN STREET", "city": "Morganfield", "state": "KY", "zip": "42437"}}
{"id": "198", "name": "Walmart Supercenter", "county": "Union", "lat": 37.69867, "long": -87.90004, "register_online_url": "https://www.walmart.com/cp/1228326", "address": {"street1": "901 US Highway 60 E", "city": "Morganfield", "state": "KY", "zip": "42437"}}
{"id": "534", "name": "Walmart #257", "county": "Union", "lat": 37.6886, "long": -87.900024, "register_online_url": "https://www.walmart.com/covidvaccine", "address": {"street1": "901 US Highway 60 E", "city": "Morganfield", "state": "KY", "zip": "42437"}}
{"id": "355", "name": "Deaconess Union County Hospital", "county": "Union", "lat": 37.628473, "long": -87.947854, "register_online_url": "https://www.deaconess.com/Deaconess-Union-County%C2%A0Hospital", "register_phone": "tel:270-389-5000", "address": {"street1": "4604 US-60", "city": "Morganfield", "state": "KY", "zip": "42437"}}
{"id": "356", "name": "The Medical Center at Bowling Green", "county": "Warren", "lat": 36.997232, "long": -86.427307, "register_phone": "tel:270-796-3200", "address": {"street1": "700 First Street", "city": "Bowling Green", "state": "KY", "zip": "42101"}}
{"id": "357", "name": "HINES PHARMACY WKONA", "county": "Warren", "lat": 36.967133, "long": -86.401574, "register_phone": "tel:270-796-1818", "address": {"street1": "165 Natchez Trace Ave, Ste 101", "city": "Bowling Green", "state": "KY", "zip": "42103"}}
{"id": "360", "name": "Barren River District Health Department", "county": "Warren", "lat": 36.991009, "long": -86.443908, "register_online_url": "https://www.yellowschedule.com/booking/brdhd__vaccine__site", "register_phone": "tel:270-781-8039", "address": {"street1": "1109 State Street", "city": "Bowling Green", "state": "KY", "zip": "42101"}}
{"id": "370", "name": "Hines Pharmacy", "county": "Warren", "lat": 37.008476, "long": -86.442043, "register_phone": "tel:270-842-4341", "address": {"street1": "1340 Kentucky Hwy 185", "city": "Bowling Green", "state": "KY", "zip": "42101"}}
{"id": "377", "name": "Sheldon's Express Pharmacy #2", "county": "Warren", "lat": 36.962359, "long": -86.463977, "register_online_url": "https://www.vaccinefinder.org", "register_phone": "tel:270-782-6337", "address": {"street1": "760 Campbell Lane, Suite 121", "city": "Bowling Green", "state": "KY", "zip": "42104"}}
{"id": "2", "name": "The Medical Center at Bowling Green", "county": "Warren", "lat": 36.995997, "long": -86.429678, "register_phone": "tel:(270) 745-1000", "address": {"street1": "250 Park Street", "city": "Bowling Green", "state": "KY", "zip": "42101"}}
{"id": "45", "name": "Greenwood Mall", "county": "Warren", "lat": 36.948414, "long": -86.42741, "register_online_url": "https://www.kroger.com/rx/covid-eligibility", "register_phone": "tel:866-211-5320", "address": {"street1": "2625 Scottsville Road", "city": "Bowling Green", "state": "KY", "zip": "42104"}}
{"id": "76", "name": "Walgreens Pharmacy ", "county": "Warren", "lat": 36.982972, "long": -86.639026, "register_online_url": "https://www.walgreens.com/findcare/vaccination/covid-19?ban=covid_vaccine_landing_schedule", "address": {"street1": "1145 US 31W BYP", "city": "Bowling Green", "state": "KY", "zip": "42101"}}
{"id": "94", "name": "Walgreens Pharmacy", "county": "Warren", "lat": 36.922579, "long": -86.387618, "register_online_url": "https://www.walgreens.com/findcare/vaccination/covid-19?ban=covid_vaccine_landing_schedule", "address": {"street1": "2385 NASHVILLE RD", "city": "Bowling Green", "state": "KY", "zip": "42101"}}
{"id": "133", "name": "Walgreens Pharmacy", "county": "Warren", "lat": 36.946255, "long": -86.522984, "register_online_url": "https://www.walgreens.com/findcare/vaccination/covid-19?ban=covid_vaccine_landing_schedule", "address": {"street1": "2824 SCOTTSVILLE RD", "city": "Bowling Green", "state": "KY", "zip": "42104"}}
{"id": "496", "name": "Kroger Pharmacy - Scottsville Rd (02600585)", "county": "Warren", "lat": 36.943669, "long": -86.425555, "register_online_url": "https://www.kroger.com/rx/covid-eligibility", "address": {"street1": "2945 Scottsville Road", "city": "Bowling Green", "state": "KY", "zip": "42104"}}
{"id": "497", "name": "Kroger Pharmacy - Bypass Riverside (02600535)", "county": "Warren", "lat": 36.996491, "long": -86.424752, "register_online_url": "https://www.kroger.com/rx/covid-eligibility", "address": {"street1": "350 West 31W ByP", "city": "Bowling Green", "state": "KY", "zip": "42101"}}
{"id": "498", "name": "Kroger Pharmacy - Campbell Lane (02600509)", "county": "Warren", "lat": 36.959923, "long": -86.46675, "register_online_url": "https://www.kroger.com/rx/covid-eligibility", "address": {"street1": "711 Campbell Lane", "city": "Bowling Green", "state": "KY", "zip": "42104"}}
{"id": "517", "name": "Walmart #5236", "county": "Warren", "lat": 36.986567, "long": -86.484037, "register_online_url": "https://www.walmart.com/covidvaccine", "address": {"street1": "1201 Morgantown Rd", "city": "Bowling Green", "state": "KY", "zip": "42101"}}
{"id": "250", "name": "Walgreens Pharmacy", "county": "Washington", "lat": 37.6917921, "long": -85.2368724, "register_online_url": "https://www.walgreens.com/findcare/vaccination/covid-19?ban=covid_vaccine_landing_schedule", "address": {"street1": "805 BARDSTOWN RD STE 1", "city": "Springfield", "state": "KY", "zip": "40069"}}
{"id": "239", "name": "Walgreens Pharmacy", "county": "Wayne", "lat": 36.8408471, "long": -84.8398448, "register_online_url": "https://www.walgreens.com/findcare/vaccination/covid-19?ban=covid_vaccine_landing_schedule", "address": {"street1": "978 NORTH MAIN STREET", "city": "Monticello", "state": "KY", "zip": "42633"}}
{"id": "314", "name": "Walmart Supercenter", "county": "Wayne", "lat": 36.8018658, "long": -84.8987414, "register_online_url": "https://www.walmart.com/cp/1228302", "address": {"street1": "175 WALMART PLAZA DR", "city": "Monticello", "state": "KY", "zip": "42633"}}
{"id": "441", "name": "Monticello Medical Associates", "county": "Wayne", "lat": 36.836839, "long": -84.835503, "register_phone": "tel:606-348-3365", "address": {"street1": "1 South Creek Drive, Suite 102", "city": "Monticello", "state": "KY", "zip": "42633"}}
{"id": "529", "name": "Walmart #1234", "county": "Wayne", "lat": 36.857748, "long": -84.848728, "register_online_url": "https://www.walmart.com/covidvaccine", "address": {"street1": "175 Walmart Plaza Dr", "city": "Monticello", "state": "KY", "zip": "42633"}}
{"id": "451", "name": "Clay Drug Store", "county": "Webster", "lat": 37.477069, "long": -87.819671, "register_phone": "tel:270-664-2270", "address": {"street1": "9055 State Route 132 W", "city": "Clay", "state": "KY", "zip": "42409"}}
{"id": "493", "name": "Kroger Pharmacy - Forest Hills (02400719)", "county": "Whitley", "lat": 36.928703, "long": -84.104289, "register_online_url": "https://www.kroger.com/rx/covid-eligibility", "address": {"street1": "1019 Cumberland Falls Highway", "city": "Corbin", "state": "KY", "zip": "40701"}}
{"id": "328", "name": "Whitley County Health Department", "county": "Whitley", "lat": 36.726548, "long": -84.172967, "register_phone": "tel:606-549-3380", "address": {"street1": "368 Penny Lane", "city": "Williamsburg", "state": "KY", "zip": "40769"}}
{"id": "435", "name": "Rickett Pharmacy", "county": "Whitley", "lat": 36.749895, "long": -84.157937, "register_phone": "tel:606-515-6134", "address": {"street1": "486 N Hwy 25 W", "city": "Williamsburg", "state": "KY", "zip": "40769"}}
{"id": "35", "name": "Baptist Health Corbin", "county": "Whitley", "lat": 36.923109, "long": -84.11978, "register_online_url": "https://ScheduleYourVaccine.com", "register_phone": "tel:606-526-4990", "address": {"street1": "222 Corbin Center Drive", "city": "Corbin", "state": "KY", "zip": "40701"}}
{"id": "95", "name": "Walgreens Pharmacy", "county": "Whitley", "lat": 36.927265, "long": -84.269987, "register_online_url": "https://www.walgreens.com/findcare/vaccination/covid-19?ban=covid_vaccine_landing_schedule", "address": {"street1": "1320 CUMBERLAND FALLS HIGHWAY", "city": "Corbin", "state": "KY", "zip": "40701"}}
{"id": "448", "name": "Juniper Health Wolfe County", "county": "Wolfe", "lat": 37.735127, "long": -83.549995, "register_online_url": "https://bit.ly/jhicovidvaccine2021", "register_phone": "tel:606-668-7385", "address": {"street1": "202 Plummer St.", "city": "Campton", "state": "KY", "zip": "41301"}}
{"id": "479", "name": "Kroger Pharmacy - Versailles (02400774)", "county": "Woodford", "lat": 38.052657, "long": -84.711223, "register_online_url": "https://www.kroger.com/rx/covid-eligibility", "address": {"street1": "212 Kroger Way", "city": "Versailles", "state": "KY", "zip": "40383"}}
{"id": "183", "name": "Kroger Lebanon", "county": "\u00c2\u00a0Marion", "lat": 37.575531, "long": -85.234213, "register_online_url": "https://www.kroger.com/rx/covid-eligibility", "address": {"street1": "705 E Main Street", "city": "Lebanon", "state": "KY", "zip": "40033"}}
{"id": "178", "name": "Kroger Bardstown", "county": "\u00c2\u00a0Nelson", "lat": 37.826545, "long": -85.49514, "register_online_url": "https://www.kroger.com/rx/covid-eligibility", "address": {"street1": "102 W John Rowan Blvd", "city": "Bardstown", "state": "KY", "zip": "40004"}}
