{"status":"ok","message":"","data":[{"name":"RUIDOSO PUBLIC HEALTH OFFICE ","locationId":2,"city":"Ruidoso","lat":33.34976951,"lng":-105.661489,"startTime":"14:00:00","endTime":"14:30:00","date":"2021-07-02","address1":"111 KANSAS CITY ROAD","zip":"88345","primaryAppointments":2,"primaryCap":2,"boosterAppointments":0,"boosterCap":0,"brands":[3],"driveThrough":1,"wheelchairAccessible":0,"mobilityHelp":0,"deafAccommodations":0,"blindAccommodations":0,"paperworkAssistance":0,"seatingAvailable":0,"sensoryFriendly":0,"walkIn":1},{"name":"Santa Fe Public Health Office","locationId":7,"city":"Santa Fe","lat":35.67119397,"lng":-105.95203753,"startTime":"09:00:00","endTime":"12:00:00","date":"2021-07-02","address1":"605 LETRADO ST","zip":"87505","primaryAppointments":5,"primaryCap":9,"boosterAppointments":31,"boosterCap":33,"brands":[1],"driveThrough":1,"wheelchairAccessible":1,"mobilityHelp":1,"deafAccommodations":1,"blindAccommodations":1,"paperworkAssistance":1,"seatingAvailable":1,"sensoryFriendly":1,"walkIn":0},{"name":"ROSWELL PUBLIC HEALTH OFFICE ","locationId":18,"city":"Roswell","lat":33.37529714,"lng":-104.52022075,"startTime":"07:30:00","endTime":"11:30:00","date":"2021-07-02","address1":"200 E CHISUM BOX 1","zip":"88203","primaryAppointments":20,"primaryCap":103,"boosterAppointments":52,"boosterCap":191,"brands":[1],"driveThrough":1,"wheelchairAccessible":1,"mobilityHelp":1,"deafAccommodations":0,"blindAccommodations":1,"paperworkAssistance":1,"seatingAvailable":1,"sensoryFriendly":1,"walkIn":1},{"name":"Otero Public Health Office","locationId":36,"city":"Alamogordo","lat":32.89781275,"lng":-105.94750455,"startTime":"08:30:00","endTime":"15:00:00","date":"2021-07-02","address1":"1207 8TH STREET","zip":"88310","primaryAppointments":46,"primaryCap":90,"boosterAppointments":54,"boosterCap":60,"brands":[1],"driveThrough":0,"wheelchairAccessible":1,"mobilityHelp":0,"deafAccommodations":0,"blindAccommodations":0,"paperworkAssistance":1,"seatingAvailable":1,"sensoryFriendly":0,"walkIn":1},{"name":"Albertsons  #903-  Ridgecrest ,Rio Rancho","locationId":41,"city":"RIO RANCHO","lat":35.25299922,"lng":-106.65191945,"startTime":"13:00:00","endTime":"16:00:00","date":"2021-07-02","address1":"4300 RIDGECREST DR SE","zip":"87124","primaryAppointments":3,"primaryCap":4,"boosterAppointments":26,"boosterCap":26,"brands":[1],"driveThrough":0,"wheelchairAccessible":1,"mobilityHelp":1,"deafAccommodations":0,"blindAccommodations":1,"paperworkAssistance":1,"seatingAvailable":1,"sensoryFriendly":1,"walkIn":1},{"name":"Albertson's Market Pharmacy","locationId":42,"city":"ALAMOGORDO","lat":32.89880179,"lng":-105.94636043,"startTime":"09:00:00","endTime":"14:00:00","date":"2021-07-02","address1":"1300 EAST 10TH STREET","zip":"88310","primaryAppointments":0,"primaryCap":0,"boosterAppointments":2,"boosterCap":6,"brands":[2],"driveThrough":0,"wheelchairAccessible":1,"mobilityHelp":0,"deafAccommodations":0,"blindAccommodations":0,"paperworkAssistance":1,"seatingAvailable":1,"sensoryFriendly":0,"walkIn":1},{"name":"Albertsons - ABQ Academy","locationId":43,"city":"Albuquerque","lat":35.15374679,"lng":-106.49926406,"startTime":"10:00:00","endTime":"14:30:00","date":"2021-07-02","address1":"12201 ACADEMY RD NE","zip":"87111","primaryAppointments":5,"primaryCap":5,"boosterAppointments":16,"boosterCap":16,"brands":[1],"driveThrough":0,"wheelchairAccessible":1,"mobilityHelp":1,"deafAccommodations":0,"blindAccommodations":0,"paperworkAssistance":1,"seatingAvailable":1,"sensoryFriendly":1,"walkIn":1},{"name":"Albertsons - SANTA FE S SAINT FRANCIS DR","locationId":44,"city":"Santa Fe","lat":35.645377,"lng":-105.95585902,"startTime":"11:30:00","endTime":"14:00:00","date":"2021-07-02","address1":"3001 S SAINT FRANCIS DR","zip":"87505","primaryAppointments":0,"primaryCap":0,"boosterAppointments":27,"boosterCap":30,"brands":[1],"driveThrough":0,"wheelchairAccessible":null,"mobilityHelp":null,"deafAccommodations":null,"blindAccommodations":null,"paperworkAssistance":null,"seatingAvailable":null,"sensoryFriendly":null,"walkIn":1},{"name":"Las Cruces Walmart Pharmacy - Rinconada Blvd","locationId":45,"city":"Las Cruces","lat":32.35941416,"lng":-106.74625632,"startTime":"09:30:00","endTime":"18:00:00","date":"2021-07-02","address1":"3331 Rinconada Blvd","zip":"88011-71","primaryAppointments":2,"primaryCap":2,"boosterAppointments":32,"boosterCap":36,"brands":[2],"driveThrough":0,"wheelchairAccessible":1,"mobilityHelp":0,"deafAccommodations":1,"blindAccommodations":0,"paperworkAssistance":1,"seatingAvailable":1,"sensoryFriendly":0,"walkIn":1},{"name":"Artesia Walmart Pharmacy","locationId":46,"city":"Artesia","lat":32.84749848,"lng":-104.42713775,"startTime":"09:30:00","endTime":"18:30:00","date":"2021-07-02","address1":"604 N 26th St","zip":"88210-37","primaryAppointments":2,"primaryCap":22,"boosterAppointments":14,"boosterCap":15,"brands":[2],"driveThrough":0,"wheelchairAccessible":1,"mobilityHelp":0,"deafAccommodations":1,"blindAccommodations":0,"paperworkAssistance":1,"seatingAvailable":1,"sensoryFriendly":0,"walkIn":0},{"name":"Walmart - Coors Bypass-1397","locationId":47,"city":"Albuquerque","lat":35.20410198,"lng":-106.65723693,"startTime":"10:30:00","endTime":"16:30:00","date":"2021-07-02","address1":"10224 Coors Bypass NW","zip":"87114-43","primaryAppointments":1,"primaryCap":18,"boosterAppointments":2,"boosterCap":2,"brands":[2],"driveThrough":0,"wheelchairAccessible":1,"mobilityHelp":0,"deafAccommodations":1,"blindAccommodations":1,"paperworkAssistance":1,"seatingAvailable":1,"sensoryFriendly":1,"walkIn":1},{"name":"Espanola Walmart 2656","locationId":48,"city":"Espanola","lat":36.01504511,"lng":-106.0681748,"startTime":"10:00:00","endTime":"16:00:00","date":"2021-07-02","address1":"1610 N Riverside Dr","zip":"87532-80","primaryAppointments":0,"primaryCap":6,"boosterAppointments":3,"boosterCap":6,"brands":[2],"driveThrough":0,"wheelchairAccessible":1,"mobilityHelp":0,"deafAccommodations":0,"blindAccommodations":0,"paperworkAssistance":1,"seatingAvailable":1,"sensoryFriendly":0,"walkIn":1},{"name":"Farmington Walmart West Side ","locationId":50,"city":"Farmington","lat":36.73206361,"lng":-108.22798666,"startTime":"09:00:00","endTime":"18:00:00","date":"2021-07-02","address1":"1400 W Main St","zip":"87401","primaryAppointments":2,"primaryCap":5,"boosterAppointments":3,"boosterCap":33,"brands":[2],"driveThrough":0,"wheelchairAccessible":1,"mobilityHelp":0,"deafAccommodations":0,"blindAccommodations":0,"paperworkAssistance":1,"seatingAvailable":1,"sensoryFriendly":0,"walkIn":1},{"name":"WM RX-GALLUP, NM","locationId":51,"city":"Gallup","lat":35.52774518,"lng":-108.7694296,"startTime":"09:30:00","endTime":"17:30:00","date":"2021-07-02","address1":"1650 W Maloney Ave","zip":"87301-33","primaryAppointments":5,"primaryCap":48,"boosterAppointments":8,"boosterCap":16,"brands":[2],"driveThrough":0,"wheelchairAccessible":1,"mobilityHelp":1,"deafAccommodations":1,"blindAccommodations":1,"paperworkAssistance":1,"seatingAvailable":1,"sensoryFriendly":1,"walkIn":0},{"name":"Walmart Pharmacy Hobbs, NM","locationId":52,"city":"Hobbs","lat":32.74293834,"lng":-103.16149549,"startTime":"11:00:00","endTime":"17:00:00","date":"2021-07-02","address1":"3800 N Lovington Hwy","zip":"88240-10","primaryAppointments":10,"primaryCap":12,"boosterAppointments":7,"boosterCap":12,"brands":[2],"driveThrough":0,"wheelchairAccessible":1,"mobilityHelp":1,"deafAccommodations":1,"blindAccommodations":1,"paperworkAssistance":1,"seatingAvailable":1,"sensoryFriendly":1,"walkIn":1},{"name":"Sam's Club - Roswell","locationId":53,"city":"Roswell","lat":33.44777277,"lng":-104.52715705,"startTime":"12:00:00","endTime":"14:00:00","date":"2021-07-02","address1":"4400 N Main St","zip":"88201-03","primaryAppointments":1,"primaryCap":8,"boosterAppointments":1,"boosterCap":10,"brands":[2],"driveThrough":0,"wheelchairAccessible":null,"mobilityHelp":null,"deafAccommodations":null,"blindAccommodations":null,"paperworkAssistance":null,"seatingAvailable":null,"sensoryFriendly":null,"walkIn":1},{"name":"Sam's Club - Santa Fe Rodeo","locationId":54,"city":"Santa Fe","lat":35.6383503,"lng":-106.00867169,"startTime":"09:30:00","endTime":"17:00:00","date":"2021-07-02","address1":"4201 Rodeo Rd","zip":"87507-48","primaryAppointments":2,"primaryCap":15,"boosterAppointments":1,"boosterCap":15,"brands":[2],"driveThrough":0,"wheelchairAccessible":1,"mobilityHelp":0,"deafAccommodations":0,"blindAccommodations":1,"paperworkAssistance":0,"seatingAvailable":1,"sensoryFriendly":0,"walkIn":1},{"name":"Walmart - Wyoming/Menaul--5491","locationId":55,"city":"Albuquerque","lat":35.10640882,"lng":-106.54939702,"startTime":"09:30:00","endTime":"15:00:00","date":"2021-07-02","address1":"2266 Wyoming Blvd NE","zip":"87112-26","primaryAppointments":3,"primaryCap":10,"boosterAppointments":5,"boosterCap":10,"brands":[2],"driveThrough":0,"wheelchairAccessible":null,"mobilityHelp":null,"deafAccommodations":null,"blindAccommodations":null,"paperworkAssistance":null,"seatingAvailable":null,"sensoryFriendly":null,"walkIn":1},{"name":"PMS - Deming Health Center","locationId":78,"city":"Deming","lat":32.26666167,"lng":-107.75574677,"startTime":"10:00:00","endTime":"11:00:00","date":"2021-07-02","address1":"300 S. Diamond Avenue","zip":"88030","primaryAppointments":4,"primaryCap":4,"boosterAppointments":6,"boosterCap":6,"brands":[2],"driveThrough":0,"wheelchairAccessible":null,"mobilityHelp":null,"deafAccommodations":null,"blindAccommodations":null,"paperworkAssistance":null,"seatingAvailable":null,"sensoryFriendly":null,"walkIn":0},{"name":"PMS - Farmington Community Health Center","locationId":80,"city":"Farmington","lat":36.72693104,"lng":-108.22316192,"startTime":"09:00:00","endTime":"14:30:00","date":"2021-07-02","address1":"1001 West Broadway Ave","zip":"87401","primaryAppointments":2,"primaryCap":10,"boosterAppointments":6,"boosterCap":6,"brands":[2],"driveThrough":0,"wheelchairAccessible":1,"mobilityHelp":0,"deafAccommodations":0,"blindAccommodations":1,"paperworkAssistance":1,"seatingAvailable":1,"sensoryFriendly":1,"walkIn":1},{"name":"PMS - Socorro Community Health Center","locationId":89,"city":"Socorro","lat":34.03413276,"lng":-106.91675035,"startTime":"10:00:00","endTime":"11:00:00","date":"2021-07-02","address1":"1300 Enterprise Road","zip":"87801","primaryAppointments":4,"primaryCap":4,"boosterAppointments":8,"boosterCap":8,"brands":[1],"driveThrough":0,"wheelchairAccessible":null,"mobilityHelp":null,"deafAccommodations":null,"blindAccommodations":null,"paperworkAssistance":null,"seatingAvailable":null,"sensoryFriendly":null,"walkIn":1},{"name":"Vida Pharmacy ","locationId":96,"city":"Albuquerque","lat":35.17941181,"lng":-106.59218948,"startTime":"15:00:00","endTime":"17:00:00","date":"2021-07-02","address1":"8500 Jefferson St NE","zip":"87113","primaryAppointments":8,"primaryCap":10,"boosterAppointments":0,"boosterCap":0,"brands":[3],"driveThrough":0,"wheelchairAccessible":0,"mobilityHelp":0,"deafAccommodations":0,"blindAccommodations":0,"paperworkAssistance":1,"seatingAvailable":1,"sensoryFriendly":1,"walkIn":1},{"name":"Roswell Walmart Pharmacy","locationId":104,"city":"Roswell","lat":33.44928211,"lng":-104.52682147,"startTime":"09:00:00","endTime":"15:00:00","date":"2021-07-02","address1":"4500 N Main St","zip":"88201-03","primaryAppointments":2,"primaryCap":3,"boosterAppointments":15,"boosterCap":23,"brands":[2],"driveThrough":0,"wheelchairAccessible":1,"mobilityHelp":0,"deafAccommodations":1,"blindAccommodations":0,"paperworkAssistance":1,"seatingAvailable":1,"sensoryFriendly":0,"walkIn":0},{"name":"PMS - Chaparral Family Health Center","locationId":106,"city":"Chaparral","lat":32.009334,"lng":-106.34023964,"startTime":"13:00:00","endTime":"15:00:00","date":"2021-07-02","address1":"204 Angelina Boulevard","zip":"88081-75","primaryAppointments":3,"primaryCap":20,"boosterAppointments":0,"boosterCap":0,"brands":[2],"driveThrough":0,"wheelchairAccessible":1,"mobilityHelp":1,"deafAccommodations":1,"blindAccommodations":1,"paperworkAssistance":1,"seatingAvailable":1,"sensoryFriendly":1,"walkIn":1},{"name":"Roosevelt General Hospital ","locationId":116,"city":"Portales","lat":34.16841057,"lng":-103.3622094,"startTime":"09:00:00","endTime":"16:00:00","date":"2021-07-02","address1":"42121 US 70","zip":"88130","primaryAppointments":30,"primaryCap":38,"boosterAppointments":18,"boosterCap":23,"brands":[1],"driveThrough":0,"wheelchairAccessible":1,"mobilityHelp":1,"deafAccommodations":1,"blindAccommodations":1,"paperworkAssistance":1,"seatingAvailable":1,"sensoryFriendly":0,"walkIn":1},{"name":"First Choice Community Healthcare Inc South Valley Center","locationId":125,"city":"Albuquerque","lat":35.04543945,"lng":-106.68237827,"startTime":"09:30:00","endTime":"10:00:00","date":"2021-07-02","address1":"2001 North Centro Familiar SW","zip":"87105","primaryAppointments":1,"primaryCap":1,"boosterAppointments":0,"boosterCap":0,"brands":[3],"driveThrough":0,"wheelchairAccessible":null,"mobilityHelp":null,"deafAccommodations":null,"blindAccommodations":null,"paperworkAssistance":null,"seatingAvailable":null,"sensoryFriendly":null,"walkIn":1},{"name":"First Choice Community Healthcare Inc Los Lunas Center","locationId":130,"city":"Los Lunas","lat":34.81187504,"lng":-106.74188149,"startTime":"10:00:00","endTime":"12:00:00","date":"2021-07-02","address1":"145 Don Pasqual NW","zip":"87031","primaryAppointments":6,"primaryCap":7,"boosterAppointments":16,"boosterCap":16,"brands":[2],"driveThrough":0,"wheelchairAccessible":1,"mobilityHelp":1,"deafAccommodations":1,"blindAccommodations":1,"paperworkAssistance":1,"seatingAvailable":1,"sensoryFriendly":0,"walkIn":0},{"name":"First Choice Community Healthcare Inc Edgewood Center","locationId":131,"city":"Edgewood","lat":35.09190783,"lng":-106.19373138,"startTime":"14:00:00","endTime":"14:30:00","date":"2021-07-02","address1":"7 Municipal Way","zip":"87015","primaryAppointments":5,"primaryCap":5,"boosterAppointments":0,"boosterCap":0,"brands":[3],"driveThrough":0,"wheelchairAccessible":1,"mobilityHelp":1,"deafAccommodations":0,"blindAccommodations":0,"paperworkAssistance":1,"seatingAvailable":1,"sensoryFriendly":0,"walkIn":0},{"name":"Walmart - Academy/Wyoming-824","locationId":141,"city":"Albuquerque","lat":35.14433804,"lng":-106.55099885,"startTime":"09:00:00","endTime":"18:00:00","date":"2021-07-02","address1":"8000 Academy Rd NE","zip":"87111-11","primaryAppointments":8,"primaryCap":16,"boosterAppointments":18,"boosterCap":32,"brands":[1],"driveThrough":0,"wheelchairAccessible":1,"mobilityHelp":1,"deafAccommodations":1,"blindAccommodations":1,"paperworkAssistance":1,"seatingAvailable":1,"sensoryFriendly":0,"walkIn":1},{"name":"Sam's Club - Eubank","locationId":142,"city":"Albuquerque","lat":35.07687388,"lng":-106.53034406,"startTime":"09:30:00","endTime":"17:00:00","date":"2021-07-02","address1":"300 Eubank Blvd NE","zip":"87123-27","primaryAppointments":5,"primaryCap":13,"boosterAppointments":0,"boosterCap":0,"brands":[3],"driveThrough":0,"wheelchairAccessible":null,"mobilityHelp":null,"deafAccommodations":null,"blindAccommodations":null,"paperworkAssistance":null,"seatingAvailable":null,"sensoryFriendly":null,"walkIn":1},{"name":"Walmart - Cerrillos Road","locationId":143,"city":"Santa Fe","lat":35.65187605,"lng":-105.99928406,"startTime":"09:30:00","endTime":"18:00:00","date":"2021-07-02","address1":"3251 Cerrillos Rd","zip":"87507-29","primaryAppointments":2,"primaryCap":8,"boosterAppointments":3,"boosterCap":8,"brands":[2],"driveThrough":0,"wheelchairAccessible":1,"mobilityHelp":0,"deafAccommodations":0,"blindAccommodations":0,"paperworkAssistance":1,"seatingAvailable":1,"sensoryFriendly":0,"walkIn":1},{"name":"walmat - san mateo/zuni 831","locationId":144,"city":"Albuquerque","lat":35.07568994,"lng":-106.58850182,"startTime":"09:00:00","endTime":"16:00:00","date":"2021-07-02","address1":"301 San Mateo Blvd SE","zip":"87108-56","primaryAppointments":6,"primaryCap":16,"boosterAppointments":7,"boosterCap":25,"brands":[2],"driveThrough":0,"wheelchairAccessible":1,"mobilityHelp":0,"deafAccommodations":0,"blindAccommodations":0,"paperworkAssistance":1,"seatingAvailable":1,"sensoryFriendly":1,"walkIn":1},{"name":"walmart on eubank and I40","locationId":145,"city":"Albuquerque","lat":35.07843081,"lng":-106.52987822,"startTime":"09:30:00","endTime":"16:00:00","date":"2021-07-02","address1":"400 Eubank Blvd NE","zip":"87123-27","primaryAppointments":7,"primaryCap":9,"boosterAppointments":9,"boosterCap":22,"brands":[1,2],"driveThrough":0,"wheelchairAccessible":1,"mobilityHelp":0,"deafAccommodations":0,"blindAccommodations":0,"paperworkAssistance":1,"seatingAvailable":1,"sensoryFriendly":1,"walkIn":1},{"name":"Sam's Club - Renaissance","locationId":146,"city":"Albuquerque","lat":35.13815025,"lng":-106.61365433,"startTime":"09:30:00","endTime":"12:30:00","date":"2021-07-02","address1":"1421 N Renaissance Blvd NE","zip":"87107-70","primaryAppointments":1,"primaryCap":6,"boosterAppointments":6,"boosterCap":11,"brands":[2],"driveThrough":0,"wheelchairAccessible":1,"mobilityHelp":0,"deafAccommodations":0,"blindAccommodations":1,"paperworkAssistance":1,"seatingAvailable":1,"sensoryFriendly":0,"walkIn":1},{"name":"Sam's Club - Las Cruces","locationId":147,"city":"Las Cruces","lat":32.34615926,"lng":-106.76702438,"startTime":"11:00:00","endTime":"11:30:00","date":"2021-07-02","address1":"2711 N Telshor Blvd","zip":"88011-82","primaryAppointments":3,"primaryCap":6,"boosterAppointments":5,"boosterCap":9,"brands":[2],"driveThrough":0,"wheelchairAccessible":null,"mobilityHelp":null,"deafAccommodations":null,"blindAccommodations":null,"paperworkAssistance":null,"seatingAvailable":null,"sensoryFriendly":null,"walkIn":1},{"name":"Walmart - Carlisle-850","locationId":148,"city":"Albuquerque","lat":35.1110806,"lng":-106.60858805,"startTime":"09:00:00","endTime":"18:00:00","date":"2021-07-02","address1":"2701 Carlisle Blvd NE","zip":"87110-28","primaryAppointments":3,"primaryCap":15,"boosterAppointments":1,"boosterCap":15,"brands":[2],"driveThrough":0,"wheelchairAccessible":1,"mobilityHelp":0,"deafAccommodations":0,"blindAccommodations":0,"paperworkAssistance":1,"seatingAvailable":1,"sensoryFriendly":1,"walkIn":1},{"name":"Las Cruces Walmart Pharmacy - Walton/Lohman","locationId":149,"city":"Las Cruces","lat":32.31453229,"lng":-106.75064357,"startTime":"08:00:00","endTime":"18:30:00","date":"2021-07-02","address1":"571 Walton Blvd","zip":"88001-84","primaryAppointments":6,"primaryCap":42,"boosterAppointments":0,"boosterCap":0,"brands":[2],"driveThrough":0,"wheelchairAccessible":1,"mobilityHelp":0,"deafAccommodations":1,"blindAccommodations":0,"paperworkAssistance":1,"seatingAvailable":1,"sensoryFriendly":0,"walkIn":0},{"name":"Taos Walmart Pharmacy","locationId":150,"city":"Taos","lat":36.38620309,"lng":-105.58775748,"startTime":"10:00:00","endTime":"18:00:00","date":"2021-07-02","address1":"926 Paseo Del Pueblo Sur","zip":"87571-59","primaryAppointments":3,"primaryCap":5,"boosterAppointments":0,"boosterCap":14,"brands":[2],"driveThrough":0,"wheelchairAccessible":1,"mobilityHelp":0,"deafAccommodations":0,"blindAccommodations":0,"paperworkAssistance":1,"seatingAvailable":1,"sensoryFriendly":0,"walkIn":1},{"name":"Ruidoso Walmart Pharmacy","locationId":151,"city":"Ruidoso Downs","lat":33.32416962,"lng":-105.61430792,"startTime":"09:30:00","endTime":"18:30:00","date":"2021-07-02","address1":"26180 Us Highway 70 E","zip":"88346-91","primaryAppointments":3,"primaryCap":30,"boosterAppointments":0,"boosterCap":0,"brands":[2],"driveThrough":0,"wheelchairAccessible":1,"mobilityHelp":0,"deafAccommodations":1,"blindAccommodations":0,"paperworkAssistance":1,"seatingAvailable":1,"sensoryFriendly":0,"walkIn":1},{"name":"Carlsbad Walmart Pharmacy","locationId":152,"city":"Carlsbad","lat":32.39343347,"lng":-104.22315969,"startTime":"09:00:00","endTime":"18:30:00","date":"2021-07-02","address1":"2401 S Canal St","zip":"88220-65","primaryAppointments":2,"primaryCap":2,"boosterAppointments":28,"boosterCap":38,"brands":[2],"driveThrough":0,"wheelchairAccessible":1,"mobilityHelp":0,"deafAccommodations":1,"blindAccommodations":0,"paperworkAssistance":1,"seatingAvailable":1,"sensoryFriendly":0,"walkIn":1},{"name":"Alamogordo Walmart Supercenter Pharmacy","locationId":153,"city":"Alamogordo","lat":32.887054,"lng":-105.95864706,"startTime":"08:30:00","endTime":"17:00:00","date":"2021-07-02","address1":"233 S New York Ave","zip":"88310","primaryAppointments":5,"primaryCap":5,"boosterAppointments":28,"boosterCap":31,"brands":[2],"driveThrough":0,"wheelchairAccessible":1,"mobilityHelp":0,"deafAccommodations":1,"blindAccommodations":1,"paperworkAssistance":1,"seatingAvailable":1,"sensoryFriendly":0,"walkIn":1},{"name":"Silver City Walmart Pharmacy","locationId":154,"city":"Silver City","lat":32.78863751,"lng":-108.24787823,"startTime":"08:00:00","endTime":"18:30:00","date":"2021-07-02","address1":"2501 Highway 180 E","zip":"88061","primaryAppointments":4,"primaryCap":38,"boosterAppointments":0,"boosterCap":0,"brands":[3],"driveThrough":0,"wheelchairAccessible":1,"mobilityHelp":0,"deafAccommodations":1,"blindAccommodations":1,"paperworkAssistance":1,"seatingAvailable":1,"sensoryFriendly":0,"walkIn":1},{"name":"Truth or Consequences Walmart Pharmacy","locationId":155,"city":"Truth or Consequences","lat":33.15192129,"lng":-107.25076696,"startTime":"09:30:00","endTime":"18:30:00","date":"2021-07-02","address1":"2001 HR Ashbaugh Dr","zip":"87901-37","primaryAppointments":0,"primaryCap":33,"boosterAppointments":1,"boosterCap":5,"brands":[2],"driveThrough":0,"wheelchairAccessible":1,"mobilityHelp":0,"deafAccommodations":1,"blindAccommodations":1,"paperworkAssistance":1,"seatingAvailable":1,"sensoryFriendly":0,"walkIn":1},{"name":"Las Cruces Walmart Pharmacy S. Valley Dr.","locationId":156,"city":"Las Cruces","lat":32.28808791,"lng":-106.78587356,"startTime":"09:30:00","endTime":"18:30:00","date":"2021-07-02","address1":"1550 S Valley Dr","zip":"88005-31","primaryAppointments":8,"primaryCap":36,"boosterAppointments":0,"boosterCap":0,"brands":[3],"driveThrough":0,"wheelchairAccessible":1,"mobilityHelp":0,"deafAccommodations":1,"blindAccommodations":0,"paperworkAssistance":1,"seatingAvailable":1,"sensoryFriendly":0,"walkIn":1},{"name":"Deming Walmart Pharmacy","locationId":157,"city":"Deming","lat":32.27045168,"lng":-107.74769491,"startTime":"09:30:00","endTime":"18:30:00","date":"2021-07-02","address1":"1021 E Pine St","zip":"88030-70","primaryAppointments":3,"primaryCap":30,"boosterAppointments":2,"boosterCap":4,"brands":[2],"driveThrough":0,"wheelchairAccessible":1,"mobilityHelp":0,"deafAccommodations":1,"blindAccommodations":0,"paperworkAssistance":1,"seatingAvailable":1,"sensoryFriendly":0,"walkIn":1},{"name":"Walmart - Neighborhood Market-Sonoma Ranch","locationId":158,"city":"Las Cruces","lat":32.32727632,"lng":-106.72326175,"startTime":"09:30:00","endTime":"17:30:00","date":"2021-07-02","address1":"150 N Sonoma Ranch Blvd","zip":"88001-16","primaryAppointments":1,"primaryCap":13,"boosterAppointments":1,"boosterCap":1,"brands":[2],"driveThrough":0,"wheelchairAccessible":null,"mobilityHelp":null,"deafAccommodations":null,"blindAccommodations":null,"paperworkAssistance":null,"seatingAvailable":null,"sensoryFriendly":null,"walkIn":1},{"name":"Walmart Neighborhood Market - Alamogordo Indian Wells","locationId":159,"city":"Alamogordo","lat":32.9159433,"lng":-105.931196,"startTime":"11:00:00","endTime":"13:30:00","date":"2021-07-02","address1":"2401 Indian Wells Rd.","zip":"88310-38","primaryAppointments":2,"primaryCap":5,"boosterAppointments":1,"boosterCap":1,"brands":[3],"driveThrough":0,"wheelchairAccessible":null,"mobilityHelp":null,"deafAccommodations":null,"blindAccommodations":null,"paperworkAssistance":null,"seatingAvailable":null,"sensoryFriendly":null,"walkIn":1},{"name":"Walmart Neighborhood Market 5675 Menaul and Juan Tabo","locationId":160,"city":"Albuquerque","lat":35.10928475,"lng":-106.51840828,"startTime":"09:00:00","endTime":"18:00:00","date":"2021-07-02","address1":"11001 Menaul Blvd","zip":"87112","primaryAppointments":0,"primaryCap":48,"boosterAppointments":4,"boosterCap":48,"brands":[1,2],"driveThrough":0,"wheelchairAccessible":1,"mobilityHelp":1,"deafAccommodations":1,"blindAccommodations":1,"paperworkAssistance":1,"seatingAvailable":1,"sensoryFriendly":0,"walkIn":1},{"name":"Walmart Clovis","locationId":161,"city":"Clovis","lat":34.43711823,"lng":-103.2006662,"startTime":"10:00:00","endTime":"17:30:00","date":"2021-07-02","address1":"3728 N Prince St","zip":"88101-97","primaryAppointments":3,"primaryCap":12,"boosterAppointments":6,"boosterCap":6,"brands":[2],"driveThrough":0,"wheelchairAccessible":1,"mobilityHelp":0,"deafAccommodations":0,"blindAccommodations":0,"paperworkAssistance":1,"seatingAvailable":1,"sensoryFriendly":0,"walkIn":1},{"name":"Walmart - Portales","locationId":162,"city":"Portales","lat":34.19790879,"lng":-103.31932888,"startTime":"09:30:00","endTime":"13:00:00","date":"2021-07-02","address1":"1604 E Spruce St","zip":"88130-94","primaryAppointments":3,"primaryCap":7,"boosterAppointments":9,"boosterCap":9,"brands":[2],"driveThrough":0,"wheelchairAccessible":null,"mobilityHelp":null,"deafAccommodations":null,"blindAccommodations":null,"paperworkAssistance":null,"seatingAvailable":null,"sensoryFriendly":null,"walkIn":1},{"name":"NHM Golf Course Moderna Walkin","locationId":163,"city":"Albuquerque","lat":35.17995036,"lng":-106.69015597,"startTime":"08:00:00","endTime":"17:30:00","date":"2021-07-02","address1":"8511 Golf Course Rd NW","zip":"87114-48","primaryAppointments":0,"primaryCap":12,"boosterAppointments":0,"boosterCap":12,"brands":[2],"driveThrough":0,"wheelchairAccessible":1,"mobilityHelp":1,"deafAccommodations":1,"blindAccommodations":0,"paperworkAssistance":1,"seatingAvailable":1,"sensoryFriendly":1,"walkIn":0},{"name":"Las Vegas Walmart Pharmacy","locationId":165,"city":"Las Vegas","lat":35.62001926,"lng":-105.22765362,"startTime":"09:30:00","endTime":"18:00:00","date":"2021-07-02","address1":"2609 7th St","zip":"87701-48","primaryAppointments":1,"primaryCap":15,"boosterAppointments":2,"boosterCap":15,"brands":[2],"driveThrough":0,"wheelchairAccessible":1,"mobilityHelp":0,"deafAccommodations":0,"blindAccommodations":0,"paperworkAssistance":1,"seatingAvailable":1,"sensoryFriendly":0,"walkIn":1},{"name":"Walmart-Belen-1414","locationId":166,"city":"Belen","lat":34.69695185,"lng":-106.76842281,"startTime":"09:30:00","endTime":"16:30:00","date":"2021-07-02","address1":"1 I 25 Bypass","zip":"87002-81","primaryAppointments":6,"primaryCap":6,"boosterAppointments":8,"boosterCap":8,"brands":[2],"driveThrough":0,"wheelchairAccessible":1,"mobilityHelp":0,"deafAccommodations":0,"blindAccommodations":0,"paperworkAssistance":1,"seatingAvailable":1,"sensoryFriendly":1,"walkIn":1},{"name":"Walmart- Grants","locationId":167,"city":"Grants","lat":35.12471005,"lng":-107.82645008,"startTime":"09:30:00","endTime":"16:30:00","date":"2021-07-02","address1":"1000 Robert Rd","zip":"87020-40","primaryAppointments":4,"primaryCap":10,"boosterAppointments":5,"boosterCap":10,"brands":[2],"driveThrough":0,"wheelchairAccessible":1,"mobilityHelp":0,"deafAccommodations":1,"blindAccommodations":0,"paperworkAssistance":1,"seatingAvailable":1,"sensoryFriendly":1,"walkIn":1},{"name":"Walmart - Coors I-40--2924","locationId":169,"city":"Albuquerque","lat":35.10998404,"lng":-106.7016564,"startTime":"10:00:00","endTime":"16:30:00","date":"2021-07-02","address1":"2550 Coors Blvd NW","zip":"87120","primaryAppointments":5,"primaryCap":10,"boosterAppointments":6,"boosterCap":20,"brands":[2],"driveThrough":0,"wheelchairAccessible":1,"mobilityHelp":0,"deafAccommodations":0,"blindAccommodations":0,"paperworkAssistance":0,"seatingAvailable":1,"sensoryFriendly":0,"walkIn":1},{"name":"Walmart - Santa Fe Herrera 3423","locationId":170,"city":"Santa Fe","lat":35.61961019,"lng":-106.03256585,"startTime":"09:30:00","endTime":"13:00:00","date":"2021-07-02","address1":"5701 Herrera Dr","zip":"87507-26","primaryAppointments":1,"primaryCap":6,"boosterAppointments":8,"boosterCap":8,"brands":[2],"driveThrough":0,"wheelchairAccessible":1,"mobilityHelp":0,"deafAccommodations":1,"blindAccommodations":1,"paperworkAssistance":1,"seatingAvailable":1,"sensoryFriendly":0,"walkIn":1},{"name":"Walmart Pharmacy Los Lunas Moderna Vaccine","locationId":171,"city":"Los Lunas","lat":34.81653781,"lng":-106.76357181,"startTime":"10:00:00","endTime":"13:00:00","date":"2021-07-02","address1":"2250 Main St NW","zip":"87031-48","primaryAppointments":4,"primaryCap":20,"boosterAppointments":0,"boosterCap":0,"brands":[2],"driveThrough":0,"wheelchairAccessible":1,"mobilityHelp":0,"deafAccommodations":0,"blindAccommodations":1,"paperworkAssistance":1,"seatingAvailable":1,"sensoryFriendly":0,"walkIn":1},{"name":"Walmart-Bernalillo 3731","locationId":172,"city":"Bernalillo","lat":35.3194959,"lng":-106.57174681,"startTime":"09:00:00","endTime":"16:00:00","date":"2021-07-02","address1":"460 Highway 528","zip":"87004-66","primaryAppointments":1,"primaryCap":16,"boosterAppointments":4,"boosterCap":17,"brands":[2],"driveThrough":0,"wheelchairAccessible":1,"mobilityHelp":0,"deafAccommodations":1,"blindAccommodations":1,"paperworkAssistance":1,"seatingAvailable":1,"sensoryFriendly":1,"walkIn":1},{"name":"Walmart Neighborhood Market Cutler Store 2451","locationId":173,"city":"Albuquerque","lat":35.10440027,"lng":-106.59275797,"startTime":"09:00:00","endTime":"17:30:00","date":"2021-07-02","address1":"4700 Cutler Ave NE","zip":"87110-40","primaryAppointments":2,"primaryCap":15,"boosterAppointments":1,"boosterCap":15,"brands":[2],"driveThrough":0,"wheelchairAccessible":1,"mobilityHelp":0,"deafAccommodations":0,"blindAccommodations":0,"paperworkAssistance":1,"seatingAvailable":1,"sensoryFriendly":1,"walkIn":1},{"name":"Walmart Neighborhood Market 3385 Sage & 98th","locationId":174,"city":"Albuquerque","lat":35.05426216,"lng":-106.73944857,"startTime":"10:00:00","endTime":"14:30:00","date":"2021-07-02","address1":"9600 Sage Rd SW","zip":"87121-68","primaryAppointments":5,"primaryCap":6,"boosterAppointments":3,"boosterCap":3,"brands":[2,3],"driveThrough":0,"wheelchairAccessible":1,"mobilityHelp":0,"deafAccommodations":1,"blindAccommodations":1,"paperworkAssistance":0,"seatingAvailable":1,"sensoryFriendly":1,"walkIn":1},{"name":"Walmart - Unser/southern - 3732","locationId":175,"city":"Rio Rancho","lat":35.24247368,"lng":-106.7006612,"startTime":"09:00:00","endTime":"12:00:00","date":"2021-07-02","address1":"901 Unser Blvd SE","zip":"87124-63","primaryAppointments":4,"primaryCap":4,"boosterAppointments":6,"boosterCap":8,"brands":[2],"driveThrough":0,"wheelchairAccessible":1,"mobilityHelp":0,"deafAccommodations":0,"blindAccommodations":0,"paperworkAssistance":1,"seatingAvailable":1,"sensoryFriendly":1,"walkIn":1},{"name":"walmart 3512 montgomery","locationId":176,"city":"Albuquerque","lat":35.12915803,"lng":-106.51781202,"startTime":"09:00:00","endTime":"18:00:00","date":"2021-07-02","address1":"11018 Montgomery Blvd NE","zip":"87111-39","primaryAppointments":6,"primaryCap":44,"boosterAppointments":0,"boosterCap":0,"brands":[2],"driveThrough":0,"wheelchairAccessible":1,"mobilityHelp":0,"deafAccommodations":1,"blindAccommodations":1,"paperworkAssistance":0,"seatingAvailable":1,"sensoryFriendly":1,"walkIn":1},{"name":"Walmart Neighborhood Market 3517 Rio Rancho Hwy 528","locationId":177,"city":"Rio Rancho","lat":35.23879697,"lng":-106.65842245,"startTime":"08:00:00","endTime":"17:30:00","date":"2021-07-02","address1":"1115 NM Hwy 528 SE","zip":"87124-00","primaryAppointments":2,"primaryCap":23,"boosterAppointments":2,"boosterCap":17,"brands":[2],"driveThrough":0,"wheelchairAccessible":1,"mobilityHelp":0,"deafAccommodations":1,"blindAccommodations":1,"paperworkAssistance":0,"seatingAvailable":1,"sensoryFriendly":1,"walkIn":1},{"name":"Walmart Neighborhood Market- Unser/Ladera","locationId":178,"city":"Albuquerque","lat":35.10228264,"lng":-106.72844695,"startTime":"09:30:00","endTime":"18:30:00","date":"2021-07-02","address1":"1820 Unser Blvd NW","zip":"87120-39","primaryAppointments":2,"primaryCap":16,"boosterAppointments":7,"boosterCap":7,"brands":[2],"driveThrough":0,"wheelchairAccessible":1,"mobilityHelp":0,"deafAccommodations":0,"blindAccommodations":0,"paperworkAssistance":0,"seatingAvailable":1,"sensoryFriendly":1,"walkIn":1},{"name":"Walmart - Edgewood-4201","locationId":179,"city":"Edgewood","lat":35.07051708,"lng":-106.18902695,"startTime":"09:00:00","endTime":"15:00:00","date":"2021-07-02","address1":"66 State Road 344","zip":"87015-68","primaryAppointments":2,"primaryCap":8,"boosterAppointments":2,"boosterCap":2,"brands":[2],"driveThrough":0,"wheelchairAccessible":1,"mobilityHelp":0,"deafAccommodations":0,"blindAccommodations":0,"paperworkAssistance":1,"seatingAvailable":1,"sensoryFriendly":0,"walkIn":1},{"name":"Walmart - Rio Bravo & Coors- 5430","locationId":181,"city":"Albuquerque","lat":35.02566256,"lng":-106.71093118,"startTime":"09:30:00","endTime":"16:30:00","date":"2021-07-02","address1":"3500 Coors Blvd SW","zip":"87121-52","primaryAppointments":1,"primaryCap":22,"boosterAppointments":3,"boosterCap":21,"brands":[2],"driveThrough":0,"wheelchairAccessible":1,"mobilityHelp":0,"deafAccommodations":1,"blindAccommodations":1,"paperworkAssistance":1,"seatingAvailable":1,"sensoryFriendly":1,"walkIn":1},{"name":"El Centro Family Health - Rio Arriba Health Commons","locationId":185,"city":"Espanola","lat":36.00669009,"lng":-106.10699021,"startTime":"09:00:00","endTime":"11:00:00","date":"2021-07-02","address1":"2010 Industrial Park Road","zip":"87532","primaryAppointments":4,"primaryCap":11,"boosterAppointments":5,"boosterCap":9,"brands":[2],"driveThrough":0,"wheelchairAccessible":1,"mobilityHelp":1,"deafAccommodations":1,"blindAccommodations":1,"paperworkAssistance":1,"seatingAvailable":1,"sensoryFriendly":1,"walkIn":1},{"name":"El Centro Family Health - Taos Clinic","locationId":186,"city":"Taos","lat":36.37220781,"lng":-105.59077082,"startTime":"09:00:00","endTime":"10:30:00","date":"2021-07-02","address1":"1331 Gusdorf Road","zip":"87571","primaryAppointments":3,"primaryCap":3,"boosterAppointments":3,"boosterCap":3,"brands":[1],"driveThrough":0,"wheelchairAccessible":1,"mobilityHelp":1,"deafAccommodations":1,"blindAccommodations":0,"paperworkAssistance":1,"seatingAvailable":1,"sensoryFriendly":1,"walkIn":1},{"name":"El Centro Family Health Penasco","locationId":187,"city":"Penasco","lat":36.17198774,"lng":-105.68388285,"startTime":"13:00:00","endTime":"16:00:00","date":"2021-07-02","address1":"15136 State Hwy 75","zip":"87553","primaryAppointments":2,"primaryCap":8,"boosterAppointments":4,"boosterCap":12,"brands":[2],"driveThrough":1,"wheelchairAccessible":1,"mobilityHelp":1,"deafAccommodations":0,"blindAccommodations":0,"paperworkAssistance":1,"seatingAvailable":1,"sensoryFriendly":1,"walkIn":1},{"name":"Walgrrens 4047","locationId":189,"city":"Albuquerque","lat":35.08010331,"lng":-106.71201017,"startTime":"09:00:00","endTime":"17:00:00","date":"2021-07-02","address1":"101 COORS BLVD NW","zip":"87121","primaryAppointments":12,"primaryCap":15,"boosterAppointments":1,"boosterCap":15,"brands":[1],"driveThrough":1,"wheelchairAccessible":1,"mobilityHelp":1,"deafAccommodations":1,"blindAccommodations":1,"paperworkAssistance":1,"seatingAvailable":1,"sensoryFriendly":0,"walkIn":1},{"name":"Walgreens #15607","locationId":191,"city":"GRANTS","lat":35.12910308,"lng":-107.8289911,"startTime":"11:30:00","endTime":"15:00:00","date":"2021-07-02","address1":"1509 E SANTA FE AVE","zip":"87020-40","primaryAppointments":6,"primaryCap":6,"boosterAppointments":0,"boosterCap":0,"brands":[1],"driveThrough":0,"wheelchairAccessible":null,"mobilityHelp":null,"deafAccommodations":null,"blindAccommodations":null,"paperworkAssistance":null,"seatingAvailable":null,"sensoryFriendly":null,"walkIn":1},{"name":"Walgreens #4421","locationId":192,"city":"LAS CRUCES","lat":32.34144666,"lng":-106.77439685,"startTime":"12:30:00","endTime":"13:00:00","date":"2021-07-02","address1":"3100 N MAIN ST","zip":"88001-11","primaryAppointments":1,"primaryCap":5,"boosterAppointments":0,"boosterCap":0,"brands":[1],"driveThrough":0,"wheelchairAccessible":1,"mobilityHelp":1,"deafAccommodations":1,"blindAccommodations":1,"paperworkAssistance":1,"seatingAvailable":1,"sensoryFriendly":1,"walkIn":1},{"name":"Walgreens #3934","locationId":193,"city":"Santa Fe","lat":34.80242656,"lng":-106.72971277,"startTime":"09:30:00","endTime":"10:30:00","date":"2021-07-02","address1":"3298 CERRILLOS RD","zip":"87507-29","primaryAppointments":0,"primaryCap":0,"boosterAppointments":2,"boosterCap":20,"brands":[2],"driveThrough":0,"wheelchairAccessible":1,"mobilityHelp":0,"deafAccommodations":0,"blindAccommodations":0,"paperworkAssistance":0,"seatingAvailable":1,"sensoryFriendly":0,"walkIn":0},{"name":"Albertson's - HOBBS","locationId":236,"city":"HOBBS","lat":32.72689521,"lng":-103.14410582,"startTime":"11:00:00","endTime":"13:30:00","date":"2021-07-02","address1":"2402 N. GRIMES","zip":"88220","primaryAppointments":4,"primaryCap":10,"boosterAppointments":0,"boosterCap":0,"brands":[2],"driveThrough":0,"wheelchairAccessible":null,"mobilityHelp":null,"deafAccommodations":null,"blindAccommodations":null,"paperworkAssistance":null,"seatingAvailable":null,"sensoryFriendly":null,"walkIn":1},{"name":"Albertsons Market Pharmacy 682","locationId":238,"city":"RUIDOSO","lat":33.34738969,"lng":-105.67632819,"startTime":"10:30:00","endTime":"16:30:00","date":"2021-07-02","address1":"721 MECHEM DRIVE","zip":"88345","primaryAppointments":0,"primaryCap":12,"boosterAppointments":0,"boosterCap":12,"brands":[2,3],"driveThrough":0,"wheelchairAccessible":1,"mobilityHelp":1,"deafAccommodations":0,"blindAccommodations":0,"paperworkAssistance":1,"seatingAvailable":1,"sensoryFriendly":1,"walkIn":1},{"name":"Albertsons Pharmacy","locationId":239,"city":"ROSWELL","lat":33.38072826,"lng":-104.52503745,"startTime":"10:00:00","endTime":"13:00:00","date":"2021-07-02","address1":"1110 S. MAIN ST.","zip":"88203","primaryAppointments":5,"primaryCap":30,"boosterAppointments":0,"boosterCap":0,"brands":[3],"driveThrough":0,"wheelchairAccessible":1,"mobilityHelp":1,"deafAccommodations":0,"blindAccommodations":0,"paperworkAssistance":1,"seatingAvailable":1,"sensoryFriendly":1,"walkIn":1},{"name":"Albertson's - ABQ Montgomery","locationId":242,"city":"Albuquerque","lat":35.12904195,"lng":-106.58876811,"startTime":"12:00:00","endTime":"18:30:00","date":"2021-07-02","address1":"4950 MONTGOMERY BLVD NE","zip":"87109","primaryAppointments":2,"primaryCap":8,"boosterAppointments":9,"boosterCap":10,"brands":[1],"driveThrough":0,"wheelchairAccessible":1,"mobilityHelp":0,"deafAccommodations":1,"blindAccommodations":1,"paperworkAssistance":1,"seatingAvailable":1,"sensoryFriendly":0,"walkIn":1},{"name":"Albertsons Eubank","locationId":244,"city":"Albuquerque","lat":35.11438645,"lng":-106.53530839,"startTime":"12:00:00","endTime":"16:00:00","date":"2021-07-02","address1":"2801 EUBANK BLVD NE STE A","zip":"87112","primaryAppointments":5,"primaryCap":5,"boosterAppointments":1,"boosterCap":1,"brands":[1],"driveThrough":0,"wheelchairAccessible":1,"mobilityHelp":0,"deafAccommodations":0,"blindAccommodations":1,"paperworkAssistance":0,"seatingAvailable":1,"sensoryFriendly":0,"walkIn":0},{"name":"Albertson's Coors and Montano","locationId":245,"city":"Albuquerque","lat":35.15192319,"lng":-106.68308526,"startTime":"10:30:00","endTime":"19:30:00","date":"2021-07-02","address1":"6200 COORS BLVD NW","zip":"87120","primaryAppointments":24,"primaryCap":24,"boosterAppointments":18,"boosterCap":17,"brands":[1],"driveThrough":0,"wheelchairAccessible":1,"mobilityHelp":0,"deafAccommodations":0,"blindAccommodations":0,"paperworkAssistance":0,"seatingAvailable":1,"sensoryFriendly":0,"walkIn":0},{"name":"Albertsons on Rio Bravo & Isleta","locationId":246,"city":"Albuquerque","lat":35.02808314,"lng":-106.68270522,"startTime":"11:00:00","endTime":"20:00:00","date":"2021-07-02","address1":"1625 RIO BRAVO BLVD SW","zip":"87105","primaryAppointments":9,"primaryCap":340,"boosterAppointments":3,"boosterCap":345,"brands":[2],"driveThrough":0,"wheelchairAccessible":1,"mobilityHelp":1,"deafAccommodations":1,"blindAccommodations":1,"paperworkAssistance":1,"seatingAvailable":1,"sensoryFriendly":1,"walkIn":1},{"name":"Albertsons Los Lunas","locationId":247,"city":"LOS LUNAS","lat":34.80334699,"lng":-106.70457543,"startTime":"10:00:00","endTime":"16:00:00","date":"2021-07-02","address1":"2351 MAIN STREET SE","zip":"87031","primaryAppointments":7,"primaryCap":7,"boosterAppointments":12,"boosterCap":12,"brands":[1],"driveThrough":0,"wheelchairAccessible":1,"mobilityHelp":0,"deafAccommodations":0,"blindAccommodations":0,"paperworkAssistance":1,"seatingAvailable":1,"sensoryFriendly":1,"walkIn":1},{"name":"Albertson's - TAOS","locationId":248,"city":"Taos","lat":36.39167359,"lng":-105.58310168,"startTime":"10:00:00","endTime":"18:00:00","date":"2021-07-02","address1":"710 PASEO DEL PUEBLO SUR STE A","zip":"87571","primaryAppointments":3,"primaryCap":3,"boosterAppointments":9,"boosterCap":10,"brands":[2,3],"driveThrough":0,"wheelchairAccessible":1,"mobilityHelp":1,"deafAccommodations":1,"blindAccommodations":0,"paperworkAssistance":1,"seatingAvailable":1,"sensoryFriendly":1,"walkIn":1},{"name":"Albertson's - RIO RANCHO Enchanted Hills","locationId":249,"city":"RIO RANCHO","lat":35.32304677,"lng":-106.57716273,"startTime":"10:00:00","endTime":"16:00:00","date":"2021-07-02","address1":"7800 ENCHANTED HILLS BLVD NE","zip":"87144","primaryAppointments":8,"primaryCap":8,"boosterAppointments":10,"boosterCap":10,"brands":[1],"driveThrough":0,"wheelchairAccessible":1,"mobilityHelp":0,"deafAccommodations":1,"blindAccommodations":1,"paperworkAssistance":1,"seatingAvailable":1,"sensoryFriendly":1,"walkIn":0},{"name":"Albertsons Pharmacy Ventura","locationId":250,"city":"Albuquerque","lat":35.17507376,"lng":-106.54095736,"startTime":"11:00:00","endTime":"16:30:00","date":"2021-07-02","address1":"8100 VENTURA ST NE","zip":"87122","primaryAppointments":1,"primaryCap":1,"boosterAppointments":15,"boosterCap":17,"brands":[1],"driveThrough":0,"wheelchairAccessible":1,"mobilityHelp":0,"deafAccommodations":0,"blindAccommodations":0,"paperworkAssistance":0,"seatingAvailable":1,"sensoryFriendly":0,"walkIn":1},{"name":"MarketStreet Pharmacy #927","locationId":251,"city":"Santa Fe","lat":35.6930939,"lng":-105.95171933,"startTime":"10:30:00","endTime":"15:00:00","date":"2021-07-02","address1":"600 N GUADALUPE ST","zip":"87501","primaryAppointments":10,"primaryCap":12,"boosterAppointments":12,"boosterCap":13,"brands":[1],"driveThrough":0,"wheelchairAccessible":1,"mobilityHelp":0,"deafAccommodations":0,"blindAccommodations":0,"paperworkAssistance":0,"seatingAvailable":1,"sensoryFriendly":0,"walkIn":1},{"name":"Albertson's on Lomas","locationId":252,"city":"Albuquerque","lat":35.08736141,"lng":-106.51649462,"startTime":"11:00:00","endTime":"15:30:00","date":"2021-07-02","address1":"11825 LOMAS BLVD NE","zip":"87122","primaryAppointments":5,"primaryCap":6,"boosterAppointments":7,"boosterCap":8,"brands":[1],"driveThrough":0,"wheelchairAccessible":1,"mobilityHelp":1,"deafAccommodations":1,"blindAccommodations":1,"paperworkAssistance":1,"seatingAvailable":1,"sensoryFriendly":0,"walkIn":1},{"name":"Albertson's - ABQ WYOMING","locationId":254,"city":"Albuquerque","lat":35.15999804,"lng":-106.56136197,"startTime":"10:00:00","endTime":"15:00:00","date":"2021-07-02","address1":"7101 WYOMING BLVD NE","zip":"87109","primaryAppointments":11,"primaryCap":11,"boosterAppointments":15,"boosterCap":19,"brands":[1],"driveThrough":0,"wheelchairAccessible":1,"mobilityHelp":1,"deafAccommodations":0,"blindAccommodations":0,"paperworkAssistance":1,"seatingAvailable":1,"sensoryFriendly":1,"walkIn":1},{"name":"El Centro Family Health - Las Vegas","locationId":274,"city":"Las Vegas","lat":35.60150832,"lng":-105.22352676,"startTime":"13:00:00","endTime":"13:30:00","date":"2021-07-02","address1":"1235 8th Street","zip":"87701","primaryAppointments":1,"primaryCap":3,"boosterAppointments":2,"boosterCap":3,"brands":[2],"driveThrough":1,"wheelchairAccessible":1,"mobilityHelp":1,"deafAccommodations":1,"blindAccommodations":1,"paperworkAssistance":1,"seatingAvailable":1,"sensoryFriendly":1,"walkIn":1},{"name":"Sam's Club","locationId":291,"city":"Albuquerque","lat":35.20942482,"lng":-106.65847003,"startTime":"10:00:00","endTime":"15:30:00","date":"2021-07-02","address1":"10600 Coors Bypass NW","zip":"87114","primaryAppointments":3,"primaryCap":8,"boosterAppointments":0,"boosterCap":8,"brands":[2],"driveThrough":0,"wheelchairAccessible":1,"mobilityHelp":1,"deafAccommodations":1,"blindAccommodations":1,"paperworkAssistance":1,"seatingAvailable":1,"sensoryFriendly":1,"walkIn":1},{"name":"Sam's Club - Farmington","locationId":292,"city":"Farmington","lat":36.7660891,"lng":-108.15399606,"startTime":"09:30:00","endTime":"17:00:00","date":"2021-07-02","address1":"4500 E Main St","zip":"87402","primaryAppointments":3,"primaryCap":26,"boosterAppointments":0,"boosterCap":0,"brands":[3],"driveThrough":0,"wheelchairAccessible":1,"mobilityHelp":1,"deafAccommodations":1,"blindAccommodations":1,"paperworkAssistance":1,"seatingAvailable":1,"sensoryFriendly":1,"walkIn":1},{"name":"Roden Smith Pharmacy","locationId":312,"city":"Clovis","lat":34.43330721,"lng":-103.20588339,"startTime":"10:00:00","endTime":"17:00:00","date":"2021-07-02","address1":"305 E. Llano Estacado","zip":"88101","primaryAppointments":15,"primaryCap":30,"boosterAppointments":2,"boosterCap":30,"brands":[2],"driveThrough":0,"wheelchairAccessible":1,"mobilityHelp":0,"deafAccommodations":1,"blindAccommodations":0,"paperworkAssistance":1,"seatingAvailable":1,"sensoryFriendly":1,"walkIn":1},{"name":"Walgreens #1941","locationId":358,"city":"ROSWELL","lat":33.37875543,"lng":-104.52403081,"startTime":"10:00:00","endTime":"12:30:00","date":"2021-07-02","address1":"1200 S MAIN ST","zip":"88203-55","primaryAppointments":6,"primaryCap":10,"boosterAppointments":1,"boosterCap":10,"brands":[2],"driveThrough":0,"wheelchairAccessible":1,"mobilityHelp":0,"deafAccommodations":0,"blindAccommodations":0,"paperworkAssistance":1,"seatingAvailable":1,"sensoryFriendly":0,"walkIn":1},{"name":"Walgreens #4649","locationId":361,"city":"Albuquerque","lat":35.08780625,"lng":-106.60531441,"startTime":"11:00:00","endTime":"17:00:00","date":"2021-07-02","address1":"3501 LOMAS BLVD NE","zip":"87106-13","primaryAppointments":6,"primaryCap":24,"boosterAppointments":0,"boosterCap":0,"brands":[1],"driveThrough":0,"wheelchairAccessible":1,"mobilityHelp":1,"deafAccommodations":1,"blindAccommodations":1,"paperworkAssistance":1,"seatingAvailable":1,"sensoryFriendly":1,"walkIn":1},{"name":"Walgreens Las Vegas ","locationId":362,"city":"LAS VEGAS","lat":35.60625138,"lng":-105.2225507,"startTime":"10:00:00","endTime":"12:00:00","date":"2021-07-02","address1":"620 MILLS AVE","zip":"87701-46","primaryAppointments":0,"primaryCap":12,"boosterAppointments":0,"boosterCap":12,"brands":[2],"driveThrough":0,"wheelchairAccessible":1,"mobilityHelp":1,"deafAccommodations":0,"blindAccommodations":0,"paperworkAssistance":1,"seatingAvailable":1,"sensoryFriendly":1,"walkIn":1},{"name":"Walgreens #5731 @ GOLF COURSE & PARADISE","locationId":365,"city":"Albuquerque","lat":35.18763823,"lng":-106.68417136,"startTime":"10:00:00","endTime":"17:00:00","date":"2021-07-02","address1":"9500 GOLF COURSE RD NW","zip":"87114-42","primaryAppointments":12,"primaryCap":13,"boosterAppointments":10,"boosterCap":11,"brands":[1],"driveThrough":0,"wheelchairAccessible":1,"mobilityHelp":0,"deafAccommodations":0,"blindAccommodations":0,"paperworkAssistance":0,"seatingAvailable":1,"sensoryFriendly":0,"walkIn":0},{"name":"Walgreens","locationId":368,"city":"LAS CRUCES","lat":32.3115233,"lng":-106.75245752,"startTime":"09:00:00","endTime":"16:30:00","date":"2021-07-02","address1":"2300 E LOHMAN AVE","zip":"88001-84","primaryAppointments":1,"primaryCap":10,"boosterAppointments":0,"boosterCap":0,"brands":[3],"driveThrough":0,"wheelchairAccessible":1,"mobilityHelp":0,"deafAccommodations":0,"blindAccommodations":0,"paperworkAssistance":0,"seatingAvailable":1,"sensoryFriendly":1,"walkIn":1},{"name":"Walgreens in Edgewood ","locationId":369,"city":"EDGEWOOD","lat":35.06048159,"lng":-106.19254119,"startTime":"10:00:00","endTime":"16:30:00","date":"2021-07-02","address1":"5 WALKER RD","zip":"87015-87","primaryAppointments":1,"primaryCap":9,"boosterAppointments":1,"boosterCap":1,"brands":[2],"driveThrough":0,"wheelchairAccessible":1,"mobilityHelp":0,"deafAccommodations":0,"blindAccommodations":1,"paperworkAssistance":1,"seatingAvailable":1,"sensoryFriendly":1,"walkIn":1},{"name":"Walgreens #4651","locationId":370,"city":"Albuquerque","lat":35.20496488,"lng":-106.65861506,"startTime":"11:00:00","endTime":"17:00:00","date":"2021-07-02","address1":"10236 COORS BYPASS NW","zip":"87114-40","primaryAppointments":0,"primaryCap":45,"boosterAppointments":0,"boosterCap":0,"brands":[2],"driveThrough":0,"wheelchairAccessible":1,"mobilityHelp":0,"deafAccommodations":0,"blindAccommodations":0,"paperworkAssistance":0,"seatingAvailable":1,"sensoryFriendly":1,"walkIn":1},{"name":"Walgreens #9773 Eubank/Central","locationId":372,"city":"Albuquerque","lat":35.07138833,"lng":-106.53405827,"startTime":"10:00:00","endTime":"15:00:00","date":"2021-07-02","address1":"10300 CENTRAL AVE SE","zip":"87123-27","primaryAppointments":0,"primaryCap":0,"boosterAppointments":17,"boosterCap":20,"brands":[2],"driveThrough":0,"wheelchairAccessible":1,"mobilityHelp":0,"deafAccommodations":0,"blindAccommodations":0,"paperworkAssistance":0,"seatingAvailable":1,"sensoryFriendly":1,"walkIn":0},{"name":"Walgreens #11360","locationId":374,"city":"Albuquerque","lat":35.12940871,"lng":-106.51596991,"startTime":"10:00:00","endTime":"11:30:00","date":"2021-07-02","address1":"11200 MONTGOMERY BLVD NE","zip":"87111-","primaryAppointments":6,"primaryCap":6,"boosterAppointments":0,"boosterCap":0,"brands":[1],"driveThrough":0,"wheelchairAccessible":1,"mobilityHelp":0,"deafAccommodations":0,"blindAccommodations":1,"paperworkAssistance":0,"seatingAvailable":1,"sensoryFriendly":1,"walkIn":1},{"name":"Walgreens","locationId":376,"city":"Albuquerque","lat":35.10821758,"lng":-106.53322387,"startTime":"09:30:00","endTime":"17:00:00","date":"2021-07-02","address1":"9700 MENAUL BLVD NE","zip":"87112-23","primaryAppointments":10,"primaryCap":15,"boosterAppointments":2,"boosterCap":15,"brands":[1],"driveThrough":0,"wheelchairAccessible":1,"mobilityHelp":1,"deafAccommodations":1,"blindAccommodations":1,"paperworkAssistance":1,"seatingAvailable":1,"sensoryFriendly":1,"walkIn":1},{"name":"Walgreens","locationId":377,"city":"Albuquerque","lat":35.04327939,"lng":-106.73787996,"startTime":"11:30:00","endTime":"15:00:00","date":"2021-07-02","address1":"9601 GIBSON BLVD SW","zip":"87121-81","primaryAppointments":9,"primaryCap":8,"boosterAppointments":7,"boosterCap":8,"brands":[1],"driveThrough":0,"wheelchairAccessible":1,"mobilityHelp":1,"deafAccommodations":1,"blindAccommodations":1,"paperworkAssistance":1,"seatingAvailable":1,"sensoryFriendly":1,"walkIn":1},{"name":"Walgreens Harper and Wyoming","locationId":378,"city":"Albuquerque","lat":35.15920189,"lng":-106.55912554,"startTime":"14:30:00","endTime":"17:00:00","date":"2021-07-02","address1":"8011 HARPER DR NE","zip":"87111-10","primaryAppointments":3,"primaryCap":6,"boosterAppointments":0,"boosterCap":0,"brands":[1],"driveThrough":0,"wheelchairAccessible":1,"mobilityHelp":0,"deafAccommodations":1,"blindAccommodations":1,"paperworkAssistance":1,"seatingAvailable":0,"sensoryFriendly":0,"walkIn":0},{"name":"Walgreens North","locationId":381,"city":"ROSWELL","lat":33.41501086,"lng":-104.52228783,"startTime":"08:00:00","endTime":"18:30:00","date":"2021-07-02","address1":"1835 N MAIN ST","zip":"88201-51","primaryAppointments":10,"primaryCap":20,"boosterAppointments":2,"boosterCap":20,"brands":[2],"driveThrough":0,"wheelchairAccessible":1,"mobilityHelp":1,"deafAccommodations":1,"blindAccommodations":1,"paperworkAssistance":1,"seatingAvailable":1,"sensoryFriendly":1,"walkIn":1},{"name":"Walgreens Pharmacy #6610","locationId":385,"city":"LOS LUNAS","lat":34.80687785,"lng":-106.7040704,"startTime":"09:00:00","endTime":"11:00:00","date":"2021-07-02","address1":"2500 MAIN ST NE","zip":"87031-63","primaryAppointments":0,"primaryCap":0,"boosterAppointments":8,"boosterCap":12,"brands":[1],"driveThrough":0,"wheelchairAccessible":1,"mobilityHelp":0,"deafAccommodations":1,"blindAccommodations":0,"paperworkAssistance":1,"seatingAvailable":1,"sensoryFriendly":1,"walkIn":0},{"name":"Walgreens #11458","locationId":386,"city":"LAS CRUCES","lat":32.31881077,"lng":-106.73233718,"startTime":"09:30:00","endTime":"12:00:00","date":"2021-07-02","address1":"3990 E LOHMAN AVE","zip":"88011-82","primaryAppointments":1,"primaryCap":30,"boosterAppointments":0,"boosterCap":0,"brands":[3],"driveThrough":0,"wheelchairAccessible":1,"mobilityHelp":0,"deafAccommodations":1,"blindAccommodations":1,"paperworkAssistance":1,"seatingAvailable":1,"sensoryFriendly":1,"walkIn":1},{"name":"Walgreens Pharmacy","locationId":389,"city":"BERNALILLO","lat":35.31853747,"lng":-106.54429519,"startTime":"10:30:00","endTime":"11:30:00","date":"2021-07-02","address1":"100 E HIGHWAY 550","zip":"87004-59","primaryAppointments":1,"primaryCap":6,"boosterAppointments":0,"boosterCap":0,"brands":[1],"driveThrough":0,"wheelchairAccessible":1,"mobilityHelp":0,"deafAccommodations":0,"blindAccommodations":0,"paperworkAssistance":1,"seatingAvailable":1,"sensoryFriendly":1,"walkIn":0},{"name":"Walgreens #15929","locationId":392,"city":"Albuquerque","lat":35.08129024,"lng":-106.63554206,"startTime":"10:00:00","endTime":"15:00:00","date":"2021-07-02","address1":"201 CEDAR ST SE","zip":"87106-49","primaryAppointments":0,"primaryCap":5,"boosterAppointments":1,"boosterCap":5,"brands":[2],"driveThrough":0,"wheelchairAccessible":1,"mobilityHelp":0,"deafAccommodations":0,"blindAccommodations":0,"paperworkAssistance":1,"seatingAvailable":1,"sensoryFriendly":1,"walkIn":1},{"name":"Walgreens #2053","locationId":395,"city":"Albuquerque","lat":35.19246704,"lng":-106.72754479,"startTime":"09:00:00","endTime":"19:30:00","date":"2021-07-02","address1":"6565 PARADISE BLVD NW","zip":"87114","primaryAppointments":1,"primaryCap":20,"boosterAppointments":0,"boosterCap":0,"brands":[2],"driveThrough":0,"wheelchairAccessible":1,"mobilityHelp":1,"deafAccommodations":1,"blindAccommodations":1,"paperworkAssistance":1,"seatingAvailable":1,"sensoryFriendly":1,"walkIn":1},{"name":"Walgreens (Rio Bravo & Isleta ) #15033","locationId":396,"city":"Albuquerque","lat":35.02756837,"lng":-106.68122751,"startTime":"11:00:00","endTime":"11:30:00","date":"2021-07-02","address1":"3401 ISLETA BLVD, SW","zip":"87105-58","primaryAppointments":0,"primaryCap":0,"boosterAppointments":4,"boosterCap":6,"brands":[1],"driveThrough":0,"wheelchairAccessible":1,"mobilityHelp":0,"deafAccommodations":0,"blindAccommodations":0,"paperworkAssistance":0,"seatingAvailable":1,"sensoryFriendly":1,"walkIn":1},{"name":"Walgreens Coors and Montano ","locationId":397,"city":"Albuquerque","lat":35.14886859,"lng":-106.68620619,"startTime":"10:00:00","endTime":"16:00:00","date":"2021-07-02","address1":"6000 COORS BLVD NW","zip":"87120-27","primaryAppointments":0,"primaryCap":0,"boosterAppointments":13,"boosterCap":18,"brands":[1],"driveThrough":0,"wheelchairAccessible":1,"mobilityHelp":1,"deafAccommodations":1,"blindAccommodations":1,"paperworkAssistance":1,"seatingAvailable":1,"sensoryFriendly":1,"walkIn":1},{"name":"Walgreens #4950","locationId":398,"city":"Clovis","lat":34.41894818,"lng":-103.19766022,"startTime":"10:00:00","endTime":"16:00:00","date":"2021-07-02","address1":"700 E 21ST ST","zip":"88101","primaryAppointments":1,"primaryCap":12,"boosterAppointments":0,"boosterCap":12,"brands":[2],"driveThrough":0,"wheelchairAccessible":null,"mobilityHelp":null,"deafAccommodations":null,"blindAccommodations":null,"paperworkAssistance":null,"seatingAvailable":null,"sensoryFriendly":null,"walkIn":1},{"name":"Walgreens #7442","locationId":401,"city":"Albuquerque","lat":35.05366524,"lng":-106.72309711,"startTime":"10:00:00","endTime":"16:30:00","date":"2021-07-02","address1":"1201 UNSER BLVD SW","zip":"87121-78","primaryAppointments":3,"primaryCap":3,"boosterAppointments":24,"boosterCap":24,"brands":[1],"driveThrough":0,"wheelchairAccessible":1,"mobilityHelp":0,"deafAccommodations":0,"blindAccommodations":0,"paperworkAssistance":1,"seatingAvailable":1,"sensoryFriendly":1,"walkIn":1},{"name":"Walgreens","locationId":403,"city":"RIO RANCHO","lat":35.32204424,"lng":-106.57595642,"startTime":"09:30:00","endTime":"12:30:00","date":"2021-07-02","address1":"7850 ENCHANTED HILLS BLVD NE","zip":"87144-86","primaryAppointments":5,"primaryCap":30,"boosterAppointments":0,"boosterCap":0,"brands":[3],"driveThrough":0,"wheelchairAccessible":1,"mobilityHelp":1,"deafAccommodations":0,"blindAccommodations":1,"paperworkAssistance":1,"seatingAvailable":1,"sensoryFriendly":1,"walkIn":1},{"name":"Walgreens #9715","locationId":405,"city":"Albuquerque","lat":35.11006808,"lng":-106.73094872,"startTime":"10:00:00","endTime":"17:30:00","date":"2021-07-02","address1":"2200 UNSER BLVD NW","zip":"87120","primaryAppointments":3,"primaryCap":3,"boosterAppointments":6,"boosterCap":9,"brands":[1],"driveThrough":0,"wheelchairAccessible":1,"mobilityHelp":0,"deafAccommodations":1,"blindAccommodations":1,"paperworkAssistance":0,"seatingAvailable":1,"sensoryFriendly":1,"walkIn":1},{"name":"Walgreens #11959","locationId":406,"city":"Albuquerque","lat":35.07777413,"lng":-106.58782285,"startTime":"10:00:00","endTime":"16:30:00","date":"2021-07-02","address1":"5201 CENTRAL AVE NE","zip":"87108","primaryAppointments":0,"primaryCap":0,"boosterAppointments":3,"boosterCap":10,"brands":[1],"driveThrough":0,"wheelchairAccessible":null,"mobilityHelp":null,"deafAccommodations":null,"blindAccommodations":null,"paperworkAssistance":null,"seatingAvailable":null,"sensoryFriendly":null,"walkIn":1},{"name":"WALGREENS","locationId":408,"city":"Hobbs","lat":32.73881846,"lng":-103.14572112,"startTime":"10:00:00","endTime":"16:30:00","date":"2021-07-02","address1":"801 W JOE HARVEY BLVD","zip":"88240","primaryAppointments":0,"primaryCap":0,"boosterAppointments":5,"boosterCap":20,"brands":[2],"driveThrough":0,"wheelchairAccessible":1,"mobilityHelp":0,"deafAccommodations":0,"blindAccommodations":0,"paperworkAssistance":0,"seatingAvailable":1,"sensoryFriendly":0,"walkIn":1},{"name":"Walgreens 4th and Griegos","locationId":409,"city":"Albuquerque","lat":35.12991653,"lng":-106.64227552,"startTime":"10:00:00","endTime":"17:00:00","date":"2021-07-02","address1":"4700 4TH ST NW","zip":"87107-39","primaryAppointments":2,"primaryCap":5,"boosterAppointments":21,"boosterCap":22,"brands":[2],"driveThrough":0,"wheelchairAccessible":1,"mobilityHelp":1,"deafAccommodations":1,"blindAccommodations":1,"paperworkAssistance":1,"seatingAvailable":1,"sensoryFriendly":1,"walkIn":1},{"name":"Walgreens in Taos","locationId":411,"city":"Taos","lat":36.38909062,"lng":-105.58270123,"startTime":"10:30:00","endTime":"11:00:00","date":"2021-07-02","address1":"811 PASEO DEL PUEBLO SUR","zip":"87571-63","primaryAppointments":3,"primaryCap":3,"boosterAppointments":0,"boosterCap":3,"brands":[1],"driveThrough":0,"wheelchairAccessible":1,"mobilityHelp":1,"deafAccommodations":1,"blindAccommodations":1,"paperworkAssistance":1,"seatingAvailable":1,"sensoryFriendly":1,"walkIn":1},{"name":"Walgreens","locationId":414,"city":"LOS LUNAS","lat":34.81256394,"lng":-106.75700763,"startTime":"10:00:00","endTime":"11:30:00","date":"2021-07-02","address1":"1861 MAIN ST NW","zip":"87031","primaryAppointments":0,"primaryCap":0,"boosterAppointments":7,"boosterCap":10,"brands":[1],"driveThrough":0,"wheelchairAccessible":1,"mobilityHelp":0,"deafAccommodations":0,"blindAccommodations":0,"paperworkAssistance":1,"seatingAvailable":1,"sensoryFriendly":1,"walkIn":1},{"name":"Walgreens #12407","locationId":415,"city":"Albuquerque","lat":35.21303541,"lng":-106.69806297,"startTime":"11:00:00","endTime":"18:30:00","date":"2021-07-02","address1":"10800 UNSER BLVD NW","zip":"87114-10","primaryAppointments":3,"primaryCap":10,"boosterAppointments":2,"boosterCap":10,"brands":[1],"driveThrough":0,"wheelchairAccessible":1,"mobilityHelp":0,"deafAccommodations":0,"blindAccommodations":1,"paperworkAssistance":0,"seatingAvailable":1,"sensoryFriendly":1,"walkIn":0},{"name":"PMG Socorro","locationId":430,"city":"Socorro","lat":34.03637687,"lng":-106.9118169,"startTime":"10:00:00","endTime":"11:30:00","date":"2021-07-02","address1":"1202 Highway 60 Building D","zip":"87801","primaryAppointments":0,"primaryCap":0,"boosterAppointments":9,"boosterCap":10,"brands":[1],"driveThrough":0,"wheelchairAccessible":1,"mobilityHelp":0,"deafAccommodations":1,"blindAccommodations":0,"paperworkAssistance":1,"seatingAvailable":1,"sensoryFriendly":1,"walkIn":0},{"name":"BCA Pediatrics","locationId":442,"city":"Roswell","lat":33.40135299,"lng":-104.53159289,"startTime":"14:00:00","endTime":"16:30:00","date":"2021-07-02","address1":"813 N. Washington","zip":"88201","primaryAppointments":0,"primaryCap":25,"boosterAppointments":0,"boosterCap":0,"brands":[3],"driveThrough":0,"wheelchairAccessible":1,"mobilityHelp":0,"deafAccommodations":0,"blindAccommodations":0,"paperworkAssistance":1,"seatingAvailable":1,"sensoryFriendly":1,"walkIn":0},{"name":"BCA Medical Associates - Artesia","locationId":443,"city":"Artesia","lat":32.84796422,"lng":-104.39917361,"startTime":"10:00:00","endTime":"16:00:00","date":"2021-07-02","address1":"608 N. 1st Street","zip":"88210","primaryAppointments":3,"primaryCap":12,"boosterAppointments":1,"boosterCap":2,"brands":[2],"driveThrough":0,"wheelchairAccessible":1,"mobilityHelp":0,"deafAccommodations":0,"blindAccommodations":0,"paperworkAssistance":1,"seatingAvailable":1,"sensoryFriendly":1,"walkIn":1},{"name":"Nambe Drugs Santa Fe","locationId":450,"city":"Santa Fe","lat":35.68087345,"lng":-105.93768949,"startTime":"10:30:00","endTime":"12:30:00","date":"2021-07-02","address1":"501 Old Santa Fe Trail","zip":"87505-03","primaryAppointments":0,"primaryCap":8,"boosterAppointments":0,"boosterCap":12,"brands":[2],"driveThrough":0,"wheelchairAccessible":1,"mobilityHelp":0,"deafAccommodations":0,"blindAccommodations":0,"paperworkAssistance":1,"seatingAvailable":1,"sensoryFriendly":0,"walkIn":1},{"name":"ACUTE CARE HOUSE CALLS LLC","locationId":522,"city":"Los Lunas","lat":34.81100079,"lng":-106.76612282,"startTime":"07:30:00","endTime":"14:00:00","date":"2021-07-02","address1":"2210 Sun Ranch Village Loop","zip":"87031","primaryAppointments":1,"primaryCap":65,"boosterAppointments":0,"boosterCap":65,"brands":[2],"driveThrough":1,"wheelchairAccessible":1,"mobilityHelp":1,"deafAccommodations":1,"blindAccommodations":1,"paperworkAssistance":1,"seatingAvailable":1,"sensoryFriendly":1,"walkIn":1},{"name":"pinon family pharmacy","locationId":565,"city":"Farmington","lat":36.75701007,"lng":-108.17725053,"startTime":"10:00:00","endTime":"14:30:00","date":"2021-07-02","address1":"2300 B East 30th Suite 101","zip":"87401","primaryAppointments":7,"primaryCap":9,"boosterAppointments":5,"boosterCap":18,"brands":[2],"driveThrough":0,"wheelchairAccessible":1,"mobilityHelp":1,"deafAccommodations":1,"blindAccommodations":1,"paperworkAssistance":1,"seatingAvailable":1,"sensoryFriendly":1,"walkIn":1},{"name":"MANNM","locationId":623,"city":"Los Alamos","lat":35.88152998,"lng":-106.31845062,"startTime":"12:00:00","endTime":"13:00:00","date":"2021-07-02","address1":"3917 West Road Suite A","zip":"87544","primaryAppointments":0,"primaryCap":2,"boosterAppointments":0,"boosterCap":4,"brands":[2],"driveThrough":0,"wheelchairAccessible":1,"mobilityHelp":0,"deafAccommodations":0,"blindAccommodations":0,"paperworkAssistance":1,"seatingAvailable":1,"sensoryFriendly":1,"walkIn":1},{"name":"Mona Abousleman MD PC","locationId":641,"city":"Albuquerque","lat":35.13550975,"lng":-106.59059691,"startTime":"12:00:00","endTime":"13:30:00","date":"2021-07-02","address1":"4800 Hardware Drive, NE","zip":"87109","primaryAppointments":0,"primaryCap":4,"boosterAppointments":1,"boosterCap":7,"brands":[2],"driveThrough":1,"wheelchairAccessible":1,"mobilityHelp":1,"deafAccommodations":0,"blindAccommodations":0,"paperworkAssistance":1,"seatingAvailable":1,"sensoryFriendly":1,"walkIn":0},{"name":"Advanced Allergy Associates of NM","locationId":646,"city":"Albuquerque","lat":35.12779643,"lng":-106.58502778,"startTime":"08:30:00","endTime":"11:30:00","date":"2021-07-02","address1":"5310 Homestead Rd NE Ste 201","zip":"87110","primaryAppointments":1,"primaryCap":1,"boosterAppointments":12,"boosterCap":12,"brands":[2],"driveThrough":0,"wheelchairAccessible":1,"mobilityHelp":1,"deafAccommodations":0,"blindAccommodations":0,"paperworkAssistance":1,"seatingAvailable":1,"sensoryFriendly":1,"walkIn":0},{"name":"PLACITAS PHARMACY","locationId":647,"city":"Placitas","lat":35.30841787,"lng":-106.49315284,"startTime":"12:00:00","endTime":"16:30:00","date":"2021-07-02","address1":"221 state highway 165","zip":"87043","primaryAppointments":5,"primaryCap":50,"boosterAppointments":0,"boosterCap":0,"brands":[3],"driveThrough":0,"wheelchairAccessible":null,"mobilityHelp":null,"deafAccommodations":null,"blindAccommodations":null,"paperworkAssistance":null,"seatingAvailable":null,"sensoryFriendly":null,"walkIn":1},{"name":"El Centro Family Health","locationId":744,"city":"Springer","lat":36.36069165,"lng":-104.59739033,"startTime":"10:00:00","endTime":"10:30:00","date":"2021-07-02","address1":"502 4th St","zip":"87747","primaryAppointments":2,"primaryCap":7,"boosterAppointments":3,"boosterCap":3,"brands":[2],"driveThrough":0,"wheelchairAccessible":1,"mobilityHelp":1,"deafAccommodations":1,"blindAccommodations":1,"paperworkAssistance":1,"seatingAvailable":1,"sensoryFriendly":1,"walkIn":1},{"name":"Las Cruces Walmart Pfizer Clinic - S. Valley Drive","locationId":746,"city":"Las Cruces","lat":32.28747833,"lng":-106.78564404,"startTime":"11:30:00","endTime":"12:00:00","date":"2021-07-02","address1":"1550 S. Valley Drive","zip":"88005-31","primaryAppointments":1,"primaryCap":3,"boosterAppointments":0,"boosterCap":0,"brands":[1],"driveThrough":0,"wheelchairAccessible":1,"mobilityHelp":0,"deafAccommodations":1,"blindAccommodations":1,"paperworkAssistance":1,"seatingAvailable":1,"sensoryFriendly":0,"walkIn":1},{"name":"LOWES MARKETPLACE PHARMACY #55","locationId":758,"city":"Alamogordo","lat":32.90036303,"lng":-105.95616077,"startTime":"10:00:00","endTime":"15:00:00","date":"2021-07-02","address1":"675 10TH STREET","zip":"88310","primaryAppointments":5,"primaryCap":5,"boosterAppointments":0,"boosterCap":0,"brands":[3],"driveThrough":0,"wheelchairAccessible":1,"mobilityHelp":1,"deafAccommodations":1,"blindAccommodations":1,"paperworkAssistance":1,"seatingAvailable":1,"sensoryFriendly":1,"walkIn":0},{"name":"BESTCARE PHARMACY TUCUMCARI LL","locationId":762,"city":"Tucumcari","lat":35.17339235,"lng":-103.7268842,"startTime":"10:30:00","endTime":"12:30:00","date":"2021-07-02","address1":"511 S 2ND ST","zip":"88401","primaryAppointments":2,"primaryCap":2,"boosterAppointments":0,"boosterCap":0,"brands":[2],"driveThrough":0,"wheelchairAccessible":1,"mobilityHelp":1,"deafAccommodations":0,"blindAccommodations":0,"paperworkAssistance":1,"seatingAvailable":1,"sensoryFriendly":1,"walkIn":0},{"name":"BESTCARE PHARMACY DEMING LLC","locationId":763,"city":"Deming","lat":32.25306341,"lng":-107.74902393,"startTime":"12:00:00","endTime":"12:30:00","date":"2021-07-02","address1":"820 EAST FLORIDA STREET","zip":"88030","primaryAppointments":0,"primaryCap":1,"boosterAppointments":1,"boosterCap":1,"brands":[2],"driveThrough":0,"wheelchairAccessible":1,"mobilityHelp":1,"deafAccommodations":1,"blindAccommodations":0,"paperworkAssistance":1,"seatingAvailable":1,"sensoryFriendly":1,"walkIn":1},{"name":"Pharmaca Integrative Pharmacy","locationId":764,"city":"Santa Fe","lat":35.67293583,"lng":-105.95353254,"startTime":"09:00:00","endTime":"17:30:00","date":"2021-07-02","address1":"530 W CORDOVA RD STE B","zip":"87505","primaryAppointments":1,"primaryCap":17,"boosterAppointments":2,"boosterCap":34,"brands":[2],"driveThrough":0,"wheelchairAccessible":1,"mobilityHelp":0,"deafAccommodations":0,"blindAccommodations":0,"paperworkAssistance":0,"seatingAvailable":1,"sensoryFriendly":1,"walkIn":1},{"name":"Highland Pharmacy","locationId":765,"city":"ALBUQUERQUE","lat":35.088672,"lng":-106.6319821,"startTime":"09:30:00","endTime":"10:30:00","date":"2021-07-02","address1":"717 ENCINO PLACE NE STE 1","zip":"87102","primaryAppointments":2,"primaryCap":12,"boosterAppointments":1,"boosterCap":10,"brands":[1],"driveThrough":0,"wheelchairAccessible":null,"mobilityHelp":null,"deafAccommodations":null,"blindAccommodations":null,"paperworkAssistance":null,"seatingAvailable":null,"sensoryFriendly":null,"walkIn":0},{"name":"Michael's Prescription Corner - Hobbs","locationId":771,"city":"Hobbs","lat":32.72773985,"lng":-103.13625166,"startTime":"10:00:00","endTime":"11:00:00","date":"2021-07-02","address1":"2420 N FOWLER","zip":"88240","primaryAppointments":0,"primaryCap":4,"boosterAppointments":0,"boosterCap":4,"brands":[1],"driveThrough":0,"wheelchairAccessible":1,"mobilityHelp":0,"deafAccommodations":0,"blindAccommodations":0,"paperworkAssistance":1,"seatingAvailable":1,"sensoryFriendly":1,"walkIn":1},{"name":"Mesa Pharmacy","locationId":776,"city":"RATON","lat":36.880412,"lng":-104.44067895,"startTime":"09:00:00","endTime":"13:00:00","date":"2021-07-02","address1":"1279 s 2ND STREET ","zip":"87740","primaryAppointments":20,"primaryCap":40,"boosterAppointments":20,"boosterCap":41,"brands":[1,2,3],"driveThrough":0,"wheelchairAccessible":1,"mobilityHelp":1,"deafAccommodations":0,"blindAccommodations":1,"paperworkAssistance":1,"seatingAvailable":1,"sensoryFriendly":1,"walkIn":1},{"name":"Parkhurst Pharmacy","locationId":777,"city":"Grants","lat":35.1302281,"lng":-107.89010468,"startTime":"14:00:00","endTime":"17:30:00","date":"2021-07-02","address1":"1208 BONITA ST","zip":"87020","primaryAppointments":1,"primaryCap":7,"boosterAppointments":0,"boosterCap":7,"brands":[2],"driveThrough":0,"wheelchairAccessible":1,"mobilityHelp":1,"deafAccommodations":0,"blindAccommodations":0,"paperworkAssistance":1,"seatingAvailable":1,"sensoryFriendly":1,"walkIn":1},{"name":"John's Pharmacy","locationId":797,"city":"Albuquerque","lat":35.07206185,"lng":-106.54648056,"startTime":"10:00:00","endTime":"12:00:00","date":"2021-07-02","address1":"9134 CENTRAL AVE SE","zip":"87123","primaryAppointments":1,"primaryCap":8,"boosterAppointments":0,"boosterCap":12,"brands":[1,2,3],"driveThrough":0,"wheelchairAccessible":1,"mobilityHelp":1,"deafAccommodations":1,"blindAccommodations":0,"paperworkAssistance":1,"seatingAvailable":1,"sensoryFriendly":1,"walkIn":1},{"name":"Pfizer Walk-in","locationId":806,"city":"Albuquerque","lat":35.17989636,"lng":-106.69024829,"startTime":"08:00:00","endTime":"17:00:00","date":"2021-07-02","address1":"8511 Golf Course Rd NW","zip":"87114","primaryAppointments":10,"primaryCap":12,"boosterAppointments":2,"boosterCap":12,"brands":[1],"driveThrough":0,"wheelchairAccessible":1,"mobilityHelp":1,"deafAccommodations":0,"blindAccommodations":0,"paperworkAssistance":1,"seatingAvailable":1,"sensoryFriendly":0,"walkIn":1},{"name":"El Centro - Las Vegas Clinic - El Centro-La Loma Clinic","locationId":819,"city":"La Loma","lat":35.19780627,"lng":-105.12152256,"startTime":"09:00:00","endTime":"10:00:00","date":"2021-07-02","address1":"1044 La Loma","zip":"87711","primaryAppointments":9,"primaryCap":10,"boosterAppointments":4,"boosterCap":10,"brands":[1],"driveThrough":1,"wheelchairAccessible":null,"mobilityHelp":null,"deafAccommodations":null,"blindAccommodations":null,"paperworkAssistance":null,"seatingAvailable":null,"sensoryFriendly":null,"walkIn":1},{"name":"Ribera Healthcare","locationId":852,"city":"Albuquerque","lat":35.15528727,"lng":-106.68086664,"startTime":"09:00:00","endTime":"15:30:00","date":"2021-07-02","address1":"6271 Riverside Plaza Ln. NW, Suite D112B","zip":"87120","primaryAppointments":8,"primaryCap":120,"boosterAppointments":33,"boosterCap":80,"brands":[1],"driveThrough":0,"wheelchairAccessible":1,"mobilityHelp":1,"deafAccommodations":0,"blindAccommodations":0,"paperworkAssistance":1,"seatingAvailable":1,"sensoryFriendly":1,"walkIn":1},{"name":"Farmers Uptown Pharmacy","locationId":853,"city":"Roswell","lat":33.42897416,"lng":-104.52458711,"startTime":"10:00:00","endTime":"12:30:00","date":"2021-07-02","address1":"2810 N. Main","zip":"88201","primaryAppointments":3,"primaryCap":5,"boosterAppointments":0,"boosterCap":0,"brands":[3],"driveThrough":0,"wheelchairAccessible":1,"mobilityHelp":0,"deafAccommodations":0,"blindAccommodations":0,"paperworkAssistance":1,"seatingAvailable":1,"sensoryFriendly":1,"walkIn":1},{"name":"Albertsons Sav-On Pharmacy #925 ","locationId":863,"city":"Las Cruces","lat":32.31647556,"lng":-106.74434006,"startTime":"10:30:00","endTime":"17:30:00","date":"2021-07-02","address1":"2551 E Lohman Ave","zip":"88011","primaryAppointments":6,"primaryCap":6,"boosterAppointments":6,"boosterCap":6,"brands":[1],"driveThrough":0,"wheelchairAccessible":1,"mobilityHelp":1,"deafAccommodations":1,"blindAccommodations":0,"paperworkAssistance":1,"seatingAvailable":1,"sensoryFriendly":1,"walkIn":1},{"name":"Albertsons","locationId":866,"city":"Silver City","lat":32.78616781,"lng":-108.25401019,"startTime":"09:00:00","endTime":"17:00:00","date":"2021-07-02","address1":"1956 Highway 180 East","zip":"88061","primaryAppointments":3,"primaryCap":13,"boosterAppointments":3,"boosterCap":13,"brands":[1],"driveThrough":0,"wheelchairAccessible":1,"mobilityHelp":1,"deafAccommodations":0,"blindAccommodations":0,"paperworkAssistance":1,"seatingAvailable":1,"sensoryFriendly":1,"walkIn":1},{"name":"Walmart - Espaola--2656 - Walmart 2656 J.J event","locationId":867,"city":"Espanola","lat":36.01500801,"lng":-106.06776061,"startTime":"10:00:00","endTime":"16:00:00","date":"2021-07-02","address1":"1610 N Riverside Drive","zip":"87532","primaryAppointments":4,"primaryCap":10,"boosterAppointments":0,"boosterCap":0,"brands":[3],"driveThrough":0,"wheelchairAccessible":1,"mobilityHelp":1,"deafAccommodations":0,"blindAccommodations":0,"paperworkAssistance":1,"seatingAvailable":1,"sensoryFriendly":0,"walkIn":1},{"name":"Davis Fleck","locationId":871,"city":"Truth or Consequences","lat":33.12808224,"lng":-107.25622931,"startTime":"10:00:00","endTime":"15:30:00","date":"2021-07-02","address1":"500 N Broadway St.","zip":"87901","primaryAppointments":2,"primaryCap":44,"boosterAppointments":6,"boosterCap":44,"brands":[2],"driveThrough":0,"wheelchairAccessible":1,"mobilityHelp":1,"deafAccommodations":1,"blindAccommodations":1,"paperworkAssistance":1,"seatingAvailable":1,"sensoryFriendly":1,"walkIn":1},{"name":"Costco Pharmacy #116","locationId":874,"city":"Albuquerque","lat":35.1360361,"lng":-106.61398476,"startTime":"10:30:00","endTime":"15:30:00","date":"2021-07-02","address1":"1420 Renaissance Blvd","zip":"87107","primaryAppointments":4,"primaryCap":4,"boosterAppointments":3,"boosterCap":3,"brands":[1],"driveThrough":0,"wheelchairAccessible":1,"mobilityHelp":0,"deafAccommodations":1,"blindAccommodations":1,"paperworkAssistance":1,"seatingAvailable":1,"sensoryFriendly":1,"walkIn":1},{"name":"costco west side ","locationId":875,"city":"Albuquerque","lat":35.19454649,"lng":-106.66175417,"startTime":"10:00:00","endTime":"15:30:00","date":"2021-07-02","address1":"9955 Coors Bypass NW","zip":"87114","primaryAppointments":14,"primaryCap":20,"boosterAppointments":19,"boosterCap":20,"brands":[1,2],"driveThrough":0,"wheelchairAccessible":1,"mobilityHelp":0,"deafAccommodations":1,"blindAccommodations":1,"paperworkAssistance":1,"seatingAvailable":1,"sensoryFriendly":0,"walkIn":1},{"name":"Smith's Food & Drug","locationId":878,"city":"RIO RANCHO","lat":35.26509837,"lng":-106.62845855,"startTime":"11:00:00","endTime":"16:30:00","date":"2021-07-02","address1":"1000 RIO RANCHO DR","zip":"87124","primaryAppointments":4,"primaryCap":12,"boosterAppointments":0,"boosterCap":0,"brands":[1],"driveThrough":0,"wheelchairAccessible":1,"mobilityHelp":0,"deafAccommodations":0,"blindAccommodations":0,"paperworkAssistance":0,"seatingAvailable":1,"sensoryFriendly":0,"walkIn":0},{"name":"SMITHS PHARMACY #414 (Main St. Los Lunas, NM)","locationId":879,"city":"LOS LUNAS","lat":34.8082849,"lng":-106.70336231,"startTime":"13:00:00","endTime":"14:30:00","date":"2021-07-02","address1":"2580 MAIN STREET","zip":"87031","primaryAppointments":6,"primaryCap":7,"boosterAppointments":5,"boosterCap":8,"brands":[2],"driveThrough":0,"wheelchairAccessible":1,"mobilityHelp":1,"deafAccommodations":0,"blindAccommodations":0,"paperworkAssistance":1,"seatingAvailable":1,"sensoryFriendly":1,"walkIn":1},{"name":"SMITHS PHARMACY #424 (NM-344, Edgewood, NM)","locationId":881,"city":"EDGEWOOD","lat":35.06082657,"lng":-106.19059088,"startTime":"09:00:00","endTime":"18:30:00","date":"2021-07-02","address1":"02B HWY 344","zip":"87015","primaryAppointments":2,"primaryCap":10,"boosterAppointments":1,"boosterCap":12,"brands":[2],"driveThrough":0,"wheelchairAccessible":1,"mobilityHelp":0,"deafAccommodations":1,"blindAccommodations":1,"paperworkAssistance":1,"seatingAvailable":1,"sensoryFriendly":1,"walkIn":1},{"name":"SMITHS WHITE ROCK","locationId":884,"city":"White Rock","lat":35.82548494,"lng":-106.21159921,"startTime":"10:00:00","endTime":"17:00:00","date":"2021-07-02","address1":"31 SHERWOOD BLVD","zip":"87547","primaryAppointments":3,"primaryCap":5,"boosterAppointments":1,"boosterCap":5,"brands":[2],"driveThrough":0,"wheelchairAccessible":1,"mobilityHelp":0,"deafAccommodations":0,"blindAccommodations":0,"paperworkAssistance":1,"seatingAvailable":1,"sensoryFriendly":0,"walkIn":1},{"name":"SMITHS PHARMACY #439 (Tramway/Montgomery Blvd NE)","locationId":885,"city":"Albuquerque","lat":35.13250749,"lng":-106.4969116,"startTime":"09:30:00","endTime":"10:00:00","date":"2021-07-02","address1":"4700 TRAMWAY NE","zip":"87111","primaryAppointments":0,"primaryCap":0,"boosterAppointments":4,"boosterCap":4,"brands":[1],"driveThrough":0,"wheelchairAccessible":1,"mobilityHelp":0,"deafAccommodations":1,"blindAccommodations":1,"paperworkAssistance":1,"seatingAvailable":1,"sensoryFriendly":1,"walkIn":1},{"name":"Smith's Pharmacy #448","locationId":887,"city":"ALBUQUERQUE","lat":35.17859332,"lng":-106.69021692,"startTime":"09:30:00","endTime":"16:00:00","date":"2021-07-02","address1":"8301 GOLF COURSE RD","zip":"87120","primaryAppointments":0,"primaryCap":0,"boosterAppointments":3,"boosterCap":10,"brands":[2],"driveThrough":0,"wheelchairAccessible":1,"mobilityHelp":0,"deafAccommodations":0,"blindAccommodations":0,"paperworkAssistance":1,"seatingAvailable":1,"sensoryFriendly":1,"walkIn":1},{"name":"Smith's Marketplace Pharmacy- Los Alamos","locationId":892,"city":"Los Alamos","lat":35.87909715,"lng":-106.29379486,"startTime":"11:00:00","endTime":"17:30:00","date":"2021-07-02","address1":"751 TRINITY DR, SUITE 100","zip":"87544","primaryAppointments":2,"primaryCap":2,"boosterAppointments":8,"boosterCap":10,"brands":[1],"driveThrough":0,"wheelchairAccessible":1,"mobilityHelp":0,"deafAccommodations":0,"blindAccommodations":0,"paperworkAssistance":0,"seatingAvailable":1,"sensoryFriendly":1,"walkIn":0},{"name":"SMITHS PHARMACY #571 (Arenal Rd. SW/Goff Blvd SW)","locationId":898,"city":"ALBUQUERQUE","lat":35.05333666,"lng":-106.67952629,"startTime":"10:00:00","endTime":"10:30:00","date":"2021-07-02","address1":"1601 ARENAL SW","zip":"87105","primaryAppointments":0,"primaryCap":0,"boosterAppointments":5,"boosterCap":5,"brands":[2,3],"driveThrough":0,"wheelchairAccessible":1,"mobilityHelp":0,"deafAccommodations":0,"blindAccommodations":0,"paperworkAssistance":1,"seatingAvailable":1,"sensoryFriendly":1,"walkIn":1},{"name":"Del Norte Pharmacy: Las Vegas","locationId":921,"city":"Las Vegas","lat":35.610448,"lng":-105.21089933,"startTime":"10:00:00","endTime":"16:30:00","date":"2021-07-02","address1":"615 North Grand Avenue","zip":"87701","primaryAppointments":0,"primaryCap":6,"boosterAppointments":0,"boosterCap":6,"brands":[2],"driveThrough":1,"wheelchairAccessible":1,"mobilityHelp":1,"deafAccommodations":0,"blindAccommodations":1,"paperworkAssistance":1,"seatingAvailable":1,"sensoryFriendly":1,"walkIn":1},{"name":"Riogrande Care Pharmacy","locationId":946,"city":"Las Cruces","lat":32.3238166,"lng":-106.72697761,"startTime":"08:30:00","endTime":"18:00:00","date":"2021-07-02","address1":" 4371 E Lohman Ave","zip":"88011","primaryAppointments":0,"primaryCap":17,"boosterAppointments":0,"boosterCap":17,"brands":[3],"driveThrough":0,"wheelchairAccessible":1,"mobilityHelp":0,"deafAccommodations":0,"blindAccommodations":0,"paperworkAssistance":1,"seatingAvailable":1,"sensoryFriendly":1,"walkIn":1},{"name":"Safeway Pharmacy Farmington","locationId":954,"city":"Farmington","lat":36.75076225,"lng":-108.16125505,"startTime":"10:00:00","endTime":"16:00:00","date":"2021-07-02","address1":"3540 E Main St.","zip":"87402","primaryAppointments":0,"primaryCap":24,"boosterAppointments":1,"boosterCap":24,"brands":[1,3],"driveThrough":0,"wheelchairAccessible":1,"mobilityHelp":0,"deafAccommodations":0,"blindAccommodations":0,"paperworkAssistance":1,"seatingAvailable":1,"sensoryFriendly":1,"walkIn":1},{"name":"Del-Rey Pharmacy","locationId":969,"city":"Las Cruces","lat":32.35192765,"lng":-106.76836015,"startTime":"10:00:00","endTime":"17:00:00","date":"2021-07-02","address1":"3291 Del Rey Blvd #3","zip":"88012","primaryAppointments":1,"primaryCap":70,"boosterAppointments":5,"boosterCap":70,"brands":[2,3],"driveThrough":0,"wheelchairAccessible":1,"mobilityHelp":1,"deafAccommodations":0,"blindAccommodations":0,"paperworkAssistance":1,"seatingAvailable":1,"sensoryFriendly":1,"walkIn":1},{"name":"FUMU Moderna Empty City Lot, Eastern&Paloma","locationId":992,"city":"Albuquerque","lat":35.05959738,"lng":-106.58346045,"startTime":"15:00:00","endTime":"17:30:00","date":"2021-07-02","address1":"Eastern Ave and Palomas St","zip":"87108","primaryAppointments":10,"primaryCap":50,"boosterAppointments":82,"boosterCap":100,"brands":[2],"driveThrough":1,"wheelchairAccessible":1,"mobilityHelp":1,"deafAccommodations":1,"blindAccommodations":1,"paperworkAssistance":1,"seatingAvailable":1,"sensoryFriendly":1,"walkIn":1},{"name":"El Centro - Taos Clinic - Taos High School Vaccine Event","locationId":994,"city":"Taos","lat":36.39267302,"lng":-105.5760408,"startTime":"09:00:00","endTime":"10:00:00","date":"2021-07-02","address1":"134 Cervantes Road","zip":"87557","primaryAppointments":0,"primaryCap":0,"boosterAppointments":3,"boosterCap":6,"brands":[1],"driveThrough":0,"wheelchairAccessible":1,"mobilityHelp":0,"deafAccommodations":1,"blindAccommodations":1,"paperworkAssistance":1,"seatingAvailable":1,"sensoryFriendly":1,"walkIn":1},{"name":"Christus St Vincent Outpatient Pharmacy","locationId":1019,"city":"Santa Fe","lat":35.65919172,"lng":-105.94784584,"startTime":"09:00:00","endTime":"15:00:00","date":"2021-07-02","address1":"465 St Michaels Drive, Suite 112","zip":"87505","primaryAppointments":4,"primaryCap":12,"boosterAppointments":0,"boosterCap":0,"brands":[3],"driveThrough":0,"wheelchairAccessible":1,"mobilityHelp":1,"deafAccommodations":1,"blindAccommodations":1,"paperworkAssistance":1,"seatingAvailable":1,"sensoryFriendly":1,"walkIn":1},{"name":"Las Vegas Al Fresco - Vaccinations","locationId":1034,"city":"Las Vegas","lat":35.59283288,"lng":-105.22770792,"startTime":"15:00:00","endTime":"18:00:00","date":"2021-07-02","address1":"230 Plaza St","zip":"87701","primaryAppointments":0,"primaryCap":22,"boosterAppointments":0,"boosterCap":2,"brands":[1],"driveThrough":0,"wheelchairAccessible":0,"mobilityHelp":0,"deafAccommodations":1,"blindAccommodations":1,"paperworkAssistance":1,"seatingAvailable":1,"sensoryFriendly":1,"walkIn":1},{"name":"JOB CORPS","locationId":1040,"city":"ROSWELL","lat":33.31235695,"lng":-104.51820756,"startTime":"13:30:00","endTime":"14:00:00","date":"2021-07-02","address1":"57 G STREET","zip":"88203","primaryAppointments":0,"primaryCap":0,"boosterAppointments":0,"boosterCap":20,"brands":[1],"driveThrough":0,"wheelchairAccessible":1,"mobilityHelp":1,"deafAccommodations":1,"blindAccommodations":1,"paperworkAssistance":1,"seatingAvailable":1,"sensoryFriendly":1,"walkIn":0},{"name":"Walmart 3731-Bernalillo","locationId":1042,"city":"Bernalillo ","lat":35.31951183,"lng":-106.57261526,"startTime":"09:30:00","endTime":"17:00:00","date":"2021-07-02","address1":"460 NM HWY #528","zip":"87004","primaryAppointments":1,"primaryCap":10,"boosterAppointments":14,"boosterCap":14,"brands":[1],"driveThrough":0,"wheelchairAccessible":1,"mobilityHelp":0,"deafAccommodations":1,"blindAccommodations":1,"paperworkAssistance":1,"seatingAvailable":1,"sensoryFriendly":1,"walkIn":1},{"name":"HMS-SC: COVID-19 Community Clinic","locationId":1048,"city":"Silver City","lat":32.79373006,"lng":-108.26215209,"startTime":"09:00:00","endTime":"17:30:00","date":"2021-07-02","address1":"1304 E. 32nd St","zip":"88061","primaryAppointments":5,"primaryCap":15,"boosterAppointments":4,"boosterCap":15,"brands":[1,2,3],"driveThrough":1,"wheelchairAccessible":1,"mobilityHelp":1,"deafAccommodations":0,"blindAccommodations":0,"paperworkAssistance":1,"seatingAvailable":1,"sensoryFriendly":1,"walkIn":1},{"name":"JOB CORPS","locationId":1051,"city":"ROSWELL","lat":33.31228742,"lng":-104.51850171,"startTime":"13:30:00","endTime":"14:00:00","date":"2021-07-02","address1":"57 G STREET","zip":"88203","primaryAppointments":0,"primaryCap":10,"boosterAppointments":0,"boosterCap":0,"brands":[3],"driveThrough":1,"wheelchairAccessible":1,"mobilityHelp":1,"deafAccommodations":0,"blindAccommodations":1,"paperworkAssistance":1,"seatingAvailable":1,"sensoryFriendly":1,"walkIn":0},{"name":"Walmart Pharmacy on Carlisle","locationId":1061,"city":"Albuquerque","lat":35.11031931,"lng":-106.60821446,"startTime":"10:00:00","endTime":"15:00:00","date":"2021-07-02","address1":"2701 Carlisle BLVD NE","zip":"87110","primaryAppointments":0,"primaryCap":1,"boosterAppointments":17,"boosterCap":17,"brands":[1],"driveThrough":0,"wheelchairAccessible":1,"mobilityHelp":0,"deafAccommodations":1,"blindAccommodations":1,"paperworkAssistance":1,"seatingAvailable":1,"sensoryFriendly":1,"walkIn":1},{"name":"Walmart 3732 Rio Rancho Pfizer","locationId":1063,"city":"rio rancho","lat":35.24300137,"lng":-106.70109497,"startTime":"14:00:00","endTime":"17:00:00","date":"2021-07-02","address1":"901 unser blvd se","zip":"87124","primaryAppointments":0,"primaryCap":0,"boosterAppointments":11,"boosterCap":12,"brands":[1],"driveThrough":0,"wheelchairAccessible":1,"mobilityHelp":0,"deafAccommodations":0,"blindAccommodations":0,"paperworkAssistance":1,"seatingAvailable":1,"sensoryFriendly":0,"walkIn":1},{"name":"Socorro WM RX J&J Vaccine Socorro, NM","locationId":1068,"city":"Socorro","lat":34.07519253,"lng":-106.89252061,"startTime":"10:00:00","endTime":"16:00:00","date":"2021-07-02","address1":"700 6th St N","zip":"87801","primaryAppointments":1,"primaryCap":45,"boosterAppointments":0,"boosterCap":0,"brands":[3],"driveThrough":0,"wheelchairAccessible":1,"mobilityHelp":0,"deafAccommodations":1,"blindAccommodations":1,"paperworkAssistance":1,"seatingAvailable":1,"sensoryFriendly":1,"walkIn":1},{"name":"BCA Pediatrics ","locationId":1086,"city":"Carlsbad","lat":32.43456737,"lng":-104.2341895,"startTime":"11:30:00","endTime":"15:30:00","date":"2021-07-02","address1":"1034 Spring St. ","zip":"88220","primaryAppointments":3,"primaryCap":6,"boosterAppointments":0,"boosterCap":0,"brands":[1],"driveThrough":0,"wheelchairAccessible":1,"mobilityHelp":0,"deafAccommodations":0,"blindAccommodations":0,"paperworkAssistance":1,"seatingAvailable":1,"sensoryFriendly":1,"walkIn":0},{"name":"Belen, Walmart Pharmacy  Store 1414","locationId":1186,"city":"Belen","lat":34.69707015,"lng":-106.76885824,"startTime":"10:00:00","endTime":"11:30:00","date":"2021-07-02","address1":"1 I-25 Bypass","zip":"87002","primaryAppointments":5,"primaryCap":5,"boosterAppointments":1,"boosterCap":1,"brands":[1],"driveThrough":0,"wheelchairAccessible":1,"mobilityHelp":1,"deafAccommodations":1,"blindAccommodations":1,"paperworkAssistance":1,"seatingAvailable":1,"sensoryFriendly":1,"walkIn":1},{"name":"Walmart Neighborhood Market - Juan Tabo/Menual Pfizer","locationId":1187,"city":"Albuquerque","lat":35.1086634,"lng":-106.51788913,"startTime":"09:00:00","endTime":"18:00:00","date":"2021-07-02","address1":"11001 Menaul Blvd","zip":"87112","primaryAppointments":7,"primaryCap":64,"boosterAppointments":2,"boosterCap":24,"brands":[1],"driveThrough":0,"wheelchairAccessible":1,"mobilityHelp":1,"deafAccommodations":1,"blindAccommodations":1,"paperworkAssistance":1,"seatingAvailable":1,"sensoryFriendly":1,"walkIn":1},{"name":"Walmart Pharmacy","locationId":1189,"city":"Albuquerque","lat":35.11034324,"lng":-106.72895676,"startTime":"10:00:00","endTime":"12:30:00","date":"2021-07-02","address1":"1820 Unser Blvd NW","zip":"87120","primaryAppointments":1,"primaryCap":6,"boosterAppointments":0,"boosterCap":0,"brands":[1],"driveThrough":0,"wheelchairAccessible":1,"mobilityHelp":0,"deafAccommodations":1,"blindAccommodations":1,"paperworkAssistance":1,"seatingAvailable":1,"sensoryFriendly":1,"walkIn":1},{"name":"Walmart Pharmacy Los Lunas Pfizer","locationId":1190,"city":"Los Lunas","lat":34.81641109,"lng":-106.76333129,"startTime":"14:00:00","endTime":"17:00:00","date":"2021-07-02","address1":"2250 Main Steeet","zip":"87031","primaryAppointments":13,"primaryCap":13,"boosterAppointments":0,"boosterCap":0,"brands":[1],"driveThrough":0,"wheelchairAccessible":1,"mobilityHelp":1,"deafAccommodations":1,"blindAccommodations":1,"paperworkAssistance":1,"seatingAvailable":1,"sensoryFriendly":1,"walkIn":1},{"name":"Pfizer Walmart event","locationId":1192,"city":"Rio Rancho","lat":35.23948742,"lng":-106.6588789,"startTime":"09:00:00","endTime":"10:30:00","date":"2021-07-02","address1":"1115 NM-HWY 528 SE","zip":"87124","primaryAppointments":3,"primaryCap":3,"boosterAppointments":3,"boosterCap":3,"brands":[1],"driveThrough":0,"wheelchairAccessible":1,"mobilityHelp":0,"deafAccommodations":1,"blindAccommodations":1,"paperworkAssistance":0,"seatingAvailable":1,"sensoryFriendly":1,"walkIn":1},{"name":"West Mesa Community Center","locationId":1214,"city":"Albuquerque","lat":35.09656217,"lng":-106.70225826,"startTime":"12:00:00","endTime":"19:00:00","date":"2021-07-02","address1":"5500 Glenrio Rd NW","zip":"87105","primaryAppointments":21,"primaryCap":280,"boosterAppointments":3,"boosterCap":140,"brands":[1,2,3],"driveThrough":1,"wheelchairAccessible":1,"mobilityHelp":1,"deafAccommodations":1,"blindAccommodations":1,"paperworkAssistance":1,"seatingAvailable":1,"sensoryFriendly":1,"walkIn":1},{"name":"UFO Festival (DeBremond Stadium) Roswell","locationId":1220,"city":"Roswell","lat":33.40331309,"lng":-104.52540515,"startTime":"16:00:00","endTime":"20:00:00","date":"2021-07-02","address1":"100 W 11th St.","zip":"88201","primaryAppointments":0,"primaryCap":120,"boosterAppointments":0,"boosterCap":0,"brands":[3],"driveThrough":1,"wheelchairAccessible":1,"mobilityHelp":1,"deafAccommodations":0,"blindAccommodations":0,"paperworkAssistance":1,"seatingAvailable":1,"sensoryFriendly":1,"walkIn":1},{"name":"Walmart Farmington East Pfizer","locationId":1225,"city":"Farmington","lat":36.76773616,"lng":-108.15238753,"startTime":"09:00:00","endTime":"18:30:00","date":"2021-07-02","address1":"4600 E Main St ","zip":"87401","primaryAppointments":6,"primaryCap":19,"boosterAppointments":0,"boosterCap":19,"brands":[1],"driveThrough":0,"wheelchairAccessible":1,"mobilityHelp":0,"deafAccommodations":0,"blindAccommodations":0,"paperworkAssistance":1,"seatingAvailable":1,"sensoryFriendly":1,"walkIn":1},{"name":"Albuquerque Dragway ","locationId":1230,"city":"Albuquerque ","lat":35.00772445,"lng":-106.60714173,"startTime":"18:00:00","endTime":"20:30:00","date":"2021-07-02","address1":"5700 Dragway RD SE","zip":"87106","primaryAppointments":0,"primaryCap":20,"boosterAppointments":1,"boosterCap":5,"brands":[1],"driveThrough":0,"wheelchairAccessible":1,"mobilityHelp":1,"deafAccommodations":1,"blindAccommodations":1,"paperworkAssistance":1,"seatingAvailable":1,"sensoryFriendly":0,"walkIn":1},{"name":"Ambercare","locationId":1231,"city":"Las Cruces","lat":32.32101579,"lng":-106.73461838,"startTime":"14:00:00","endTime":"17:00:00","date":"2021-07-02","address1":"3870 Fotthills Rd","zip":"88011","primaryAppointments":1,"primaryCap":20,"boosterAppointments":0,"boosterCap":0,"brands":[1],"driveThrough":0,"wheelchairAccessible":1,"mobilityHelp":1,"deafAccommodations":1,"blindAccommodations":1,"paperworkAssistance":1,"seatingAvailable":1,"sensoryFriendly":1,"walkIn":1},{"name":"Fort Marcy Ball Field","locationId":1232,"city":"Santa Fe","lat":35.69424647,"lng":-105.93614143,"startTime":"17:30:00","endTime":"20:00:00","date":"2021-07-02","address1":"490 Bishops Lodge Rd.","zip":"87504","primaryAppointments":0,"primaryCap":15,"boosterAppointments":0,"boosterCap":0,"brands":[3],"driveThrough":0,"wheelchairAccessible":1,"mobilityHelp":1,"deafAccommodations":1,"blindAccommodations":1,"paperworkAssistance":1,"seatingAvailable":1,"sensoryFriendly":1,"walkIn":1}]}