{"status":"ok","message":"","data":[{"name":"EXPO NMDOH @Afican American Pavilion","locationId":5,"city":"Albuquerque","lat":35.07701823,"lng":-106.57093614,"startTime":"13:00:00","endTime":"16:00:00","date":"2021-07-19","address1":"300 San Pedro Dr NE, Gate 3","zip":"87108","primaryAppointments":0,"primaryCap":0,"boosterAppointments":13,"boosterCap":420,"brands":[1],"driveThrough":0,"wheelchairAccessible":1,"mobilityHelp":0,"deafAccommodations":0,"blindAccommodations":0,"paperworkAssistance":1,"seatingAvailable":1,"sensoryFriendly":0,"walkIn":1},{"name":"Albertsons  #903-  Ridgecrest ,Rio Rancho","locationId":41,"city":"RIO RANCHO","lat":35.25299922,"lng":-106.65191945,"startTime":"13:00:00","endTime":"15:00:00","date":"2021-07-19","address1":"4300 RIDGECREST DR SE","zip":"87124","primaryAppointments":1,"primaryCap":10,"boosterAppointments":1,"boosterCap":8,"brands":[1],"driveThrough":0,"wheelchairAccessible":1,"mobilityHelp":1,"deafAccommodations":0,"blindAccommodations":1,"paperworkAssistance":1,"seatingAvailable":1,"sensoryFriendly":1,"walkIn":1},{"name":"Albertsons - ABQ Academy","locationId":43,"city":"Albuquerque","lat":35.15374679,"lng":-106.49926406,"startTime":"10:00:00","endTime":"14:30:00","date":"2021-07-19","address1":"12201 ACADEMY RD NE","zip":"87111","primaryAppointments":1,"primaryCap":2,"boosterAppointments":10,"boosterCap":19,"brands":[1],"driveThrough":0,"wheelchairAccessible":1,"mobilityHelp":1,"deafAccommodations":0,"blindAccommodations":0,"paperworkAssistance":1,"seatingAvailable":1,"sensoryFriendly":1,"walkIn":1},{"name":"Albertsons - SANTA FE S SAINT FRANCIS DR","locationId":44,"city":"Santa Fe","lat":35.645377,"lng":-105.95585902,"startTime":"11:30:00","endTime":"12:30:00","date":"2021-07-19","address1":"3001 S SAINT FRANCIS DR","zip":"87505","primaryAppointments":0,"primaryCap":0,"boosterAppointments":4,"boosterCap":12,"brands":[1],"driveThrough":0,"wheelchairAccessible":null,"mobilityHelp":null,"deafAccommodations":null,"blindAccommodations":null,"paperworkAssistance":null,"seatingAvailable":null,"sensoryFriendly":null,"walkIn":1},{"name":"Artesia Walmart Pharmacy","locationId":46,"city":"Artesia","lat":32.84749848,"lng":-104.42713775,"startTime":"09:30:00","endTime":"19:30:00","date":"2021-07-19","address1":"604 N 26th St","zip":"88210-37","primaryAppointments":0,"primaryCap":28,"boosterAppointments":0,"boosterCap":0,"brands":[2],"driveThrough":0,"wheelchairAccessible":1,"mobilityHelp":0,"deafAccommodations":1,"blindAccommodations":0,"paperworkAssistance":1,"seatingAvailable":1,"sensoryFriendly":0,"walkIn":0},{"name":"Walmart - Coors Bypass-1397","locationId":47,"city":"Albuquerque","lat":35.20410198,"lng":-106.65723693,"startTime":"10:30:00","endTime":"16:30:00","date":"2021-07-19","address1":"10224 Coors Bypass NW","zip":"87114-43","primaryAppointments":0,"primaryCap":0,"boosterAppointments":2,"boosterCap":20,"brands":[2],"driveThrough":0,"wheelchairAccessible":1,"mobilityHelp":0,"deafAccommodations":1,"blindAccommodations":1,"paperworkAssistance":1,"seatingAvailable":1,"sensoryFriendly":1,"walkIn":1},{"name":"Espanola Walmart 2656","locationId":48,"city":"Espanola","lat":36.01504511,"lng":-106.0681748,"startTime":"09:30:00","endTime":"20:30:00","date":"2021-07-19","address1":"1610 N Riverside Dr","zip":"87532-80","primaryAppointments":0,"primaryCap":20,"boosterAppointments":0,"boosterCap":20,"brands":[2],"driveThrough":0,"wheelchairAccessible":1,"mobilityHelp":0,"deafAccommodations":0,"blindAccommodations":0,"paperworkAssistance":1,"seatingAvailable":1,"sensoryFriendly":0,"walkIn":1},{"name":"Farmington Walmart West Side ","locationId":50,"city":"Farmington","lat":36.73206361,"lng":-108.22798666,"startTime":"09:00:00","endTime":"18:00:00","date":"2021-07-19","address1":"1400 W Main St","zip":"87401","primaryAppointments":0,"primaryCap":16,"boosterAppointments":10,"boosterCap":16,"brands":[2],"driveThrough":0,"wheelchairAccessible":1,"mobilityHelp":0,"deafAccommodations":0,"blindAccommodations":0,"paperworkAssistance":1,"seatingAvailable":1,"sensoryFriendly":0,"walkIn":1},{"name":"WM RX-GALLUP, NM","locationId":51,"city":"Gallup","lat":35.52774518,"lng":-108.7694296,"startTime":"09:00:00","endTime":"18:00:00","date":"2021-07-19","address1":"1650 W Maloney Ave","zip":"87301-33","primaryAppointments":0,"primaryCap":45,"boosterAppointments":2,"boosterCap":15,"brands":[2],"driveThrough":0,"wheelchairAccessible":1,"mobilityHelp":1,"deafAccommodations":1,"blindAccommodations":1,"paperworkAssistance":1,"seatingAvailable":1,"sensoryFriendly":1,"walkIn":0},{"name":"Walmart Pharmacy Hobbs, NM","locationId":52,"city":"Hobbs","lat":32.74293834,"lng":-103.16149549,"startTime":"11:00:00","endTime":"17:00:00","date":"2021-07-19","address1":"3800 N Lovington Hwy","zip":"88240-10","primaryAppointments":0,"primaryCap":24,"boosterAppointments":0,"boosterCap":24,"brands":[2],"driveThrough":0,"wheelchairAccessible":1,"mobilityHelp":1,"deafAccommodations":1,"blindAccommodations":1,"paperworkAssistance":1,"seatingAvailable":1,"sensoryFriendly":1,"walkIn":1},{"name":"Sam's Club - Roswell","locationId":53,"city":"Roswell","lat":33.44777277,"lng":-104.52715705,"startTime":"10:00:00","endTime":"12:30:00","date":"2021-07-19","address1":"4400 N Main St","zip":"88201-03","primaryAppointments":0,"primaryCap":10,"boosterAppointments":1,"boosterCap":10,"brands":[2],"driveThrough":0,"wheelchairAccessible":null,"mobilityHelp":null,"deafAccommodations":null,"blindAccommodations":null,"paperworkAssistance":null,"seatingAvailable":null,"sensoryFriendly":null,"walkIn":1},{"name":"Sam's Club - Santa Fe Rodeo","locationId":54,"city":"Santa Fe","lat":35.6383503,"lng":-106.00867169,"startTime":"09:30:00","endTime":"10:00:00","date":"2021-07-19","address1":"4201 Rodeo Rd","zip":"87507-48","primaryAppointments":0,"primaryCap":1,"boosterAppointments":1,"boosterCap":1,"brands":[2],"driveThrough":0,"wheelchairAccessible":1,"mobilityHelp":0,"deafAccommodations":0,"blindAccommodations":1,"paperworkAssistance":0,"seatingAvailable":1,"sensoryFriendly":0,"walkIn":1},{"name":"Walmart - Wyoming/Menaul--5491","locationId":55,"city":"Albuquerque","lat":35.1058539,"lng":-106.54914912,"startTime":"10:00:00","endTime":"12:30:00","date":"2021-07-19","address1":"2266 Wyoming Blvd NE","zip":"87112-26","primaryAppointments":0,"primaryCap":1,"boosterAppointments":5,"boosterCap":9,"brands":[2],"driveThrough":0,"wheelchairAccessible":1,"mobilityHelp":1,"deafAccommodations":1,"blindAccommodations":1,"paperworkAssistance":0,"seatingAvailable":1,"sensoryFriendly":0,"walkIn":1},{"name":"Roswell Walmart Pharmacy","locationId":104,"city":"Roswell","lat":33.44928211,"lng":-104.52682147,"startTime":"09:30:00","endTime":"19:30:00","date":"2021-07-19","address1":"4500 N Main St","zip":"88201-03","primaryAppointments":0,"primaryCap":40,"boosterAppointments":0,"boosterCap":0,"brands":[2],"driveThrough":0,"wheelchairAccessible":1,"mobilityHelp":0,"deafAccommodations":1,"blindAccommodations":0,"paperworkAssistance":1,"seatingAvailable":1,"sensoryFriendly":0,"walkIn":0},{"name":"Chaparral Family Health Center","locationId":106,"city":"Chaparral","lat":32.00877348,"lng":-106.34031534,"startTime":"13:00:00","endTime":"15:00:00","date":"2021-07-19","address1":"204 Angelina Boulevard","zip":"88081-75","primaryAppointments":0,"primaryCap":20,"boosterAppointments":0,"boosterCap":0,"brands":[2],"driveThrough":0,"wheelchairAccessible":1,"mobilityHelp":1,"deafAccommodations":1,"blindAccommodations":1,"paperworkAssistance":1,"seatingAvailable":1,"sensoryFriendly":1,"walkIn":1},{"name":"CARLSBAD PUBLIC HEALTH OFFICE - Walter Gerrells Performing Arts Center","locationId":139,"city":"Carlsbad","lat":32.37092431,"lng":-104.23084995,"startTime":"10:00:00","endTime":"15:30:00","date":"2021-07-19","address1":"4012 National Parks Hwy","zip":"88220","primaryAppointments":1,"primaryCap":330,"boosterAppointments":16,"boosterCap":330,"brands":[1],"driveThrough":0,"wheelchairAccessible":1,"mobilityHelp":1,"deafAccommodations":0,"blindAccommodations":0,"paperworkAssistance":1,"seatingAvailable":1,"sensoryFriendly":1,"walkIn":1},{"name":"Walmart - Academy/Wyoming-824","locationId":141,"city":"Albuquerque","lat":35.14433804,"lng":-106.55099885,"startTime":"09:00:00","endTime":"20:00:00","date":"2021-07-19","address1":"8000 Academy Rd NE","zip":"87111-11","primaryAppointments":2,"primaryCap":18,"boosterAppointments":2,"boosterCap":40,"brands":[1,2],"driveThrough":0,"wheelchairAccessible":1,"mobilityHelp":1,"deafAccommodations":1,"blindAccommodations":1,"paperworkAssistance":1,"seatingAvailable":1,"sensoryFriendly":0,"walkIn":1},{"name":"Sam's Club - Eubank","locationId":142,"city":"Albuquerque","lat":35.07687388,"lng":-106.53034406,"startTime":"09:30:00","endTime":"16:30:00","date":"2021-07-19","address1":"300 Eubank Blvd NE","zip":"87123-27","primaryAppointments":0,"primaryCap":20,"boosterAppointments":0,"boosterCap":0,"brands":[2],"driveThrough":0,"wheelchairAccessible":null,"mobilityHelp":null,"deafAccommodations":null,"blindAccommodations":null,"paperworkAssistance":null,"seatingAvailable":null,"sensoryFriendly":null,"walkIn":1},{"name":"Walmart - Cerrillos Road","locationId":143,"city":"Santa Fe","lat":35.65187605,"lng":-105.99928406,"startTime":"09:30:00","endTime":"20:00:00","date":"2021-07-19","address1":"3251 Cerrillos Rd","zip":"87507-29","primaryAppointments":0,"primaryCap":10,"boosterAppointments":6,"boosterCap":10,"brands":[2],"driveThrough":0,"wheelchairAccessible":1,"mobilityHelp":0,"deafAccommodations":0,"blindAccommodations":0,"paperworkAssistance":1,"seatingAvailable":1,"sensoryFriendly":0,"walkIn":1},{"name":"walmat - san mateo/zuni 831","locationId":144,"city":"Albuquerque","lat":35.07568994,"lng":-106.58850182,"startTime":"09:00:00","endTime":"15:30:00","date":"2021-07-19","address1":"301 San Mateo Blvd SE","zip":"87108-56","primaryAppointments":0,"primaryCap":6,"boosterAppointments":10,"boosterCap":16,"brands":[1,2],"driveThrough":0,"wheelchairAccessible":1,"mobilityHelp":0,"deafAccommodations":0,"blindAccommodations":0,"paperworkAssistance":1,"seatingAvailable":1,"sensoryFriendly":1,"walkIn":1},{"name":"walmart on eubank and I40","locationId":145,"city":"Albuquerque","lat":35.07843081,"lng":-106.52987822,"startTime":"09:30:00","endTime":"16:00:00","date":"2021-07-19","address1":"400 Eubank Blvd NE","zip":"87123-27","primaryAppointments":0,"primaryCap":11,"boosterAppointments":11,"boosterCap":11,"brands":[1],"driveThrough":0,"wheelchairAccessible":1,"mobilityHelp":0,"deafAccommodations":0,"blindAccommodations":0,"paperworkAssistance":1,"seatingAvailable":1,"sensoryFriendly":1,"walkIn":1},{"name":"Sam's Club - Renaissance","locationId":146,"city":"Albuquerque","lat":35.13815025,"lng":-106.61365433,"startTime":"09:30:00","endTime":"16:30:00","date":"2021-07-19","address1":"1421 N Renaissance Blvd NE","zip":"87107-70","primaryAppointments":0,"primaryCap":4,"boosterAppointments":7,"boosterCap":10,"brands":[2],"driveThrough":0,"wheelchairAccessible":1,"mobilityHelp":0,"deafAccommodations":0,"blindAccommodations":1,"paperworkAssistance":1,"seatingAvailable":1,"sensoryFriendly":0,"walkIn":1},{"name":"Walmart - Carlisle-850","locationId":148,"city":"Albuquerque","lat":35.1110806,"lng":-106.60858805,"startTime":"09:00:00","endTime":"11:00:00","date":"2021-07-19","address1":"2701 Carlisle Blvd NE","zip":"87110-28","primaryAppointments":0,"primaryCap":4,"boosterAppointments":3,"boosterCap":4,"brands":[2],"driveThrough":0,"wheelchairAccessible":1,"mobilityHelp":0,"deafAccommodations":0,"blindAccommodations":0,"paperworkAssistance":1,"seatingAvailable":1,"sensoryFriendly":1,"walkIn":1},{"name":"Taos Walmart Pharmacy","locationId":150,"city":"Taos","lat":36.38620309,"lng":-105.58775748,"startTime":"10:00:00","endTime":"16:00:00","date":"2021-07-19","address1":"926 Paseo Del Pueblo Sur","zip":"87571-59","primaryAppointments":0,"primaryCap":10,"boosterAppointments":4,"boosterCap":10,"brands":[2],"driveThrough":0,"wheelchairAccessible":1,"mobilityHelp":0,"deafAccommodations":0,"blindAccommodations":0,"paperworkAssistance":1,"seatingAvailable":1,"sensoryFriendly":0,"walkIn":1},{"name":"Ruidoso Walmart Pharmacy","locationId":151,"city":"Ruidoso Downs","lat":33.32416962,"lng":-105.61430792,"startTime":"09:30:00","endTime":"19:30:00","date":"2021-07-19","address1":"26180 Us Highway 70 E","zip":"88346-91","primaryAppointments":0,"primaryCap":34,"boosterAppointments":0,"boosterCap":0,"brands":[2],"driveThrough":0,"wheelchairAccessible":1,"mobilityHelp":0,"deafAccommodations":1,"blindAccommodations":0,"paperworkAssistance":1,"seatingAvailable":1,"sensoryFriendly":0,"walkIn":1},{"name":"Carlsbad Walmart Pharmacy","locationId":152,"city":"Carlsbad","lat":32.39343347,"lng":-104.22315969,"startTime":"09:30:00","endTime":"19:00:00","date":"2021-07-19","address1":"2401 S Canal St","zip":"88220-65","primaryAppointments":1,"primaryCap":28,"boosterAppointments":0,"boosterCap":2,"brands":[2],"driveThrough":0,"wheelchairAccessible":1,"mobilityHelp":0,"deafAccommodations":1,"blindAccommodations":0,"paperworkAssistance":1,"seatingAvailable":1,"sensoryFriendly":0,"walkIn":1},{"name":"Silver City Walmart Pharmacy","locationId":154,"city":"Silver City","lat":32.78863751,"lng":-108.24787823,"startTime":"08:30:00","endTime":"19:00:00","date":"2021-07-19","address1":"2501 Highway 180 E","zip":"88061","primaryAppointments":0,"primaryCap":18,"boosterAppointments":0,"boosterCap":18,"brands":[2],"driveThrough":0,"wheelchairAccessible":1,"mobilityHelp":0,"deafAccommodations":1,"blindAccommodations":1,"paperworkAssistance":1,"seatingAvailable":1,"sensoryFriendly":0,"walkIn":1},{"name":"Truth or Consequences Walmart Pharmacy","locationId":155,"city":"Truth or Consequences","lat":33.15192129,"lng":-107.25076696,"startTime":"09:30:00","endTime":"19:30:00","date":"2021-07-19","address1":"2001 HR Ashbaugh Dr","zip":"87901-37","primaryAppointments":0,"primaryCap":34,"boosterAppointments":0,"boosterCap":0,"brands":[2],"driveThrough":0,"wheelchairAccessible":1,"mobilityHelp":0,"deafAccommodations":1,"blindAccommodations":1,"paperworkAssistance":1,"seatingAvailable":1,"sensoryFriendly":0,"walkIn":1},{"name":"Deming Walmart Pharmacy","locationId":157,"city":"Deming","lat":32.27045168,"lng":-107.74769491,"startTime":"09:30:00","endTime":"18:30:00","date":"2021-07-19","address1":"1021 E Pine St","zip":"88030-70","primaryAppointments":0,"primaryCap":28,"boosterAppointments":0,"boosterCap":0,"brands":[2],"driveThrough":0,"wheelchairAccessible":1,"mobilityHelp":0,"deafAccommodations":1,"blindAccommodations":0,"paperworkAssistance":1,"seatingAvailable":1,"sensoryFriendly":0,"walkIn":1},{"name":"Walmart - Neighborhood Market-Sonoma Ranch","locationId":158,"city":"Las Cruces","lat":32.32727632,"lng":-106.72326175,"startTime":"09:00:00","endTime":"17:00:00","date":"2021-07-19","address1":"150 N Sonoma Ranch Blvd","zip":"88001-16","primaryAppointments":0,"primaryCap":6,"boosterAppointments":5,"boosterCap":7,"brands":[2],"driveThrough":0,"wheelchairAccessible":null,"mobilityHelp":null,"deafAccommodations":null,"blindAccommodations":null,"paperworkAssistance":null,"seatingAvailable":null,"sensoryFriendly":null,"walkIn":1},{"name":"Walmart Neighborhood Market - Alamogordo Indian Wells","locationId":159,"city":"Alamogordo","lat":32.9159433,"lng":-105.931196,"startTime":"11:00:00","endTime":"13:30:00","date":"2021-07-19","address1":"2401 Indian Wells Rd.","zip":"88310-38","primaryAppointments":0,"primaryCap":5,"boosterAppointments":4,"boosterCap":5,"brands":[2],"driveThrough":0,"wheelchairAccessible":null,"mobilityHelp":null,"deafAccommodations":null,"blindAccommodations":null,"paperworkAssistance":null,"seatingAvailable":null,"sensoryFriendly":null,"walkIn":1},{"name":"Walmart Neighborhood Market 5675 Menaul and Juan Tabo","locationId":160,"city":"Albuquerque","lat":35.10928475,"lng":-106.51840828,"startTime":"09:00:00","endTime":"20:00:00","date":"2021-07-19","address1":"11001 Menaul Blvd","zip":"87112","primaryAppointments":0,"primaryCap":60,"boosterAppointments":4,"boosterCap":60,"brands":[2],"driveThrough":0,"wheelchairAccessible":1,"mobilityHelp":1,"deafAccommodations":1,"blindAccommodations":1,"paperworkAssistance":1,"seatingAvailable":1,"sensoryFriendly":0,"walkIn":1},{"name":"Walmart Clovis","locationId":161,"city":"Clovis","lat":34.43711823,"lng":-103.2006662,"startTime":"10:00:00","endTime":"18:30:00","date":"2021-07-19","address1":"3728 N Prince St","zip":"88101-97","primaryAppointments":0,"primaryCap":6,"boosterAppointments":8,"boosterCap":8,"brands":[2],"driveThrough":0,"wheelchairAccessible":1,"mobilityHelp":0,"deafAccommodations":0,"blindAccommodations":0,"paperworkAssistance":1,"seatingAvailable":1,"sensoryFriendly":0,"walkIn":1},{"name":"Walmart - Portales","locationId":162,"city":"Portales","lat":34.19790879,"lng":-103.31932888,"startTime":"09:30:00","endTime":"12:30:00","date":"2021-07-19","address1":"1604 E Spruce St","zip":"88130-94","primaryAppointments":0,"primaryCap":6,"boosterAppointments":2,"boosterCap":6,"brands":[2],"driveThrough":0,"wheelchairAccessible":null,"mobilityHelp":null,"deafAccommodations":null,"blindAccommodations":null,"paperworkAssistance":null,"seatingAvailable":null,"sensoryFriendly":null,"walkIn":1},{"name":"NHM Golf Course Moderna Walkin","locationId":163,"city":"Albuquerque","lat":35.17995036,"lng":-106.69015597,"startTime":"09:00:00","endTime":"17:30:00","date":"2021-07-19","address1":"8511 Golf Course Rd NW","zip":"87114-48","primaryAppointments":0,"primaryCap":11,"boosterAppointments":1,"boosterCap":11,"brands":[2],"driveThrough":0,"wheelchairAccessible":1,"mobilityHelp":1,"deafAccommodations":1,"blindAccommodations":0,"paperworkAssistance":1,"seatingAvailable":1,"sensoryFriendly":1,"walkIn":0},{"name":"Las Vegas Walmart Pharmacy","locationId":165,"city":"Las Vegas","lat":35.62001926,"lng":-105.22765362,"startTime":"10:00:00","endTime":"16:00:00","date":"2021-07-19","address1":"2609 7th St","zip":"87701-48","primaryAppointments":0,"primaryCap":10,"boosterAppointments":2,"boosterCap":10,"brands":[2],"driveThrough":0,"wheelchairAccessible":1,"mobilityHelp":0,"deafAccommodations":0,"blindAccommodations":0,"paperworkAssistance":1,"seatingAvailable":1,"sensoryFriendly":0,"walkIn":1},{"name":"Walmart-Belen-1414","locationId":166,"city":"Belen","lat":34.69695185,"lng":-106.76842281,"startTime":"09:30:00","endTime":"17:00:00","date":"2021-07-19","address1":"1 I 25 Bypass","zip":"87002-81","primaryAppointments":0,"primaryCap":16,"boosterAppointments":2,"boosterCap":12,"brands":[2],"driveThrough":0,"wheelchairAccessible":1,"mobilityHelp":0,"deafAccommodations":0,"blindAccommodations":0,"paperworkAssistance":1,"seatingAvailable":1,"sensoryFriendly":1,"walkIn":1},{"name":"Walmart- Grants","locationId":167,"city":"Grants","lat":35.12408422,"lng":-107.82639486,"startTime":"09:30:00","endTime":"18:00:00","date":"2021-07-19","address1":"1000 Robert Rd","zip":"87020-40","primaryAppointments":0,"primaryCap":15,"boosterAppointments":4,"boosterCap":15,"brands":[2],"driveThrough":0,"wheelchairAccessible":1,"mobilityHelp":0,"deafAccommodations":1,"blindAccommodations":0,"paperworkAssistance":1,"seatingAvailable":1,"sensoryFriendly":1,"walkIn":1},{"name":"Walmart - Coors I-40--2924","locationId":169,"city":"Albuquerque","lat":35.10998404,"lng":-106.7016564,"startTime":"11:00:00","endTime":"17:00:00","date":"2021-07-19","address1":"2550 Coors Blvd NW","zip":"87120","primaryAppointments":1,"primaryCap":10,"boosterAppointments":3,"boosterCap":18,"brands":[2],"driveThrough":0,"wheelchairAccessible":1,"mobilityHelp":0,"deafAccommodations":0,"blindAccommodations":0,"paperworkAssistance":0,"seatingAvailable":1,"sensoryFriendly":0,"walkIn":1},{"name":"Walmart - Santa Fe Herrera 3423","locationId":170,"city":"Santa Fe","lat":35.61961019,"lng":-106.03256585,"startTime":"09:30:00","endTime":"13:00:00","date":"2021-07-19","address1":"5701 Herrera Dr","zip":"87507-26","primaryAppointments":0,"primaryCap":0,"boosterAppointments":5,"boosterCap":14,"brands":[2],"driveThrough":0,"wheelchairAccessible":1,"mobilityHelp":0,"deafAccommodations":1,"blindAccommodations":1,"paperworkAssistance":1,"seatingAvailable":1,"sensoryFriendly":0,"walkIn":1},{"name":"Walmart Pharmacy Los Lunas Moderna Vaccine","locationId":171,"city":"Los Lunas","lat":34.8164776,"lng":-106.76310653,"startTime":"10:00:00","endTime":"13:00:00","date":"2021-07-19","address1":"2250 Main St NW","zip":"87031-48","primaryAppointments":1,"primaryCap":20,"boosterAppointments":0,"boosterCap":0,"brands":[2],"driveThrough":0,"wheelchairAccessible":1,"mobilityHelp":0,"deafAccommodations":0,"blindAccommodations":1,"paperworkAssistance":1,"seatingAvailable":1,"sensoryFriendly":0,"walkIn":1},{"name":"Walmart-Bernalillo 3731","locationId":172,"city":"Bernalillo","lat":35.3194959,"lng":-106.57174681,"startTime":"09:00:00","endTime":"16:00:00","date":"2021-07-19","address1":"460 Highway 528","zip":"87004-66","primaryAppointments":0,"primaryCap":11,"boosterAppointments":1,"boosterCap":11,"brands":[2],"driveThrough":0,"wheelchairAccessible":1,"mobilityHelp":0,"deafAccommodations":1,"blindAccommodations":1,"paperworkAssistance":1,"seatingAvailable":1,"sensoryFriendly":1,"walkIn":1},{"name":"Walmart Neighborhood Market Cutler Store 2451","locationId":173,"city":"Albuquerque","lat":35.10440027,"lng":-106.59275797,"startTime":"09:00:00","endTime":"17:30:00","date":"2021-07-19","address1":"4700 Cutler Ave NE","zip":"87110-40","primaryAppointments":1,"primaryCap":15,"boosterAppointments":6,"boosterCap":15,"brands":[1],"driveThrough":0,"wheelchairAccessible":1,"mobilityHelp":0,"deafAccommodations":0,"blindAccommodations":0,"paperworkAssistance":1,"seatingAvailable":1,"sensoryFriendly":1,"walkIn":1},{"name":"Walmart Neighborhood Market 3385 Sage & 98th","locationId":174,"city":"Albuquerque","lat":35.05426216,"lng":-106.73944857,"startTime":"10:00:00","endTime":"15:00:00","date":"2021-07-19","address1":"9600 Sage Rd SW","zip":"87121-68","primaryAppointments":0,"primaryCap":10,"boosterAppointments":3,"boosterCap":10,"brands":[2],"driveThrough":0,"wheelchairAccessible":1,"mobilityHelp":0,"deafAccommodations":1,"blindAccommodations":1,"paperworkAssistance":0,"seatingAvailable":1,"sensoryFriendly":1,"walkIn":1},{"name":"walmart 3512 montgomery","locationId":176,"city":"Albuquerque","lat":35.12951592,"lng":-106.51774302,"startTime":"09:00:00","endTime":"20:30:00","date":"2021-07-19","address1":"11018 Montgomery Blvd NE","zip":"87111-39","primaryAppointments":0,"primaryCap":35,"boosterAppointments":1,"boosterCap":18,"brands":[2],"driveThrough":0,"wheelchairAccessible":1,"mobilityHelp":0,"deafAccommodations":1,"blindAccommodations":1,"paperworkAssistance":0,"seatingAvailable":1,"sensoryFriendly":1,"walkIn":1},{"name":"Walmart Neighborhood Market 3517 Rio Rancho Hwy 528","locationId":177,"city":"Rio Rancho","lat":35.23902043,"lng":-106.65894473,"startTime":"10:00:00","endTime":"20:00:00","date":"2021-07-19","address1":"1115 NM Hwy 528 SE","zip":"87124-00","primaryAppointments":0,"primaryCap":5,"boosterAppointments":4,"boosterCap":15,"brands":[2],"driveThrough":0,"wheelchairAccessible":1,"mobilityHelp":0,"deafAccommodations":1,"blindAccommodations":1,"paperworkAssistance":0,"seatingAvailable":1,"sensoryFriendly":1,"walkIn":1},{"name":"Walmart Neighborhood Market- Unser/Ladera","locationId":178,"city":"Albuquerque","lat":35.10228264,"lng":-106.72844695,"startTime":"09:00:00","endTime":"20:00:00","date":"2021-07-19","address1":"1820 Unser Blvd NW","zip":"87120-39","primaryAppointments":0,"primaryCap":37,"boosterAppointments":4,"boosterCap":4,"brands":[2],"driveThrough":0,"wheelchairAccessible":1,"mobilityHelp":0,"deafAccommodations":0,"blindAccommodations":0,"paperworkAssistance":0,"seatingAvailable":1,"sensoryFriendly":1,"walkIn":1},{"name":"Walmart - Edgewood-4201","locationId":179,"city":"Edgewood","lat":35.07051708,"lng":-106.18902695,"startTime":"09:00:00","endTime":"15:30:00","date":"2021-07-19","address1":"66 State Road 344","zip":"87015-68","primaryAppointments":0,"primaryCap":0,"boosterAppointments":11,"boosterCap":11,"brands":[2],"driveThrough":0,"wheelchairAccessible":1,"mobilityHelp":0,"deafAccommodations":0,"blindAccommodations":0,"paperworkAssistance":1,"seatingAvailable":1,"sensoryFriendly":0,"walkIn":1},{"name":"Walmart Pharmacy","locationId":180,"city":"Socorro","lat":34.07547937,"lng":-106.89283501,"startTime":"09:30:00","endTime":"16:30:00","date":"2021-07-19","address1":"700 6th St N","zip":"87801-42","primaryAppointments":0,"primaryCap":30,"boosterAppointments":1,"boosterCap":10,"brands":[2],"driveThrough":0,"wheelchairAccessible":1,"mobilityHelp":1,"deafAccommodations":1,"blindAccommodations":0,"paperworkAssistance":1,"seatingAvailable":1,"sensoryFriendly":1,"walkIn":1},{"name":"Walmart - Rio Bravo & Coors- 5430","locationId":181,"city":"Albuquerque","lat":35.02566256,"lng":-106.71093118,"startTime":"09:30:00","endTime":"19:00:00","date":"2021-07-19","address1":"3500 Coors Blvd SW","zip":"87121-52","primaryAppointments":1,"primaryCap":32,"boosterAppointments":1,"boosterCap":16,"brands":[2],"driveThrough":0,"wheelchairAccessible":1,"mobilityHelp":0,"deafAccommodations":1,"blindAccommodations":1,"paperworkAssistance":1,"seatingAvailable":1,"sensoryFriendly":1,"walkIn":1},{"name":"El Centro Family Health - Rio Arriba Health Commons","locationId":185,"city":"Espanola","lat":36.00669009,"lng":-106.10699021,"startTime":"13:00:00","endTime":"15:00:00","date":"2021-07-19","address1":"2010 Industrial Park Road","zip":"87532","primaryAppointments":0,"primaryCap":15,"boosterAppointments":5,"boosterCap":5,"brands":[2],"driveThrough":0,"wheelchairAccessible":1,"mobilityHelp":1,"deafAccommodations":1,"blindAccommodations":1,"paperworkAssistance":1,"seatingAvailable":1,"sensoryFriendly":1,"walkIn":1},{"name":"El Centro Family Health - Taos Clinic","locationId":186,"city":"Taos","lat":36.37220781,"lng":-105.59077082,"startTime":"09:00:00","endTime":"11:30:00","date":"2021-07-19","address1":"1331 Gusdorf Road","zip":"87571","primaryAppointments":0,"primaryCap":0,"boosterAppointments":10,"boosterCap":10,"brands":[2],"driveThrough":0,"wheelchairAccessible":1,"mobilityHelp":1,"deafAccommodations":1,"blindAccommodations":0,"paperworkAssistance":1,"seatingAvailable":1,"sensoryFriendly":1,"walkIn":1},{"name":"Walgrrens 4047","locationId":189,"city":"Albuquerque","lat":35.08010331,"lng":-106.71201017,"startTime":"10:00:00","endTime":"17:00:00","date":"2021-07-19","address1":"101 COORS BLVD NW","zip":"87121","primaryAppointments":0,"primaryCap":0,"boosterAppointments":20,"boosterCap":30,"brands":[2],"driveThrough":1,"wheelchairAccessible":1,"mobilityHelp":1,"deafAccommodations":1,"blindAccommodations":1,"paperworkAssistance":1,"seatingAvailable":1,"sensoryFriendly":0,"walkIn":1},{"name":"Walgreens #3934","locationId":193,"city":"Santa Fe","lat":34.80242656,"lng":-106.72971277,"startTime":"08:00:00","endTime":"08:30:00","date":"2021-07-19","address1":"3298 CERRILLOS RD","zip":"87507-29","primaryAppointments":1,"primaryCap":3,"boosterAppointments":2,"boosterCap":3,"brands":[1],"driveThrough":0,"wheelchairAccessible":1,"mobilityHelp":0,"deafAccommodations":0,"blindAccommodations":0,"paperworkAssistance":0,"seatingAvailable":1,"sensoryFriendly":0,"walkIn":0},{"name":"Walgreens Pharmacy","locationId":196,"city":"Albuquerque","lat":35.13268152,"lng":-106.58891921,"startTime":"10:00:00","endTime":"18:00:00","date":"2021-07-19","address1":"5001 MONTGOMERY BLVD NE","zip":"87109-13","primaryAppointments":0,"primaryCap":0,"boosterAppointments":18,"boosterCap":70,"brands":[1],"driveThrough":0,"wheelchairAccessible":1,"mobilityHelp":0,"deafAccommodations":0,"blindAccommodations":0,"paperworkAssistance":0,"seatingAvailable":1,"sensoryFriendly":1,"walkIn":0},{"name":"Walgreens ","locationId":197,"city":"Albuquerque","lat":35.17318036,"lng":-106.54308337,"startTime":"10:00:00","endTime":"16:30:00","date":"2021-07-19","address1":"8011 VENTURA ST NE","zip":"87109-64","primaryAppointments":0,"primaryCap":0,"boosterAppointments":8,"boosterCap":12,"brands":[1],"driveThrough":0,"wheelchairAccessible":1,"mobilityHelp":0,"deafAccommodations":0,"blindAccommodations":0,"paperworkAssistance":1,"seatingAvailable":1,"sensoryFriendly":1,"walkIn":0},{"name":"Las Cruces Walmart Pfizer - Rinconada Blvd","locationId":199,"city":"Las Cruces","lat":32.3599771,"lng":-106.74671197,"startTime":"09:30:00","endTime":"14:00:00","date":"2021-07-19","address1":"3331 Rinconada Blvd. ","zip":"88012","primaryAppointments":0,"primaryCap":5,"boosterAppointments":13,"boosterCap":13,"brands":[1],"driveThrough":0,"wheelchairAccessible":1,"mobilityHelp":1,"deafAccommodations":1,"blindAccommodations":1,"paperworkAssistance":1,"seatingAvailable":1,"sensoryFriendly":0,"walkIn":1},{"name":"Albertson's - HOBBS","locationId":236,"city":"HOBBS","lat":32.72689521,"lng":-103.14410582,"startTime":"11:00:00","endTime":"13:30:00","date":"2021-07-19","address1":"2402 N. GRIMES","zip":"88220","primaryAppointments":0,"primaryCap":0,"boosterAppointments":6,"boosterCap":10,"brands":[2],"driveThrough":0,"wheelchairAccessible":null,"mobilityHelp":null,"deafAccommodations":null,"blindAccommodations":null,"paperworkAssistance":null,"seatingAvailable":null,"sensoryFriendly":null,"walkIn":1},{"name":"Albertsons Pharmacy","locationId":239,"city":"ROSWELL","lat":33.38072826,"lng":-104.52503745,"startTime":"10:00:00","endTime":"11:30:00","date":"2021-07-19","address1":"1110 S. MAIN ST.","zip":"88203","primaryAppointments":0,"primaryCap":10,"boosterAppointments":8,"boosterCap":8,"brands":[2],"driveThrough":0,"wheelchairAccessible":1,"mobilityHelp":1,"deafAccommodations":0,"blindAccommodations":0,"paperworkAssistance":1,"seatingAvailable":1,"sensoryFriendly":1,"walkIn":1},{"name":"Albertson's - ABQ Montgomery","locationId":242,"city":"Albuquerque","lat":35.12904195,"lng":-106.58876811,"startTime":"12:00:00","endTime":"17:00:00","date":"2021-07-19","address1":"4950 MONTGOMERY BLVD NE","zip":"87109","primaryAppointments":0,"primaryCap":6,"boosterAppointments":6,"boosterCap":6,"brands":[1],"driveThrough":0,"wheelchairAccessible":1,"mobilityHelp":0,"deafAccommodations":1,"blindAccommodations":1,"paperworkAssistance":1,"seatingAvailable":1,"sensoryFriendly":0,"walkIn":1},{"name":"Albertsons on Rio Bravo & Isleta","locationId":246,"city":"Albuquerque","lat":35.02797451,"lng":-106.68255503,"startTime":"13:00:00","endTime":"14:00:00","date":"2021-07-19","address1":"1625 RIO BRAVO BLVD SW","zip":"87105","primaryAppointments":0,"primaryCap":10,"boosterAppointments":5,"boosterCap":10,"brands":[2],"driveThrough":0,"wheelchairAccessible":1,"mobilityHelp":1,"deafAccommodations":1,"blindAccommodations":1,"paperworkAssistance":1,"seatingAvailable":1,"sensoryFriendly":1,"walkIn":1},{"name":"Albertsons Los Lunas","locationId":247,"city":"LOS LUNAS","lat":34.80334699,"lng":-106.70457543,"startTime":"10:30:00","endTime":"13:30:00","date":"2021-07-19","address1":"2351 MAIN STREET SE","zip":"87031","primaryAppointments":0,"primaryCap":0,"boosterAppointments":5,"boosterCap":12,"brands":[1],"driveThrough":0,"wheelchairAccessible":1,"mobilityHelp":0,"deafAccommodations":0,"blindAccommodations":0,"paperworkAssistance":1,"seatingAvailable":1,"sensoryFriendly":1,"walkIn":1},{"name":"Albertson's - TAOS","locationId":248,"city":"Taos","lat":36.39167359,"lng":-105.58310168,"startTime":"10:00:00","endTime":"12:30:00","date":"2021-07-19","address1":"710 PASEO DEL PUEBLO SUR STE A","zip":"87571","primaryAppointments":0,"primaryCap":5,"boosterAppointments":3,"boosterCap":10,"brands":[2],"driveThrough":0,"wheelchairAccessible":1,"mobilityHelp":1,"deafAccommodations":1,"blindAccommodations":0,"paperworkAssistance":1,"seatingAvailable":1,"sensoryFriendly":1,"walkIn":1},{"name":"Albertson's - RIO RANCHO Enchanted Hills","locationId":249,"city":"RIO RANCHO","lat":35.32304677,"lng":-106.57716273,"startTime":"10:00:00","endTime":"16:30:00","date":"2021-07-19","address1":"7800 ENCHANTED HILLS BLVD NE","zip":"87144","primaryAppointments":0,"primaryCap":9,"boosterAppointments":6,"boosterCap":9,"brands":[1],"driveThrough":0,"wheelchairAccessible":1,"mobilityHelp":0,"deafAccommodations":1,"blindAccommodations":1,"paperworkAssistance":1,"seatingAvailable":1,"sensoryFriendly":1,"walkIn":0},{"name":"Albertsons Pharmacy Ventura","locationId":250,"city":"Albuquerque","lat":35.17507376,"lng":-106.54095736,"startTime":"10:00:00","endTime":"14:00:00","date":"2021-07-19","address1":"8100 VENTURA ST NE","zip":"87122","primaryAppointments":0,"primaryCap":0,"boosterAppointments":18,"boosterCap":18,"brands":[1],"driveThrough":0,"wheelchairAccessible":1,"mobilityHelp":0,"deafAccommodations":0,"blindAccommodations":0,"paperworkAssistance":0,"seatingAvailable":1,"sensoryFriendly":0,"walkIn":1},{"name":"MarketStreet Pharmacy #927","locationId":251,"city":"Santa Fe","lat":35.6930939,"lng":-105.95171933,"startTime":"10:30:00","endTime":"15:00:00","date":"2021-07-19","address1":"600 N GUADALUPE ST","zip":"87501","primaryAppointments":3,"primaryCap":21,"boosterAppointments":21,"boosterCap":21,"brands":[1],"driveThrough":0,"wheelchairAccessible":1,"mobilityHelp":0,"deafAccommodations":0,"blindAccommodations":0,"paperworkAssistance":0,"seatingAvailable":1,"sensoryFriendly":0,"walkIn":1},{"name":"Albertson's on Lomas","locationId":252,"city":"Albuquerque","lat":35.08736141,"lng":-106.51649462,"startTime":"10:00:00","endTime":"16:30:00","date":"2021-07-19","address1":"11825 LOMAS BLVD NE","zip":"87122","primaryAppointments":0,"primaryCap":26,"boosterAppointments":19,"boosterCap":26,"brands":[1],"driveThrough":0,"wheelchairAccessible":1,"mobilityHelp":1,"deafAccommodations":1,"blindAccommodations":1,"paperworkAssistance":1,"seatingAvailable":1,"sensoryFriendly":0,"walkIn":1},{"name":"Albertson's - ABQ WYOMING","locationId":254,"city":"Albuquerque","lat":35.15999804,"lng":-106.56136197,"startTime":"10:00:00","endTime":"13:30:00","date":"2021-07-19","address1":"7101 WYOMING BLVD NE","zip":"87109","primaryAppointments":1,"primaryCap":4,"boosterAppointments":8,"boosterCap":8,"brands":[1],"driveThrough":0,"wheelchairAccessible":1,"mobilityHelp":1,"deafAccommodations":0,"blindAccommodations":0,"paperworkAssistance":1,"seatingAvailable":1,"sensoryFriendly":1,"walkIn":1},{"name":"Albertson's - SANTA FE ZAFARANO DR","locationId":256,"city":"Santa Fe","lat":35.64018594,"lng":-106.01374392,"startTime":"13:00:00","endTime":"16:00:00","date":"2021-07-19","address1":"3542 ZAFARANO DR","zip":"87507","primaryAppointments":2,"primaryCap":14,"boosterAppointments":8,"boosterCap":28,"brands":[2],"driveThrough":0,"wheelchairAccessible":1,"mobilityHelp":0,"deafAccommodations":1,"blindAccommodations":1,"paperworkAssistance":1,"seatingAvailable":1,"sensoryFriendly":1,"walkIn":1},{"name":"NMDOH Midtown Public Health Office","locationId":287,"city":"Albuquerque","lat":35.10739435,"lng":-106.60749648,"startTime":"09:00:00","endTime":"09:30:00","date":"2021-07-19","address1":"2400 Wellesley Dr NE 87107","zip":"87107","primaryAppointments":0,"primaryCap":3,"boosterAppointments":0,"boosterCap":3,"brands":[3],"driveThrough":0,"wheelchairAccessible":1,"mobilityHelp":0,"deafAccommodations":0,"blindAccommodations":0,"paperworkAssistance":0,"seatingAvailable":0,"sensoryFriendly":0,"walkIn":1},{"name":"Sam's Club","locationId":291,"city":"Albuquerque","lat":35.20942482,"lng":-106.65847003,"startTime":"10:00:00","endTime":"15:30:00","date":"2021-07-19","address1":"10600 Coors Bypass NW","zip":"87114","primaryAppointments":0,"primaryCap":16,"boosterAppointments":4,"boosterCap":16,"brands":[2],"driveThrough":0,"wheelchairAccessible":1,"mobilityHelp":1,"deafAccommodations":1,"blindAccommodations":1,"paperworkAssistance":1,"seatingAvailable":1,"sensoryFriendly":1,"walkIn":1},{"name":"Roden Smith Pharmacy","locationId":312,"city":"Clovis","lat":34.43330721,"lng":-103.20588339,"startTime":"10:00:00","endTime":"17:00:00","date":"2021-07-19","address1":"305 E. Llano Estacado","zip":"88101","primaryAppointments":0,"primaryCap":30,"boosterAppointments":12,"boosterCap":30,"brands":[2],"driveThrough":0,"wheelchairAccessible":1,"mobilityHelp":0,"deafAccommodations":1,"blindAccommodations":0,"paperworkAssistance":1,"seatingAvailable":1,"sensoryFriendly":1,"walkIn":1},{"name":"Presbyterian COVID-19 Vaccination Albuquerque Ambulance Services","locationId":330,"city":"Albuquerque","lat":35.13310317,"lng":-106.62233805,"startTime":"08:00:00","endTime":"15:00:00","date":"2021-07-19","address1":"4500 Montbel Pl NE","zip":"87107","primaryAppointments":2,"primaryCap":175,"boosterAppointments":31,"boosterCap":125,"brands":[1],"driveThrough":1,"wheelchairAccessible":1,"mobilityHelp":1,"deafAccommodations":1,"blindAccommodations":0,"paperworkAssistance":1,"seatingAvailable":1,"sensoryFriendly":0,"walkIn":1},{"name":"Walgreens #3366","locationId":359,"city":"Albuquerque","lat":35.12136729,"lng":-106.70155264,"startTime":"09:00:00","endTime":"12:00:00","date":"2021-07-19","address1":"3400 COORS BLVD NW","zip":"87120-14","primaryAppointments":0,"primaryCap":0,"boosterAppointments":12,"boosterCap":12,"brands":[1],"driveThrough":0,"wheelchairAccessible":null,"mobilityHelp":null,"deafAccommodations":null,"blindAccommodations":null,"paperworkAssistance":null,"seatingAvailable":null,"sensoryFriendly":null,"walkIn":1},{"name":"Walgreens #5731 @ GOLF COURSE & PARADISE","locationId":365,"city":"Albuquerque","lat":35.18763823,"lng":-106.68417136,"startTime":"10:00:00","endTime":"17:00:00","date":"2021-07-19","address1":"9500 GOLF COURSE RD NW","zip":"87114-42","primaryAppointments":1,"primaryCap":2,"boosterAppointments":15,"boosterCap":22,"brands":[1],"driveThrough":0,"wheelchairAccessible":1,"mobilityHelp":0,"deafAccommodations":0,"blindAccommodations":0,"paperworkAssistance":0,"seatingAvailable":1,"sensoryFriendly":0,"walkIn":0},{"name":"Walgreens in Edgewood ","locationId":369,"city":"EDGEWOOD","lat":35.06048159,"lng":-106.19254119,"startTime":"10:00:00","endTime":"16:30:00","date":"2021-07-19","address1":"5 WALKER RD","zip":"87015-87","primaryAppointments":0,"primaryCap":0,"boosterAppointments":9,"boosterCap":10,"brands":[2],"driveThrough":0,"wheelchairAccessible":1,"mobilityHelp":0,"deafAccommodations":0,"blindAccommodations":1,"paperworkAssistance":1,"seatingAvailable":1,"sensoryFriendly":1,"walkIn":1},{"name":"Walgreens","locationId":376,"city":"Albuquerque","lat":35.10821758,"lng":-106.53322387,"startTime":"09:30:00","endTime":"17:00:00","date":"2021-07-19","address1":"9700 MENAUL BLVD NE","zip":"87112-23","primaryAppointments":1,"primaryCap":15,"boosterAppointments":0,"boosterCap":15,"brands":[1],"driveThrough":0,"wheelchairAccessible":1,"mobilityHelp":1,"deafAccommodations":1,"blindAccommodations":1,"paperworkAssistance":1,"seatingAvailable":1,"sensoryFriendly":1,"walkIn":1},{"name":"Walgreens","locationId":377,"city":"Albuquerque","lat":35.04327939,"lng":-106.73787996,"startTime":"10:00:00","endTime":"17:30:00","date":"2021-07-19","address1":"9601 GIBSON BLVD SW","zip":"87121-81","primaryAppointments":0,"primaryCap":0,"boosterAppointments":16,"boosterCap":18,"brands":[1],"driveThrough":0,"wheelchairAccessible":1,"mobilityHelp":1,"deafAccommodations":1,"blindAccommodations":1,"paperworkAssistance":1,"seatingAvailable":1,"sensoryFriendly":1,"walkIn":1},{"name":"Walgreens Harper and Wyoming","locationId":378,"city":"Albuquerque","lat":35.15920189,"lng":-106.55912554,"startTime":"11:30:00","endTime":"16:00:00","date":"2021-07-19","address1":"8011 HARPER DR NE","zip":"87111-10","primaryAppointments":0,"primaryCap":0,"boosterAppointments":9,"boosterCap":12,"brands":[1],"driveThrough":0,"wheelchairAccessible":1,"mobilityHelp":0,"deafAccommodations":1,"blindAccommodations":1,"paperworkAssistance":1,"seatingAvailable":0,"sensoryFriendly":0,"walkIn":0},{"name":"Walgreens North","locationId":381,"city":"ROSWELL","lat":33.41501086,"lng":-104.52228783,"startTime":"09:00:00","endTime":"17:00:00","date":"2021-07-19","address1":"1835 N MAIN ST","zip":"88201-51","primaryAppointments":0,"primaryCap":32,"boosterAppointments":7,"boosterCap":32,"brands":[2],"driveThrough":0,"wheelchairAccessible":1,"mobilityHelp":1,"deafAccommodations":1,"blindAccommodations":1,"paperworkAssistance":1,"seatingAvailable":1,"sensoryFriendly":1,"walkIn":1},{"name":"Walgreens Alamogordo","locationId":383,"city":"ALAMOGORDO","lat":32.8992013,"lng":-105.96186644,"startTime":"10:00:00","endTime":"12:30:00","date":"2021-07-19","address1":"955 N WHITE SANDS BLVD","zip":"88310-69","primaryAppointments":0,"primaryCap":0,"boosterAppointments":1,"boosterCap":10,"brands":[2],"driveThrough":0,"wheelchairAccessible":1,"mobilityHelp":0,"deafAccommodations":0,"blindAccommodations":0,"paperworkAssistance":0,"seatingAvailable":1,"sensoryFriendly":1,"walkIn":1},{"name":"Walgreens Pharmacy #6610","locationId":385,"city":"LOS LUNAS","lat":34.80687785,"lng":-106.7040704,"startTime":"09:00:00","endTime":"09:30:00","date":"2021-07-19","address1":"2500 MAIN ST NE","zip":"87031-63","primaryAppointments":0,"primaryCap":3,"boosterAppointments":0,"boosterCap":0,"brands":[1,2,3],"driveThrough":0,"wheelchairAccessible":1,"mobilityHelp":0,"deafAccommodations":1,"blindAccommodations":0,"paperworkAssistance":1,"seatingAvailable":1,"sensoryFriendly":1,"walkIn":0},{"name":"Walgreens #15929","locationId":392,"city":"Albuquerque","lat":35.08129024,"lng":-106.63554206,"startTime":"10:00:00","endTime":"15:00:00","date":"2021-07-19","address1":"201 CEDAR ST SE","zip":"87106-49","primaryAppointments":0,"primaryCap":5,"boosterAppointments":2,"boosterCap":5,"brands":[2],"driveThrough":0,"wheelchairAccessible":1,"mobilityHelp":0,"deafAccommodations":0,"blindAccommodations":0,"paperworkAssistance":1,"seatingAvailable":1,"sensoryFriendly":1,"walkIn":1},{"name":"Walgreens #12005","locationId":393,"city":"Santa Fe","lat":35.63718531,"lng":-106.03441914,"startTime":"15:00:00","endTime":"16:00:00","date":"2021-07-19","address1":"5721 AIRPORT RD","zip":"87507-18","primaryAppointments":0,"primaryCap":0,"boosterAppointments":10,"boosterCap":10,"brands":[1],"driveThrough":0,"wheelchairAccessible":1,"mobilityHelp":0,"deafAccommodations":1,"blindAccommodations":0,"paperworkAssistance":1,"seatingAvailable":1,"sensoryFriendly":0,"walkIn":0},{"name":"Walgreens #4950","locationId":398,"city":"Clovis","lat":34.41894818,"lng":-103.19766022,"startTime":"10:00:00","endTime":"16:00:00","date":"2021-07-19","address1":"700 E 21ST ST","zip":"88101","primaryAppointments":0,"primaryCap":12,"boosterAppointments":0,"boosterCap":12,"brands":[2],"driveThrough":0,"wheelchairAccessible":null,"mobilityHelp":null,"deafAccommodations":null,"blindAccommodations":null,"paperworkAssistance":null,"seatingAvailable":null,"sensoryFriendly":null,"walkIn":1},{"name":"Walgreens (San Pedro and Menaul)","locationId":399,"city":"Albuquerque","lat":35.11044979,"lng":-106.57859873,"startTime":"10:00:00","endTime":"17:30:00","date":"2021-07-19","address1":"2625 SAN PEDRO DR NE","zip":"87110-33","primaryAppointments":0,"primaryCap":0,"boosterAppointments":16,"boosterCap":18,"brands":[1],"driveThrough":0,"wheelchairAccessible":1,"mobilityHelp":1,"deafAccommodations":0,"blindAccommodations":0,"paperworkAssistance":1,"seatingAvailable":1,"sensoryFriendly":0,"walkIn":0},{"name":"Walgreens #11959","locationId":406,"city":"Albuquerque","lat":35.07777413,"lng":-106.58782285,"startTime":"11:00:00","endTime":"12:30:00","date":"2021-07-19","address1":"5201 CENTRAL AVE NE","zip":"87108","primaryAppointments":0,"primaryCap":0,"boosterAppointments":3,"boosterCap":6,"brands":[1],"driveThrough":0,"wheelchairAccessible":null,"mobilityHelp":null,"deafAccommodations":null,"blindAccommodations":null,"paperworkAssistance":null,"seatingAvailable":null,"sensoryFriendly":null,"walkIn":1},{"name":"Walgreens 4th and Griegos","locationId":409,"city":"Albuquerque","lat":35.12991653,"lng":-106.64227552,"startTime":"10:00:00","endTime":"13:00:00","date":"2021-07-19","address1":"4700 4TH ST NW","zip":"87107-39","primaryAppointments":0,"primaryCap":12,"boosterAppointments":0,"boosterCap":0,"brands":[2],"driveThrough":0,"wheelchairAccessible":1,"mobilityHelp":1,"deafAccommodations":1,"blindAccommodations":1,"paperworkAssistance":1,"seatingAvailable":1,"sensoryFriendly":1,"walkIn":1},{"name":"Walgreens in Taos","locationId":411,"city":"Taos","lat":36.38947014,"lng":-105.58257136,"startTime":"11:00:00","endTime":"15:30:00","date":"2021-07-19","address1":"811 PASEO DEL PUEBLO SUR","zip":"87571-63","primaryAppointments":0,"primaryCap":3,"boosterAppointments":0,"boosterCap":3,"brands":[1],"driveThrough":0,"wheelchairAccessible":1,"mobilityHelp":1,"deafAccommodations":1,"blindAccommodations":1,"paperworkAssistance":1,"seatingAvailable":1,"sensoryFriendly":1,"walkIn":1},{"name":"Walgreens","locationId":414,"city":"LOS LUNAS","lat":34.81256394,"lng":-106.75700763,"startTime":"10:00:00","endTime":"12:00:00","date":"2021-07-19","address1":"1861 MAIN ST NW","zip":"87031","primaryAppointments":0,"primaryCap":0,"boosterAppointments":11,"boosterCap":11,"brands":[2],"driveThrough":0,"wheelchairAccessible":1,"mobilityHelp":0,"deafAccommodations":0,"blindAccommodations":0,"paperworkAssistance":1,"seatingAvailable":1,"sensoryFriendly":1,"walkIn":1},{"name":"Walgreens #12407","locationId":415,"city":"Albuquerque","lat":35.21303541,"lng":-106.69806297,"startTime":"11:00:00","endTime":"17:30:00","date":"2021-07-19","address1":"10800 UNSER BLVD NW","zip":"87114-10","primaryAppointments":0,"primaryCap":0,"boosterAppointments":12,"boosterCap":20,"brands":[2],"driveThrough":0,"wheelchairAccessible":1,"mobilityHelp":0,"deafAccommodations":0,"blindAccommodations":1,"paperworkAssistance":0,"seatingAvailable":1,"sensoryFriendly":1,"walkIn":0},{"name":"BCA Medical Associates - Artesia","locationId":443,"city":"Artesia","lat":32.84796422,"lng":-104.39917361,"startTime":"10:00:00","endTime":"10:30:00","date":"2021-07-19","address1":"608 N. 1st Street","zip":"88210","primaryAppointments":0,"primaryCap":0,"boosterAppointments":4,"boosterCap":4,"brands":[1],"driveThrough":0,"wheelchairAccessible":1,"mobilityHelp":0,"deafAccommodations":0,"blindAccommodations":0,"paperworkAssistance":1,"seatingAvailable":1,"sensoryFriendly":1,"walkIn":1},{"name":"NMSU Health and Wellness Center","locationId":502,"city":"Las Cruces","lat":32.2804013,"lng":-106.74946426,"startTime":"13:30:00","endTime":"16:00:00","date":"2021-07-19","address1":"3080 Breland Dr","zip":"88003-80","primaryAppointments":0,"primaryCap":15,"boosterAppointments":0,"boosterCap":0,"brands":[3],"driveThrough":0,"wheelchairAccessible":1,"mobilityHelp":0,"deafAccommodations":1,"blindAccommodations":0,"paperworkAssistance":1,"seatingAvailable":1,"sensoryFriendly":0,"walkIn":0},{"name":"Summits Healthcare","locationId":505,"city":"Deming","lat":32.26941702,"lng":-107.75268256,"startTime":"09:00:00","endTime":"16:30:00","date":"2021-07-19","address1":"111 N Pearl St","zip":"88030","primaryAppointments":0,"primaryCap":3,"boosterAppointments":5,"boosterCap":7,"brands":[2],"driveThrough":1,"wheelchairAccessible":1,"mobilityHelp":0,"deafAccommodations":0,"blindAccommodations":0,"paperworkAssistance":1,"seatingAvailable":1,"sensoryFriendly":1,"walkIn":0},{"name":"pinon family pharmacy","locationId":565,"city":"Farmington","lat":36.75701007,"lng":-108.17725053,"startTime":"10:00:00","endTime":"14:30:00","date":"2021-07-19","address1":"2300 B East 30th Suite 101","zip":"87401","primaryAppointments":0,"primaryCap":9,"boosterAppointments":7,"boosterCap":18,"brands":[2],"driveThrough":0,"wheelchairAccessible":1,"mobilityHelp":1,"deafAccommodations":1,"blindAccommodations":1,"paperworkAssistance":1,"seatingAvailable":1,"sensoryFriendly":1,"walkIn":1},{"name":"Sierra Blanca Pharmacy","locationId":595,"city":"Ruidoso","lat":33.36828529,"lng":-105.66782337,"startTime":"09:00:00","endTime":"11:30:00","date":"2021-07-19","address1":"1206 Mechem Dr.","zip":"88345","primaryAppointments":0,"primaryCap":15,"boosterAppointments":5,"boosterCap":15,"brands":[2],"driveThrough":1,"wheelchairAccessible":1,"mobilityHelp":1,"deafAccommodations":0,"blindAccommodations":0,"paperworkAssistance":1,"seatingAvailable":1,"sensoryFriendly":1,"walkIn":1},{"name":"Amador Health Center","locationId":597,"city":"Las Cruces","lat":32.30177077,"lng":-106.78949882,"startTime":"09:00:00","endTime":"11:00:00","date":"2021-07-19","address1":"999 W Amador Ave Ste A","zip":"88005","primaryAppointments":0,"primaryCap":0,"boosterAppointments":7,"boosterCap":40,"brands":[1],"driveThrough":1,"wheelchairAccessible":1,"mobilityHelp":1,"deafAccommodations":0,"blindAccommodations":0,"paperworkAssistance":1,"seatingAvailable":1,"sensoryFriendly":1,"walkIn":1},{"name":"MANNM","locationId":623,"city":"Los Alamos","lat":35.88096546,"lng":-106.31851286,"startTime":"12:00:00","endTime":"13:00:00","date":"2021-07-19","address1":"3917 West Road Suite A","zip":"87544","primaryAppointments":0,"primaryCap":2,"boosterAppointments":0,"boosterCap":2,"brands":[2],"driveThrough":0,"wheelchairAccessible":1,"mobilityHelp":0,"deafAccommodations":0,"blindAccommodations":0,"paperworkAssistance":1,"seatingAvailable":1,"sensoryFriendly":1,"walkIn":1},{"name":"United Drug Superstore","locationId":635,"city":"Hatch","lat":32.66438228,"lng":-107.15480455,"startTime":"14:00:00","endTime":"17:00:00","date":"2021-07-19","address1":"221 W. Hall Street","zip":"87937","primaryAppointments":0,"primaryCap":0,"boosterAppointments":7,"boosterCap":7,"brands":[1],"driveThrough":1,"wheelchairAccessible":1,"mobilityHelp":1,"deafAccommodations":1,"blindAccommodations":1,"paperworkAssistance":1,"seatingAvailable":1,"sensoryFriendly":1,"walkIn":1},{"name":"DACC East Mesa","locationId":728,"city":"Las Cruces","lat":32.35293749,"lng":-106.73787073,"startTime":"15:30:00","endTime":"18:00:00","date":"2021-07-19","address1":"2800 N Sonoma Ranch Blvd","zip":" 88011 ","primaryAppointments":2,"primaryCap":100,"boosterAppointments":36,"boosterCap":100,"brands":[1],"driveThrough":0,"wheelchairAccessible":1,"mobilityHelp":1,"deafAccommodations":1,"blindAccommodations":1,"paperworkAssistance":1,"seatingAvailable":1,"sensoryFriendly":1,"walkIn":1},{"name":"Pharmaca Integrative Pharmacy","locationId":764,"city":"Santa Fe","lat":35.67293583,"lng":-105.95353254,"startTime":"09:00:00","endTime":"17:30:00","date":"2021-07-19","address1":"530 W CORDOVA RD STE B","zip":"87505","primaryAppointments":0,"primaryCap":34,"boosterAppointments":0,"boosterCap":34,"brands":[2],"driveThrough":0,"wheelchairAccessible":1,"mobilityHelp":0,"deafAccommodations":0,"blindAccommodations":0,"paperworkAssistance":0,"seatingAvailable":1,"sensoryFriendly":1,"walkIn":1},{"name":"Highland Pharmacy","locationId":765,"city":"ALBUQUERQUE","lat":35.088672,"lng":-106.6319821,"startTime":"09:30:00","endTime":"10:00:00","date":"2021-07-19","address1":"717 ENCINO PLACE NE STE 1","zip":"87102","primaryAppointments":0,"primaryCap":6,"boosterAppointments":2,"boosterCap":5,"brands":[2],"driveThrough":0,"wheelchairAccessible":null,"mobilityHelp":null,"deafAccommodations":null,"blindAccommodations":null,"paperworkAssistance":null,"seatingAvailable":null,"sensoryFriendly":null,"walkIn":0},{"name":"Phil's Pharmacy","locationId":766,"city":"Albuquerque","lat":35.08688337,"lng":-106.58449321,"startTime":"09:30:00","endTime":"15:30:00","date":"2021-07-19","address1":"5510 LOMAS BLVD NE","zip":"87110","primaryAppointments":0,"primaryCap":7,"boosterAppointments":0,"boosterCap":3,"brands":[2],"driveThrough":0,"wheelchairAccessible":1,"mobilityHelp":1,"deafAccommodations":0,"blindAccommodations":1,"paperworkAssistance":1,"seatingAvailable":1,"sensoryFriendly":1,"walkIn":1},{"name":"John's Pharmacy","locationId":797,"city":"Albuquerque","lat":35.07264722,"lng":-106.54649682,"startTime":"10:00:00","endTime":"17:00:00","date":"2021-07-19","address1":"9134 CENTRAL AVE SE","zip":"87123","primaryAppointments":0,"primaryCap":70,"boosterAppointments":0,"boosterCap":70,"brands":[2],"driveThrough":0,"wheelchairAccessible":1,"mobilityHelp":1,"deafAccommodations":1,"blindAccommodations":0,"paperworkAssistance":1,"seatingAvailable":1,"sensoryFriendly":1,"walkIn":1},{"name":"Pfizer Walk-in","locationId":806,"city":"Albuquerque","lat":35.17989636,"lng":-106.69024829,"startTime":"08:00:00","endTime":"17:00:00","date":"2021-07-19","address1":"8511 Golf Course Rd NW","zip":"87114","primaryAppointments":0,"primaryCap":16,"boosterAppointments":8,"boosterCap":16,"brands":[1],"driveThrough":0,"wheelchairAccessible":1,"mobilityHelp":1,"deafAccommodations":0,"blindAccommodations":0,"paperworkAssistance":1,"seatingAvailable":1,"sensoryFriendly":0,"walkIn":1},{"name":"Ribera Healthcare","locationId":852,"city":"Albuquerque","lat":35.15678629,"lng":-106.68039748,"startTime":"09:00:00","endTime":"15:30:00","date":"2021-07-19","address1":"6271 Riverside Plaza Ln. NW, Suite D112B","zip":"87120","primaryAppointments":0,"primaryCap":120,"boosterAppointments":0,"boosterCap":80,"brands":[1],"driveThrough":0,"wheelchairAccessible":1,"mobilityHelp":1,"deafAccommodations":0,"blindAccommodations":0,"paperworkAssistance":1,"seatingAvailable":1,"sensoryFriendly":1,"walkIn":1},{"name":"Safeway Pharmacy-Gallup","locationId":864,"city":"Gallup","lat":35.53414716,"lng":-108.75767801,"startTime":"10:00:00","endTime":"19:00:00","date":"2021-07-19","address1":"980 N US HWY 491","zip":"87301","primaryAppointments":0,"primaryCap":72,"boosterAppointments":0,"boosterCap":72,"brands":[1],"driveThrough":0,"wheelchairAccessible":1,"mobilityHelp":0,"deafAccommodations":0,"blindAccommodations":0,"paperworkAssistance":1,"seatingAvailable":1,"sensoryFriendly":1,"walkIn":1},{"name":"Albertsons","locationId":866,"city":"Silver City","lat":32.78632462,"lng":-108.25466432,"startTime":"09:00:00","endTime":"17:00:00","date":"2021-07-19","address1":"1956 Highway 180 East","zip":"88061","primaryAppointments":0,"primaryCap":14,"boosterAppointments":4,"boosterCap":14,"brands":[1],"driveThrough":0,"wheelchairAccessible":1,"mobilityHelp":1,"deafAccommodations":0,"blindAccommodations":0,"paperworkAssistance":1,"seatingAvailable":1,"sensoryFriendly":1,"walkIn":1},{"name":"costco west side ","locationId":875,"city":"Albuquerque","lat":35.19454649,"lng":-106.66175417,"startTime":"09:30:00","endTime":"15:00:00","date":"2021-07-19","address1":"9955 Coors Bypass NW","zip":"87114","primaryAppointments":0,"primaryCap":36,"boosterAppointments":24,"boosterCap":36,"brands":[1],"driveThrough":0,"wheelchairAccessible":1,"mobilityHelp":0,"deafAccommodations":1,"blindAccommodations":1,"paperworkAssistance":1,"seatingAvailable":1,"sensoryFriendly":0,"walkIn":1},{"name":"SMITHS PHARMACY #414 (Main St. Los Lunas, NM)","locationId":879,"city":"LOS LUNAS","lat":34.8082849,"lng":-106.70336231,"startTime":"10:00:00","endTime":"10:30:00","date":"2021-07-19","address1":"2580 MAIN STREET","zip":"87031","primaryAppointments":1,"primaryCap":10,"boosterAppointments":10,"boosterCap":10,"brands":[2],"driveThrough":0,"wheelchairAccessible":1,"mobilityHelp":1,"deafAccommodations":0,"blindAccommodations":0,"paperworkAssistance":1,"seatingAvailable":1,"sensoryFriendly":1,"walkIn":1},{"name":"SMITHS PHARMACY #424 (NM-344, Edgewood, NM)","locationId":881,"city":"EDGEWOOD","lat":35.06082657,"lng":-106.19059088,"startTime":"09:00:00","endTime":"19:30:00","date":"2021-07-19","address1":"02B HWY 344","zip":"87015","primaryAppointments":0,"primaryCap":0,"boosterAppointments":1,"boosterCap":12,"brands":[2],"driveThrough":0,"wheelchairAccessible":1,"mobilityHelp":0,"deafAccommodations":1,"blindAccommodations":1,"paperworkAssistance":1,"seatingAvailable":1,"sensoryFriendly":1,"walkIn":1},{"name":"Smith's Pharmacy #448","locationId":887,"city":"ALBUQUERQUE","lat":35.17859332,"lng":-106.69021692,"startTime":"09:00:00","endTime":"10:00:00","date":"2021-07-19","address1":"8301 GOLF COURSE RD","zip":"87120","primaryAppointments":0,"primaryCap":4,"boosterAppointments":2,"boosterCap":4,"brands":[2],"driveThrough":0,"wheelchairAccessible":1,"mobilityHelp":0,"deafAccommodations":0,"blindAccommodations":0,"paperworkAssistance":1,"seatingAvailable":1,"sensoryFriendly":1,"walkIn":1},{"name":"Smith's Marketplace Pharmacy- Los Alamos","locationId":892,"city":"Los Alamos","lat":35.87909715,"lng":-106.29379486,"startTime":"11:30:00","endTime":"17:00:00","date":"2021-07-19","address1":"751 TRINITY DR, SUITE 100","zip":"87544","primaryAppointments":0,"primaryCap":0,"boosterAppointments":12,"boosterCap":12,"brands":[1],"driveThrough":0,"wheelchairAccessible":1,"mobilityHelp":0,"deafAccommodations":0,"blindAccommodations":0,"paperworkAssistance":0,"seatingAvailable":1,"sensoryFriendly":1,"walkIn":0},{"name":"Del Norte Pharmacy of El Dorado","locationId":919,"city":"Santa Fe","lat":35.53595382,"lng":-105.89101396,"startTime":"11:00:00","endTime":"15:30:00","date":"2021-07-19","address1":"7 Caliente Rd","zip":"87507","primaryAppointments":0,"primaryCap":3,"boosterAppointments":3,"boosterCap":6,"brands":[2],"driveThrough":1,"wheelchairAccessible":1,"mobilityHelp":1,"deafAccommodations":1,"blindAccommodations":0,"paperworkAssistance":1,"seatingAvailable":1,"sensoryFriendly":1,"walkIn":1},{"name":"Del Norte Pharmacy: Las Vegas","locationId":921,"city":"Las Vegas","lat":35.610448,"lng":-105.21089933,"startTime":"10:00:00","endTime":"17:00:00","date":"2021-07-19","address1":"615 North Grand Avenue","zip":"87701","primaryAppointments":1,"primaryCap":11,"boosterAppointments":3,"boosterCap":11,"brands":[2],"driveThrough":1,"wheelchairAccessible":1,"mobilityHelp":1,"deafAccommodations":0,"blindAccommodations":1,"paperworkAssistance":1,"seatingAvailable":1,"sensoryFriendly":1,"walkIn":1},{"name":"Riogrande Care Pharmacy","locationId":946,"city":"Las Cruces","lat":32.3238166,"lng":-106.72697761,"startTime":"08:30:00","endTime":"18:00:00","date":"2021-07-19","address1":" 4371 E Lohman Ave","zip":"88011","primaryAppointments":0,"primaryCap":17,"boosterAppointments":4,"boosterCap":17,"brands":[2],"driveThrough":0,"wheelchairAccessible":1,"mobilityHelp":0,"deafAccommodations":0,"blindAccommodations":0,"paperworkAssistance":1,"seatingAvailable":1,"sensoryFriendly":1,"walkIn":1},{"name":"Safeway Pharmacy Farmington","locationId":954,"city":"Farmington","lat":36.75076225,"lng":-108.16125505,"startTime":"10:00:00","endTime":"16:00:00","date":"2021-07-19","address1":"3540 E Main St.","zip":"87402","primaryAppointments":0,"primaryCap":24,"boosterAppointments":0,"boosterCap":24,"brands":[3],"driveThrough":0,"wheelchairAccessible":1,"mobilityHelp":0,"deafAccommodations":0,"blindAccommodations":0,"paperworkAssistance":1,"seatingAvailable":1,"sensoryFriendly":1,"walkIn":1},{"name":"Del-Rey Pharmacy","locationId":969,"city":"Las Cruces","lat":32.35192765,"lng":-106.76836015,"startTime":"10:00:00","endTime":"17:00:00","date":"2021-07-19","address1":"3291 Del Rey Blvd #3","zip":"88012","primaryAppointments":0,"primaryCap":70,"boosterAppointments":0,"boosterCap":70,"brands":[2],"driveThrough":0,"wheelchairAccessible":1,"mobilityHelp":1,"deafAccommodations":0,"blindAccommodations":0,"paperworkAssistance":1,"seatingAvailable":1,"sensoryFriendly":1,"walkIn":1},{"name":"Walmart 3731-Bernalillo","locationId":1042,"city":"Bernalillo ","lat":35.31951183,"lng":-106.57261526,"startTime":"09:30:00","endTime":"20:00:00","date":"2021-07-19","address1":"460 NM HWY #528","zip":"87004","primaryAppointments":0,"primaryCap":18,"boosterAppointments":6,"boosterCap":18,"brands":[1],"driveThrough":0,"wheelchairAccessible":1,"mobilityHelp":0,"deafAccommodations":1,"blindAccommodations":1,"paperworkAssistance":1,"seatingAvailable":1,"sensoryFriendly":1,"walkIn":1},{"name":"El Centro - Rio Arriba Health Commons - EVHS School Based Clinic","locationId":1044,"city":"Espanola","lat":36.00590251,"lng":-106.03939489,"startTime":"09:00:00","endTime":"10:00:00","date":"2021-07-19","address1":"1111 El Llano Road","zip":"87532","primaryAppointments":2,"primaryCap":4,"boosterAppointments":2,"boosterCap":2,"brands":[1],"driveThrough":0,"wheelchairAccessible":1,"mobilityHelp":1,"deafAccommodations":1,"blindAccommodations":1,"paperworkAssistance":1,"seatingAvailable":1,"sensoryFriendly":1,"walkIn":1},{"name":"HMS-SC: COVID-19 Community Clinic","locationId":1048,"city":"Silver City","lat":32.79373006,"lng":-108.26215209,"startTime":"09:00:00","endTime":"17:30:00","date":"2021-07-19","address1":"1304 E. 32nd St","zip":"88061","primaryAppointments":0,"primaryCap":15,"boosterAppointments":4,"boosterCap":15,"brands":[1,2,3],"driveThrough":1,"wheelchairAccessible":1,"mobilityHelp":1,"deafAccommodations":0,"blindAccommodations":0,"paperworkAssistance":1,"seatingAvailable":1,"sensoryFriendly":1,"walkIn":1},{"name":"Walmart Pharmacy on Carlisle","locationId":1061,"city":"Albuquerque","lat":35.11031931,"lng":-106.60821446,"startTime":"10:00:00","endTime":"14:30:00","date":"2021-07-19","address1":"2701 Carlisle BLVD NE","zip":"87110","primaryAppointments":1,"primaryCap":7,"boosterAppointments":5,"boosterCap":7,"brands":[1],"driveThrough":0,"wheelchairAccessible":1,"mobilityHelp":0,"deafAccommodations":1,"blindAccommodations":1,"paperworkAssistance":1,"seatingAvailable":1,"sensoryFriendly":1,"walkIn":1},{"name":"Walmart 3732 Rio Rancho Pfizer","locationId":1063,"city":"rio rancho","lat":35.24300137,"lng":-106.70109497,"startTime":"10:00:00","endTime":"15:30:00","date":"2021-07-19","address1":"901 unser blvd se","zip":"87124","primaryAppointments":0,"primaryCap":0,"boosterAppointments":1,"boosterCap":12,"brands":[1],"driveThrough":0,"wheelchairAccessible":1,"mobilityHelp":0,"deafAccommodations":0,"blindAccommodations":0,"paperworkAssistance":1,"seatingAvailable":1,"sensoryFriendly":0,"walkIn":1},{"name":"BCA Pediatrics ","locationId":1086,"city":"Carlsbad","lat":32.43456737,"lng":-104.2341895,"startTime":"10:00:00","endTime":"11:30:00","date":"2021-07-19","address1":"1034 Spring St. ","zip":"88220","primaryAppointments":1,"primaryCap":18,"boosterAppointments":0,"boosterCap":0,"brands":[1],"driveThrough":0,"wheelchairAccessible":1,"mobilityHelp":0,"deafAccommodations":0,"blindAccommodations":0,"paperworkAssistance":1,"seatingAvailable":1,"sensoryFriendly":1,"walkIn":0},{"name":"Expo NM @African American Pavilion J & J","locationId":1154,"city":"Albuquerque","lat":35.0815206,"lng":-106.57290324,"startTime":"14:00:00","endTime":"14:30:00","date":"2021-07-19","address1":"300 San Pedro Dr. NE ","zip":"87108","primaryAppointments":2,"primaryCap":50,"boosterAppointments":0,"boosterCap":0,"brands":[3],"driveThrough":0,"wheelchairAccessible":1,"mobilityHelp":0,"deafAccommodations":0,"blindAccommodations":0,"paperworkAssistance":1,"seatingAvailable":1,"sensoryFriendly":0,"walkIn":1},{"name":"Pajarito Senior Center","locationId":1179,"city":"Albuquerque","lat":34.98701,"lng":-106.69607,"startTime":"14:00:00","endTime":"17:00:00","date":"2021-07-19","address1":"6080 Isleta Blvd SW","zip":"87105","primaryAppointments":0,"primaryCap":120,"boosterAppointments":4,"boosterCap":120,"brands":[1],"driveThrough":0,"wheelchairAccessible":0,"mobilityHelp":0,"deafAccommodations":0,"blindAccommodations":0,"paperworkAssistance":1,"seatingAvailable":1,"sensoryFriendly":1,"walkIn":1},{"name":"Belen, Walmart Pharmacy  Store 1414","locationId":1186,"city":"Belen","lat":34.69707015,"lng":-106.76885824,"startTime":"11:00:00","endTime":"16:00:00","date":"2021-07-19","address1":"1 I-25 Bypass","zip":"87002","primaryAppointments":1,"primaryCap":1,"boosterAppointments":10,"boosterCap":10,"brands":[1],"driveThrough":0,"wheelchairAccessible":1,"mobilityHelp":1,"deafAccommodations":1,"blindAccommodations":1,"paperworkAssistance":1,"seatingAvailable":1,"sensoryFriendly":1,"walkIn":1},{"name":"Walmart Neighborhood Market - Juan Tabo/Menual Pfizer","locationId":1187,"city":"Albuquerque","lat":35.1086634,"lng":-106.51788913,"startTime":"09:00:00","endTime":"20:00:00","date":"2021-07-19","address1":"11001 Menaul Blvd","zip":"87112","primaryAppointments":2,"primaryCap":60,"boosterAppointments":3,"boosterCap":60,"brands":[1],"driveThrough":0,"wheelchairAccessible":1,"mobilityHelp":1,"deafAccommodations":1,"blindAccommodations":1,"paperworkAssistance":1,"seatingAvailable":1,"sensoryFriendly":1,"walkIn":1},{"name":"Walmart Pharmacy","locationId":1189,"city":"Albuquerque","lat":35.11034324,"lng":-106.72895676,"startTime":"09:30:00","endTime":"13:30:00","date":"2021-07-19","address1":"1820 Unser Blvd NW","zip":"87120","primaryAppointments":0,"primaryCap":5,"boosterAppointments":2,"boosterCap":7,"brands":[1],"driveThrough":0,"wheelchairAccessible":1,"mobilityHelp":0,"deafAccommodations":1,"blindAccommodations":1,"paperworkAssistance":1,"seatingAvailable":1,"sensoryFriendly":1,"walkIn":1},{"name":"Walmart Pharmacy Los Lunas Pfizer","locationId":1190,"city":"Los Lunas","lat":34.81641109,"lng":-106.76333129,"startTime":"14:00:00","endTime":"17:00:00","date":"2021-07-19","address1":"2250 Main Steeet","zip":"87031","primaryAppointments":0,"primaryCap":0,"boosterAppointments":12,"boosterCap":12,"brands":[1],"driveThrough":0,"wheelchairAccessible":1,"mobilityHelp":1,"deafAccommodations":1,"blindAccommodations":1,"paperworkAssistance":1,"seatingAvailable":1,"sensoryFriendly":1,"walkIn":1},{"name":"Walmart Farmington East Pfizer","locationId":1225,"city":"Farmington","lat":36.76773616,"lng":-108.15238753,"startTime":"09:00:00","endTime":"19:00:00","date":"2021-07-19","address1":"4600 E Main St ","zip":"87401","primaryAppointments":0,"primaryCap":18,"boosterAppointments":1,"boosterCap":18,"brands":[1],"driveThrough":0,"wheelchairAccessible":1,"mobilityHelp":0,"deafAccommodations":0,"blindAccommodations":0,"paperworkAssistance":1,"seatingAvailable":1,"sensoryFriendly":1,"walkIn":1},{"name":"Raton High School Gym","locationId":1248,"city":"Raton","lat":36.88602062,"lng":-104.45180613,"startTime":"13:00:00","endTime":"17:00:00","date":"2021-07-19","address1":"1535 Tiger Circle","zip":"87740","primaryAppointments":5,"primaryCap":320,"boosterAppointments":0,"boosterCap":0,"brands":[1],"driveThrough":0,"wheelchairAccessible":1,"mobilityHelp":1,"deafAccommodations":1,"blindAccommodations":1,"paperworkAssistance":1,"seatingAvailable":1,"sensoryFriendly":1,"walkIn":1}]}