{"status":"ok","message":"","data":[{"name":"Albertsons - ABQ Academy","locationId":43,"city":"Albuquerque","lat":35.15374679,"lng":-106.49926406,"startTime":"12:00:00","endTime":"14:30:00","date":"2021-07-11","address1":"12201 ACADEMY RD NE","zip":"87111","primaryAppointments":1,"primaryCap":4,"boosterAppointments":3,"boosterCap":3,"brands":[1],"driveThrough":0,"wheelchairAccessible":1,"mobilityHelp":1,"deafAccommodations":0,"blindAccommodations":0,"paperworkAssistance":1,"seatingAvailable":1,"sensoryFriendly":1,"walkIn":1},{"name":"Las Cruces Walmart Pharmacy - Rinconada Blvd","locationId":45,"city":"Las Cruces","lat":32.35941416,"lng":-106.74625632,"startTime":"10:30:00","endTime":"17:30:00","date":"2021-07-11","address1":"3331 Rinconada Blvd","zip":"88011-71","primaryAppointments":2,"primaryCap":22,"boosterAppointments":0,"boosterCap":0,"brands":[2],"driveThrough":0,"wheelchairAccessible":1,"mobilityHelp":0,"deafAccommodations":1,"blindAccommodations":0,"paperworkAssistance":1,"seatingAvailable":1,"sensoryFriendly":0,"walkIn":1},{"name":"Artesia Walmart Pharmacy","locationId":46,"city":"Artesia","lat":32.84749848,"lng":-104.42713775,"startTime":"10:30:00","endTime":"16:00:00","date":"2021-07-11","address1":"604 N 26th St","zip":"88210-37","primaryAppointments":0,"primaryCap":14,"boosterAppointments":1,"boosterCap":1,"brands":[2],"driveThrough":0,"wheelchairAccessible":1,"mobilityHelp":0,"deafAccommodations":1,"blindAccommodations":0,"paperworkAssistance":1,"seatingAvailable":1,"sensoryFriendly":0,"walkIn":0},{"name":"Espanola Walmart 2656","locationId":48,"city":"Espanola","lat":36.01504511,"lng":-106.0681748,"startTime":"11:00:00","endTime":"16:00:00","date":"2021-07-11","address1":"1610 N Riverside Dr","zip":"87532-80","primaryAppointments":1,"primaryCap":7,"boosterAppointments":0,"boosterCap":7,"brands":[2],"driveThrough":0,"wheelchairAccessible":1,"mobilityHelp":0,"deafAccommodations":0,"blindAccommodations":0,"paperworkAssistance":1,"seatingAvailable":1,"sensoryFriendly":0,"walkIn":1},{"name":"Walmart - Farmington E. Main--826","locationId":49,"city":"Farmington","lat":36.76765218,"lng":-108.1523218,"startTime":"10:00:00","endTime":"17:30:00","date":"2021-07-11","address1":"4600 E Main St","zip":"87402-","primaryAppointments":0,"primaryCap":0,"boosterAppointments":7,"boosterCap":26,"brands":[2],"driveThrough":0,"wheelchairAccessible":1,"mobilityHelp":1,"deafAccommodations":0,"blindAccommodations":0,"paperworkAssistance":1,"seatingAvailable":1,"sensoryFriendly":1,"walkIn":1},{"name":"Farmington Walmart West Side ","locationId":50,"city":"Farmington","lat":36.73206361,"lng":-108.22798666,"startTime":"10:00:00","endTime":"16:00:00","date":"2021-07-11","address1":"1400 W Main St","zip":"87401","primaryAppointments":0,"primaryCap":10,"boosterAppointments":0,"boosterCap":10,"brands":[2],"driveThrough":0,"wheelchairAccessible":1,"mobilityHelp":0,"deafAccommodations":0,"blindAccommodations":0,"paperworkAssistance":1,"seatingAvailable":1,"sensoryFriendly":0,"walkIn":1},{"name":"WM RX-GALLUP, NM","locationId":51,"city":"Gallup","lat":35.52774518,"lng":-108.7694296,"startTime":"10:30:00","endTime":"16:30:00","date":"2021-07-11","address1":"1650 W Maloney Ave","zip":"87301-33","primaryAppointments":0,"primaryCap":30,"boosterAppointments":9,"boosterCap":10,"brands":[2],"driveThrough":0,"wheelchairAccessible":1,"mobilityHelp":1,"deafAccommodations":1,"blindAccommodations":1,"paperworkAssistance":1,"seatingAvailable":1,"sensoryFriendly":1,"walkIn":0},{"name":"Walmart Pharmacy Hobbs, NM","locationId":52,"city":"Hobbs","lat":32.74293834,"lng":-103.16149549,"startTime":"11:00:00","endTime":"17:00:00","date":"2021-07-11","address1":"3800 N Lovington Hwy","zip":"88240-10","primaryAppointments":0,"primaryCap":18,"boosterAppointments":4,"boosterCap":18,"brands":[2],"driveThrough":0,"wheelchairAccessible":1,"mobilityHelp":1,"deafAccommodations":1,"blindAccommodations":1,"paperworkAssistance":1,"seatingAvailable":1,"sensoryFriendly":1,"walkIn":1},{"name":"Walmart - Wyoming/Menaul--5491","locationId":55,"city":"Albuquerque","lat":35.10640882,"lng":-106.54939702,"startTime":"11:00:00","endTime":"13:00:00","date":"2021-07-11","address1":"2266 Wyoming Blvd NE","zip":"87112-26","primaryAppointments":1,"primaryCap":5,"boosterAppointments":5,"boosterCap":5,"brands":[2],"driveThrough":0,"wheelchairAccessible":null,"mobilityHelp":null,"deafAccommodations":null,"blindAccommodations":null,"paperworkAssistance":null,"seatingAvailable":null,"sensoryFriendly":null,"walkIn":1},{"name":"Roswell Walmart Pharmacy","locationId":104,"city":"Roswell","lat":33.44928211,"lng":-104.52682147,"startTime":"10:30:00","endTime":"16:30:00","date":"2021-07-11","address1":"4500 N Main St","zip":"88201-03","primaryAppointments":0,"primaryCap":1,"boosterAppointments":12,"boosterCap":14,"brands":[2],"driveThrough":0,"wheelchairAccessible":1,"mobilityHelp":0,"deafAccommodations":1,"blindAccommodations":0,"paperworkAssistance":1,"seatingAvailable":1,"sensoryFriendly":0,"walkIn":0},{"name":"Walmart - Academy/Wyoming-824","locationId":141,"city":"Albuquerque","lat":35.14433804,"lng":-106.55099885,"startTime":"10:00:00","endTime":"17:00:00","date":"2021-07-11","address1":"8000 Academy Rd NE","zip":"87111-11","primaryAppointments":0,"primaryCap":0,"boosterAppointments":9,"boosterCap":24,"brands":[1,2],"driveThrough":0,"wheelchairAccessible":1,"mobilityHelp":1,"deafAccommodations":1,"blindAccommodations":1,"paperworkAssistance":1,"seatingAvailable":1,"sensoryFriendly":0,"walkIn":1},{"name":"Walmart - Cerrillos Road","locationId":143,"city":"Santa Fe","lat":35.65187605,"lng":-105.99928406,"startTime":"10:30:00","endTime":"17:00:00","date":"2021-07-11","address1":"3251 Cerrillos Rd","zip":"87507-29","primaryAppointments":0,"primaryCap":6,"boosterAppointments":1,"boosterCap":6,"brands":[2],"driveThrough":0,"wheelchairAccessible":1,"mobilityHelp":0,"deafAccommodations":0,"blindAccommodations":0,"paperworkAssistance":1,"seatingAvailable":1,"sensoryFriendly":0,"walkIn":1},{"name":"walmat - san mateo/zuni 831","locationId":144,"city":"Albuquerque","lat":35.07568994,"lng":-106.58850182,"startTime":"10:00:00","endTime":"15:00:00","date":"2021-07-11","address1":"301 San Mateo Blvd SE","zip":"87108-56","primaryAppointments":1,"primaryCap":6,"boosterAppointments":7,"boosterCap":16,"brands":[1,2],"driveThrough":0,"wheelchairAccessible":1,"mobilityHelp":0,"deafAccommodations":0,"blindAccommodations":0,"paperworkAssistance":1,"seatingAvailable":1,"sensoryFriendly":1,"walkIn":1},{"name":"walmart on eubank and I40","locationId":145,"city":"Albuquerque","lat":35.07843081,"lng":-106.52987822,"startTime":"11:00:00","endTime":"16:00:00","date":"2021-07-11","address1":"400 Eubank Blvd NE","zip":"87123-27","primaryAppointments":2,"primaryCap":8,"boosterAppointments":8,"boosterCap":8,"brands":[1],"driveThrough":0,"wheelchairAccessible":1,"mobilityHelp":0,"deafAccommodations":0,"blindAccommodations":0,"paperworkAssistance":1,"seatingAvailable":1,"sensoryFriendly":1,"walkIn":1},{"name":"Walmart - Carlisle-850","locationId":148,"city":"Albuquerque","lat":35.1110806,"lng":-106.60858805,"startTime":"10:00:00","endTime":"17:00:00","date":"2021-07-11","address1":"2701 Carlisle Blvd NE","zip":"87110-28","primaryAppointments":0,"primaryCap":11,"boosterAppointments":1,"boosterCap":11,"brands":[2],"driveThrough":0,"wheelchairAccessible":1,"mobilityHelp":0,"deafAccommodations":0,"blindAccommodations":0,"paperworkAssistance":1,"seatingAvailable":1,"sensoryFriendly":1,"walkIn":1},{"name":"Las Cruces Walmart Pharmacy - Walton/Lohman","locationId":149,"city":"Las Cruces","lat":32.31453229,"lng":-106.75064357,"startTime":"10:30:00","endTime":"16:00:00","date":"2021-07-11","address1":"571 Walton Blvd","zip":"88001-84","primaryAppointments":0,"primaryCap":0,"boosterAppointments":20,"boosterCap":20,"brands":[2],"driveThrough":0,"wheelchairAccessible":1,"mobilityHelp":0,"deafAccommodations":1,"blindAccommodations":0,"paperworkAssistance":1,"seatingAvailable":1,"sensoryFriendly":0,"walkIn":0},{"name":"Ruidoso Walmart Pharmacy","locationId":151,"city":"Ruidoso Downs","lat":33.32416962,"lng":-105.61430792,"startTime":"10:30:00","endTime":"17:30:00","date":"2021-07-11","address1":"26180 Us Highway 70 E","zip":"88346-91","primaryAppointments":0,"primaryCap":22,"boosterAppointments":0,"boosterCap":0,"brands":[2],"driveThrough":0,"wheelchairAccessible":1,"mobilityHelp":0,"deafAccommodations":1,"blindAccommodations":0,"paperworkAssistance":1,"seatingAvailable":1,"sensoryFriendly":0,"walkIn":1},{"name":"Carlsbad Walmart Pharmacy","locationId":152,"city":"Carlsbad","lat":32.39343347,"lng":-104.22315969,"startTime":"10:30:00","endTime":"16:00:00","date":"2021-07-11","address1":"2401 S Canal St","zip":"88220-65","primaryAppointments":0,"primaryCap":2,"boosterAppointments":18,"boosterCap":18,"brands":[2],"driveThrough":0,"wheelchairAccessible":1,"mobilityHelp":0,"deafAccommodations":1,"blindAccommodations":0,"paperworkAssistance":1,"seatingAvailable":1,"sensoryFriendly":0,"walkIn":1},{"name":"Alamogordo Walmart Supercenter Pharmacy","locationId":153,"city":"Alamogordo","lat":32.887054,"lng":-105.95864706,"startTime":"10:30:00","endTime":"16:30:00","date":"2021-07-11","address1":"233 S New York Ave","zip":"88310","primaryAppointments":0,"primaryCap":0,"boosterAppointments":13,"boosterCap":14,"brands":[2],"driveThrough":0,"wheelchairAccessible":1,"mobilityHelp":0,"deafAccommodations":1,"blindAccommodations":1,"paperworkAssistance":1,"seatingAvailable":1,"sensoryFriendly":0,"walkIn":1},{"name":"Silver City Walmart Pharmacy","locationId":154,"city":"Silver City","lat":32.78863751,"lng":-108.24787823,"startTime":"10:30:00","endTime":"17:00:00","date":"2021-07-11","address1":"2501 Highway 180 E","zip":"88061","primaryAppointments":0,"primaryCap":20,"boosterAppointments":0,"boosterCap":0,"brands":[2],"driveThrough":0,"wheelchairAccessible":1,"mobilityHelp":0,"deafAccommodations":1,"blindAccommodations":1,"paperworkAssistance":1,"seatingAvailable":1,"sensoryFriendly":0,"walkIn":1},{"name":"Truth or Consequences Walmart Pharmacy","locationId":155,"city":"Truth or Consequences","lat":33.15192129,"lng":-107.25076696,"startTime":"10:30:00","endTime":"16:30:00","date":"2021-07-11","address1":"2001 HR Ashbaugh Dr","zip":"87901-37","primaryAppointments":0,"primaryCap":0,"boosterAppointments":14,"boosterCap":14,"brands":[2],"driveThrough":0,"wheelchairAccessible":1,"mobilityHelp":0,"deafAccommodations":1,"blindAccommodations":1,"paperworkAssistance":1,"seatingAvailable":1,"sensoryFriendly":0,"walkIn":1},{"name":"Las Cruces Walmart Pharmacy S. Valley Dr.","locationId":156,"city":"Las Cruces","lat":32.28808791,"lng":-106.78587356,"startTime":"10:30:00","endTime":"17:30:00","date":"2021-07-11","address1":"1550 S Valley Dr","zip":"88005-31","primaryAppointments":1,"primaryCap":22,"boosterAppointments":0,"boosterCap":0,"brands":[1],"driveThrough":0,"wheelchairAccessible":1,"mobilityHelp":0,"deafAccommodations":1,"blindAccommodations":0,"paperworkAssistance":1,"seatingAvailable":1,"sensoryFriendly":0,"walkIn":1},{"name":"Deming Walmart Pharmacy","locationId":157,"city":"Deming","lat":32.27045168,"lng":-107.74769491,"startTime":"10:30:00","endTime":"17:30:00","date":"2021-07-11","address1":"1021 E Pine St","zip":"88030-70","primaryAppointments":0,"primaryCap":0,"boosterAppointments":20,"boosterCap":22,"brands":[2],"driveThrough":0,"wheelchairAccessible":1,"mobilityHelp":0,"deafAccommodations":1,"blindAccommodations":0,"paperworkAssistance":1,"seatingAvailable":1,"sensoryFriendly":0,"walkIn":1},{"name":"Walmart - Neighborhood Market-Sonoma Ranch","locationId":158,"city":"Las Cruces","lat":32.32727632,"lng":-106.72326175,"startTime":"10:00:00","endTime":"12:00:00","date":"2021-07-11","address1":"150 N Sonoma Ranch Blvd","zip":"88001-16","primaryAppointments":1,"primaryCap":11,"boosterAppointments":3,"boosterCap":3,"brands":[2],"driveThrough":0,"wheelchairAccessible":null,"mobilityHelp":null,"deafAccommodations":null,"blindAccommodations":null,"paperworkAssistance":null,"seatingAvailable":null,"sensoryFriendly":null,"walkIn":1},{"name":"Walmart Neighborhood Market - Alamogordo Indian Wells","locationId":159,"city":"Alamogordo","lat":32.9159433,"lng":-105.931196,"startTime":"10:30:00","endTime":"13:00:00","date":"2021-07-11","address1":"2401 Indian Wells Rd.","zip":"88310-38","primaryAppointments":0,"primaryCap":5,"boosterAppointments":3,"boosterCap":5,"brands":[2],"driveThrough":0,"wheelchairAccessible":null,"mobilityHelp":null,"deafAccommodations":null,"blindAccommodations":null,"paperworkAssistance":null,"seatingAvailable":null,"sensoryFriendly":null,"walkIn":1},{"name":"Walmart Neighborhood Market 5675 Menaul and Juan Tabo","locationId":160,"city":"Albuquerque","lat":35.10928475,"lng":-106.51840828,"startTime":"10:00:00","endTime":"17:00:00","date":"2021-07-11","address1":"11001 Menaul Blvd","zip":"87112","primaryAppointments":0,"primaryCap":36,"boosterAppointments":4,"boosterCap":36,"brands":[2],"driveThrough":0,"wheelchairAccessible":1,"mobilityHelp":1,"deafAccommodations":1,"blindAccommodations":1,"paperworkAssistance":1,"seatingAvailable":1,"sensoryFriendly":0,"walkIn":1},{"name":"Walmart Clovis","locationId":161,"city":"Clovis","lat":34.43711823,"lng":-103.2006662,"startTime":"10:30:00","endTime":"17:30:00","date":"2021-07-11","address1":"3728 N Prince St","zip":"88101-97","primaryAppointments":0,"primaryCap":4,"boosterAppointments":3,"boosterCap":8,"brands":[2],"driveThrough":0,"wheelchairAccessible":1,"mobilityHelp":0,"deafAccommodations":0,"blindAccommodations":0,"paperworkAssistance":1,"seatingAvailable":1,"sensoryFriendly":0,"walkIn":1},{"name":"Walmart - Portales","locationId":162,"city":"Portales","lat":34.19790879,"lng":-103.31932888,"startTime":"10:30:00","endTime":"13:00:00","date":"2021-07-11","address1":"1604 E Spruce St","zip":"88130-94","primaryAppointments":0,"primaryCap":5,"boosterAppointments":4,"boosterCap":5,"brands":[2],"driveThrough":0,"wheelchairAccessible":null,"mobilityHelp":null,"deafAccommodations":null,"blindAccommodations":null,"paperworkAssistance":null,"seatingAvailable":null,"sensoryFriendly":null,"walkIn":1},{"name":"NHM Golf Course Moderna Walkin","locationId":163,"city":"Albuquerque","lat":35.17995036,"lng":-106.69015597,"startTime":"10:00:00","endTime":"17:30:00","date":"2021-07-11","address1":"8511 Golf Course Rd NW","zip":"87114-48","primaryAppointments":0,"primaryCap":12,"boosterAppointments":6,"boosterCap":10,"brands":[2],"driveThrough":0,"wheelchairAccessible":1,"mobilityHelp":1,"deafAccommodations":1,"blindAccommodations":0,"paperworkAssistance":1,"seatingAvailable":1,"sensoryFriendly":1,"walkIn":0},{"name":"Las Vegas Walmart Pharmacy","locationId":165,"city":"Las Vegas","lat":35.62001926,"lng":-105.22765362,"startTime":"10:00:00","endTime":"16:00:00","date":"2021-07-11","address1":"2609 7th St","zip":"87701-48","primaryAppointments":0,"primaryCap":10,"boosterAppointments":3,"boosterCap":10,"brands":[2],"driveThrough":0,"wheelchairAccessible":1,"mobilityHelp":0,"deafAccommodations":0,"blindAccommodations":0,"paperworkAssistance":1,"seatingAvailable":1,"sensoryFriendly":0,"walkIn":1},{"name":"Walmart-Belen-1414","locationId":166,"city":"Belen","lat":34.69695185,"lng":-106.76842281,"startTime":"10:30:00","endTime":"13:00:00","date":"2021-07-11","address1":"1 I 25 Bypass","zip":"87002-81","primaryAppointments":0,"primaryCap":12,"boosterAppointments":2,"boosterCap":2,"brands":[2],"driveThrough":0,"wheelchairAccessible":1,"mobilityHelp":0,"deafAccommodations":0,"blindAccommodations":0,"paperworkAssistance":1,"seatingAvailable":1,"sensoryFriendly":1,"walkIn":1},{"name":"Walmart- Grants","locationId":167,"city":"Grants","lat":35.12408422,"lng":-107.82639486,"startTime":"10:30:00","endTime":"16:00:00","date":"2021-07-11","address1":"1000 Robert Rd","zip":"87020-40","primaryAppointments":1,"primaryCap":10,"boosterAppointments":1,"boosterCap":10,"brands":[2],"driveThrough":0,"wheelchairAccessible":1,"mobilityHelp":0,"deafAccommodations":1,"blindAccommodations":0,"paperworkAssistance":1,"seatingAvailable":1,"sensoryFriendly":1,"walkIn":1},{"name":"Walmart - Coors I-40--2924","locationId":169,"city":"Albuquerque","lat":35.10998404,"lng":-106.7016564,"startTime":"11:00:00","endTime":"15:30:00","date":"2021-07-11","address1":"2550 Coors Blvd NW","zip":"87120","primaryAppointments":0,"primaryCap":8,"boosterAppointments":12,"boosterCap":12,"brands":[2],"driveThrough":0,"wheelchairAccessible":1,"mobilityHelp":0,"deafAccommodations":0,"blindAccommodations":0,"paperworkAssistance":0,"seatingAvailable":1,"sensoryFriendly":0,"walkIn":1},{"name":"Walmart - Santa Fe Herrera 3423","locationId":170,"city":"Santa Fe","lat":35.61961019,"lng":-106.03256585,"startTime":"09:30:00","endTime":"13:00:00","date":"2021-07-11","address1":"5701 Herrera Dr","zip":"87507-26","primaryAppointments":0,"primaryCap":0,"boosterAppointments":5,"boosterCap":14,"brands":[2],"driveThrough":0,"wheelchairAccessible":1,"mobilityHelp":0,"deafAccommodations":1,"blindAccommodations":1,"paperworkAssistance":1,"seatingAvailable":1,"sensoryFriendly":0,"walkIn":1},{"name":"Walmart-Bernalillo 3731","locationId":172,"city":"Bernalillo","lat":35.3194959,"lng":-106.57174681,"startTime":"10:30:00","endTime":"15:00:00","date":"2021-07-11","address1":"460 Highway 528","zip":"87004-66","primaryAppointments":0,"primaryCap":5,"boosterAppointments":1,"boosterCap":5,"brands":[2],"driveThrough":0,"wheelchairAccessible":1,"mobilityHelp":0,"deafAccommodations":1,"blindAccommodations":1,"paperworkAssistance":1,"seatingAvailable":1,"sensoryFriendly":1,"walkIn":1},{"name":"Walmart Neighborhood Market Cutler Store 2451","locationId":173,"city":"Albuquerque","lat":35.10440027,"lng":-106.59275797,"startTime":"10:00:00","endTime":"16:00:00","date":"2021-07-11","address1":"4700 Cutler Ave NE","zip":"87110-40","primaryAppointments":0,"primaryCap":4,"boosterAppointments":2,"boosterCap":6,"brands":[2],"driveThrough":0,"wheelchairAccessible":1,"mobilityHelp":0,"deafAccommodations":0,"blindAccommodations":0,"paperworkAssistance":1,"seatingAvailable":1,"sensoryFriendly":1,"walkIn":1},{"name":"Walmart Neighborhood Market 3385 Sage & 98th","locationId":174,"city":"Albuquerque","lat":35.05426216,"lng":-106.73944857,"startTime":"10:00:00","endTime":"15:30:00","date":"2021-07-11","address1":"9600 Sage Rd SW","zip":"87121-68","primaryAppointments":1,"primaryCap":13,"boosterAppointments":5,"boosterCap":27,"brands":[2],"driveThrough":0,"wheelchairAccessible":1,"mobilityHelp":0,"deafAccommodations":1,"blindAccommodations":1,"paperworkAssistance":0,"seatingAvailable":1,"sensoryFriendly":1,"walkIn":1},{"name":"walmart 3512 montgomery","locationId":176,"city":"Albuquerque","lat":35.12915803,"lng":-106.51781202,"startTime":"10:00:00","endTime":"16:00:00","date":"2021-07-11","address1":"11018 Montgomery Blvd NE","zip":"87111-39","primaryAppointments":0,"primaryCap":10,"boosterAppointments":0,"boosterCap":10,"brands":[2],"driveThrough":0,"wheelchairAccessible":1,"mobilityHelp":0,"deafAccommodations":1,"blindAccommodations":1,"paperworkAssistance":0,"seatingAvailable":1,"sensoryFriendly":1,"walkIn":1},{"name":"Walmart Neighborhood Market 3517 Rio Rancho Hwy 528","locationId":177,"city":"Rio Rancho","lat":35.23879697,"lng":-106.65842245,"startTime":"10:00:00","endTime":"12:30:00","date":"2021-07-11","address1":"1115 NM Hwy 528 SE","zip":"87124-00","primaryAppointments":0,"primaryCap":3,"boosterAppointments":6,"boosterCap":6,"brands":[2],"driveThrough":0,"wheelchairAccessible":1,"mobilityHelp":0,"deafAccommodations":1,"blindAccommodations":1,"paperworkAssistance":0,"seatingAvailable":1,"sensoryFriendly":1,"walkIn":1},{"name":"Walmart Neighborhood Market- Unser/Ladera","locationId":178,"city":"Albuquerque","lat":35.10228264,"lng":-106.72844695,"startTime":"10:00:00","endTime":"17:30:00","date":"2021-07-11","address1":"1820 Unser Blvd NW","zip":"87120-39","primaryAppointments":0,"primaryCap":15,"boosterAppointments":6,"boosterCap":7,"brands":[2],"driveThrough":0,"wheelchairAccessible":1,"mobilityHelp":0,"deafAccommodations":0,"blindAccommodations":0,"paperworkAssistance":0,"seatingAvailable":1,"sensoryFriendly":1,"walkIn":1},{"name":"Walmart - Edgewood-4201","locationId":179,"city":"Edgewood","lat":35.07051708,"lng":-106.18902695,"startTime":"10:00:00","endTime":"16:00:00","date":"2021-07-11","address1":"66 State Road 344","zip":"87015-68","primaryAppointments":0,"primaryCap":0,"boosterAppointments":10,"boosterCap":10,"brands":[2],"driveThrough":0,"wheelchairAccessible":1,"mobilityHelp":0,"deafAccommodations":0,"blindAccommodations":0,"paperworkAssistance":1,"seatingAvailable":1,"sensoryFriendly":0,"walkIn":1},{"name":"Walmart Pharmacy","locationId":180,"city":"Socorro","lat":34.07547937,"lng":-106.89283501,"startTime":"10:30:00","endTime":"12:00:00","date":"2021-07-11","address1":"700 6th St N","zip":"87801-42","primaryAppointments":1,"primaryCap":5,"boosterAppointments":4,"boosterCap":8,"brands":[2],"driveThrough":0,"wheelchairAccessible":1,"mobilityHelp":1,"deafAccommodations":1,"blindAccommodations":0,"paperworkAssistance":1,"seatingAvailable":1,"sensoryFriendly":1,"walkIn":1},{"name":"Walmart - Rio Bravo & Coors- 5430","locationId":181,"city":"Albuquerque","lat":35.02566256,"lng":-106.71093118,"startTime":"10:30:00","endTime":"16:30:00","date":"2021-07-11","address1":"3500 Coors Blvd SW","zip":"87121-52","primaryAppointments":0,"primaryCap":18,"boosterAppointments":11,"boosterCap":12,"brands":[2],"driveThrough":0,"wheelchairAccessible":1,"mobilityHelp":0,"deafAccommodations":1,"blindAccommodations":1,"paperworkAssistance":1,"seatingAvailable":1,"sensoryFriendly":1,"walkIn":1},{"name":"Walgreens 8400 Wyoming blvd NE","locationId":198,"city":"Albuquerque","lat":35.13017469,"lng":-106.55064604,"startTime":"10:30:00","endTime":"13:30:00","date":"2021-07-11","address1":"8400 MONTGOMERY BLVD NE","zip":"87111","primaryAppointments":0,"primaryCap":3,"boosterAppointments":0,"boosterCap":3,"brands":[1],"driveThrough":0,"wheelchairAccessible":1,"mobilityHelp":0,"deafAccommodations":0,"blindAccommodations":0,"paperworkAssistance":0,"seatingAvailable":1,"sensoryFriendly":1,"walkIn":1},{"name":"Albertson's - HOBBS","locationId":236,"city":"HOBBS","lat":32.72689521,"lng":-103.14410582,"startTime":"11:00:00","endTime":"12:00:00","date":"2021-07-11","address1":"2402 N. GRIMES","zip":"88220","primaryAppointments":0,"primaryCap":5,"boosterAppointments":0,"boosterCap":0,"brands":[3],"driveThrough":0,"wheelchairAccessible":null,"mobilityHelp":null,"deafAccommodations":null,"blindAccommodations":null,"paperworkAssistance":null,"seatingAvailable":null,"sensoryFriendly":null,"walkIn":1},{"name":"Albertsons Los Lunas","locationId":247,"city":"LOS LUNAS","lat":34.80334699,"lng":-106.70457543,"startTime":"10:30:00","endTime":"13:30:00","date":"2021-07-11","address1":"2351 MAIN STREET SE","zip":"87031","primaryAppointments":0,"primaryCap":0,"boosterAppointments":12,"boosterCap":12,"brands":[1],"driveThrough":0,"wheelchairAccessible":1,"mobilityHelp":0,"deafAccommodations":0,"blindAccommodations":0,"paperworkAssistance":1,"seatingAvailable":1,"sensoryFriendly":1,"walkIn":1},{"name":"MarketStreet Pharmacy #927","locationId":251,"city":"Santa Fe","lat":35.6930939,"lng":-105.95171933,"startTime":"11:00:00","endTime":"14:30:00","date":"2021-07-11","address1":"600 N GUADALUPE ST","zip":"87501","primaryAppointments":2,"primaryCap":13,"boosterAppointments":10,"boosterCap":11,"brands":[1],"driveThrough":0,"wheelchairAccessible":1,"mobilityHelp":0,"deafAccommodations":0,"blindAccommodations":0,"paperworkAssistance":0,"seatingAvailable":1,"sensoryFriendly":0,"walkIn":1},{"name":"Walgreens","locationId":368,"city":"LAS CRUCES","lat":32.31154691,"lng":-106.75223219,"startTime":"10:30:00","endTime":"17:00:00","date":"2021-07-11","address1":"2300 E LOHMAN AVE","zip":"88001-84","primaryAppointments":0,"primaryCap":5,"boosterAppointments":0,"boosterCap":0,"brands":[3],"driveThrough":0,"wheelchairAccessible":1,"mobilityHelp":0,"deafAccommodations":0,"blindAccommodations":0,"paperworkAssistance":0,"seatingAvailable":1,"sensoryFriendly":1,"walkIn":1},{"name":"Walgreens in Edgewood ","locationId":369,"city":"EDGEWOOD","lat":35.06048159,"lng":-106.19254119,"startTime":"10:00:00","endTime":"16:30:00","date":"2021-07-11","address1":"5 WALKER RD","zip":"87015-87","primaryAppointments":1,"primaryCap":7,"boosterAppointments":3,"boosterCap":3,"brands":[2],"driveThrough":0,"wheelchairAccessible":1,"mobilityHelp":0,"deafAccommodations":0,"blindAccommodations":1,"paperworkAssistance":1,"seatingAvailable":1,"sensoryFriendly":1,"walkIn":1},{"name":"Walgreens #11360","locationId":374,"city":"Albuquerque","lat":35.12940871,"lng":-106.51596991,"startTime":"11:00:00","endTime":"12:30:00","date":"2021-07-11","address1":"11200 MONTGOMERY BLVD NE","zip":"87111-","primaryAppointments":0,"primaryCap":0,"boosterAppointments":4,"boosterCap":6,"brands":[1],"driveThrough":0,"wheelchairAccessible":1,"mobilityHelp":0,"deafAccommodations":0,"blindAccommodations":1,"paperworkAssistance":0,"seatingAvailable":1,"sensoryFriendly":1,"walkIn":1},{"name":"Walgreens ","locationId":402,"city":"Albuquerque","lat":35.1531968,"lng":-106.63947327,"startTime":"11:00:00","endTime":"12:30:00","date":"2021-07-11","address1":"6605 4TH ST NW","zip":"87107","primaryAppointments":1,"primaryCap":6,"boosterAppointments":0,"boosterCap":0,"brands":[1],"driveThrough":0,"wheelchairAccessible":1,"mobilityHelp":0,"deafAccommodations":0,"blindAccommodations":1,"paperworkAssistance":1,"seatingAvailable":1,"sensoryFriendly":1,"walkIn":0},{"name":"Walgreens in Taos","locationId":411,"city":"Taos","lat":36.38947014,"lng":-105.58257136,"startTime":"11:00:00","endTime":"15:30:00","date":"2021-07-11","address1":"811 PASEO DEL PUEBLO SUR","zip":"87571-63","primaryAppointments":0,"primaryCap":3,"boosterAppointments":0,"boosterCap":3,"brands":[1],"driveThrough":0,"wheelchairAccessible":1,"mobilityHelp":1,"deafAccommodations":1,"blindAccommodations":1,"paperworkAssistance":1,"seatingAvailable":1,"sensoryFriendly":1,"walkIn":1},{"name":"Walgreens #12407","locationId":415,"city":"Albuquerque","lat":35.21303541,"lng":-106.69806297,"startTime":"11:30:00","endTime":"16:30:00","date":"2021-07-11","address1":"10800 UNSER BLVD NW","zip":"87114-10","primaryAppointments":0,"primaryCap":4,"boosterAppointments":2,"boosterCap":4,"brands":[1],"driveThrough":0,"wheelchairAccessible":1,"mobilityHelp":0,"deafAccommodations":0,"blindAccommodations":1,"paperworkAssistance":0,"seatingAvailable":1,"sensoryFriendly":1,"walkIn":0},{"name":"Pharmaca Integrative Pharmacy","locationId":764,"city":"Santa Fe","lat":35.67293583,"lng":-105.95353254,"startTime":"10:30:00","endTime":"17:00:00","date":"2021-07-11","address1":"530 W CORDOVA RD STE B","zip":"87505","primaryAppointments":0,"primaryCap":13,"boosterAppointments":1,"boosterCap":26,"brands":[2],"driveThrough":0,"wheelchairAccessible":1,"mobilityHelp":0,"deafAccommodations":0,"blindAccommodations":0,"paperworkAssistance":0,"seatingAvailable":1,"sensoryFriendly":1,"walkIn":1},{"name":"Pfizer Walk-in","locationId":806,"city":"Albuquerque","lat":35.17989636,"lng":-106.69024829,"startTime":"10:00:00","endTime":"17:00:00","date":"2021-07-11","address1":"8511 Golf Course Rd NW","zip":"87114","primaryAppointments":0,"primaryCap":13,"boosterAppointments":10,"boosterCap":13,"brands":[1],"driveThrough":0,"wheelchairAccessible":1,"mobilityHelp":1,"deafAccommodations":0,"blindAccommodations":0,"paperworkAssistance":1,"seatingAvailable":1,"sensoryFriendly":0,"walkIn":1},{"name":"Smith's Marketplace Pharmacy- Los Alamos","locationId":892,"city":"Los Alamos","lat":35.87909715,"lng":-106.29379486,"startTime":"10:00:00","endTime":"15:30:00","date":"2021-07-11","address1":"751 TRINITY DR, SUITE 100","zip":"87544","primaryAppointments":6,"primaryCap":6,"boosterAppointments":0,"boosterCap":6,"brands":[1],"driveThrough":0,"wheelchairAccessible":1,"mobilityHelp":0,"deafAccommodations":0,"blindAccommodations":0,"paperworkAssistance":0,"seatingAvailable":1,"sensoryFriendly":1,"walkIn":0},{"name":"Safeway Pharmacy Farmington","locationId":954,"city":"Farmington","lat":36.75076225,"lng":-108.16125505,"startTime":"10:30:00","endTime":"16:30:00","date":"2021-07-11","address1":"3540 E Main St.","zip":"87402","primaryAppointments":0,"primaryCap":24,"boosterAppointments":0,"boosterCap":24,"brands":[1],"driveThrough":0,"wheelchairAccessible":1,"mobilityHelp":0,"deafAccommodations":0,"blindAccommodations":0,"paperworkAssistance":1,"seatingAvailable":1,"sensoryFriendly":1,"walkIn":1},{"name":"Walmart 3731-Bernalillo","locationId":1042,"city":"Bernalillo ","lat":35.31951183,"lng":-106.57261526,"startTime":"11:00:00","endTime":"17:00:00","date":"2021-07-11","address1":"460 NM HWY #528","zip":"87004","primaryAppointments":0,"primaryCap":9,"boosterAppointments":2,"boosterCap":9,"brands":[1],"driveThrough":0,"wheelchairAccessible":1,"mobilityHelp":0,"deafAccommodations":1,"blindAccommodations":1,"paperworkAssistance":1,"seatingAvailable":1,"sensoryFriendly":1,"walkIn":1},{"name":"Walmart Pharmacy on Carlisle","locationId":1061,"city":"Albuquerque","lat":35.11031931,"lng":-106.60821446,"startTime":"10:30:00","endTime":"15:30:00","date":"2021-07-11","address1":"2701 Carlisle BLVD NE","zip":"87110","primaryAppointments":0,"primaryCap":0,"boosterAppointments":14,"boosterCap":14,"brands":[1],"driveThrough":0,"wheelchairAccessible":1,"mobilityHelp":0,"deafAccommodations":1,"blindAccommodations":1,"paperworkAssistance":1,"seatingAvailable":1,"sensoryFriendly":1,"walkIn":1},{"name":"Walmart 3732 Rio Rancho Pfizer","locationId":1063,"city":"rio rancho","lat":35.24300137,"lng":-106.70109497,"startTime":"10:30:00","endTime":"12:00:00","date":"2021-07-11","address1":"901 unser blvd se","zip":"87124","primaryAppointments":0,"primaryCap":0,"boosterAppointments":6,"boosterCap":6,"brands":[1],"driveThrough":0,"wheelchairAccessible":1,"mobilityHelp":0,"deafAccommodations":0,"blindAccommodations":0,"paperworkAssistance":1,"seatingAvailable":1,"sensoryFriendly":0,"walkIn":1},{"name":"Belen, Walmart Pharmacy  Store 1414","locationId":1186,"city":"Belen","lat":34.69707015,"lng":-106.76885824,"startTime":"11:00:00","endTime":"16:00:00","date":"2021-07-11","address1":"1 I-25 Bypass","zip":"87002","primaryAppointments":0,"primaryCap":0,"boosterAppointments":10,"boosterCap":12,"brands":[1],"driveThrough":0,"wheelchairAccessible":1,"mobilityHelp":1,"deafAccommodations":1,"blindAccommodations":1,"paperworkAssistance":1,"seatingAvailable":1,"sensoryFriendly":1,"walkIn":1},{"name":"Walmart Neighborhood Market - Juan Tabo/Menual Pfizer","locationId":1187,"city":"Albuquerque","lat":35.1086634,"lng":-106.51788913,"startTime":"10:00:00","endTime":"17:00:00","date":"2021-07-11","address1":"11001 Menaul Blvd","zip":"87112","primaryAppointments":0,"primaryCap":36,"boosterAppointments":0,"boosterCap":36,"brands":[1],"driveThrough":0,"wheelchairAccessible":1,"mobilityHelp":1,"deafAccommodations":1,"blindAccommodations":1,"paperworkAssistance":1,"seatingAvailable":1,"sensoryFriendly":1,"walkIn":1},{"name":"Walmart Pharmacy","locationId":1189,"city":"Albuquerque","lat":35.11034324,"lng":-106.72895676,"startTime":"10:30:00","endTime":"12:00:00","date":"2021-07-11","address1":"1820 Unser Blvd NW","zip":"87120","primaryAppointments":2,"primaryCap":6,"boosterAppointments":0,"boosterCap":0,"brands":[1],"driveThrough":0,"wheelchairAccessible":1,"mobilityHelp":0,"deafAccommodations":1,"blindAccommodations":1,"paperworkAssistance":1,"seatingAvailable":1,"sensoryFriendly":1,"walkIn":1},{"name":"Walmart Pharmacy Los Lunas Pfizer","locationId":1190,"city":"Los Lunas","lat":34.81641109,"lng":-106.76333129,"startTime":"10:30:00","endTime":"16:00:00","date":"2021-07-11","address1":"2250 Main Steeet","zip":"87031","primaryAppointments":2,"primaryCap":4,"boosterAppointments":14,"boosterCap":14,"brands":[1],"driveThrough":0,"wheelchairAccessible":1,"mobilityHelp":1,"deafAccommodations":1,"blindAccommodations":1,"paperworkAssistance":1,"seatingAvailable":1,"sensoryFriendly":1,"walkIn":1},{"name":"Rail Yards Market","locationId":1199,"city":"Albuquerque","lat":35.07544033,"lng":-106.64982508,"startTime":"10:00:00","endTime":"14:00:00","date":"2021-07-11","address1":"777 1st Street SW","zip":"87102","primaryAppointments":8,"primaryCap":160,"boosterAppointments":5,"boosterCap":40,"brands":[1],"driveThrough":0,"wheelchairAccessible":1,"mobilityHelp":1,"deafAccommodations":0,"blindAccommodations":0,"paperworkAssistance":1,"seatingAvailable":1,"sensoryFriendly":1,"walkIn":1},{"name":"Saint Helena Catholic Church","locationId":1237,"city":"hobbs","lat":32.7261039,"lng":-103.13586694,"startTime":"09:00:00","endTime":"13:00:00","date":"2021-07-11","address1":"100 east bender ave","zip":"88240","primaryAppointments":3,"primaryCap":120,"boosterAppointments":0,"boosterCap":0,"brands":[1],"driveThrough":1,"wheelchairAccessible":1,"mobilityHelp":1,"deafAccommodations":0,"blindAccommodations":0,"paperworkAssistance":1,"seatingAvailable":1,"sensoryFriendly":1,"walkIn":1}]}