{"status":"ok","message":"","data":[{"name":"Deming Public Health","locationId":3,"city":"Deming","lat":32.26658251,"lng":-107.75769326,"startTime":"08:00:00","endTime":"11:30:00","date":"2021-08-18","address1":"215 S SILVER AVE","zip":"88030","primaryAppointments":2,"primaryCap":35,"boosterAppointments":30,"boosterCap":37,"brands":[1],"driveThrough":1,"wheelchairAccessible":1,"mobilityHelp":1,"deafAccommodations":1,"blindAccommodations":1,"paperworkAssistance":1,"seatingAvailable":1,"sensoryFriendly":1,"walkIn":0},{"name":"CHAPARRAL PUBLIC HEALTH OFFICE","locationId":9,"city":"Chaparral","lat":32.02060069,"lng":-106.40883826,"startTime":"08:00:00","endTime":"09:30:00","date":"2021-08-18","address1":"317 MCCOMBS","zip":"88081","primaryAppointments":1,"primaryCap":1,"boosterAppointments":35,"boosterCap":35,"brands":[1],"driveThrough":0,"wheelchairAccessible":0,"mobilityHelp":1,"deafAccommodations":1,"blindAccommodations":1,"paperworkAssistance":0,"seatingAvailable":0,"sensoryFriendly":0,"walkIn":1},{"name":"DOH- Farmington Public Health Office ","locationId":23,"city":"Farmington","lat":36.72580022,"lng":-108.20351585,"startTime":"10:30:00","endTime":"11:30:00","date":"2021-08-18","address1":"355 S MILLER AVE","zip":"87401","primaryAppointments":0,"primaryCap":5,"boosterAppointments":7,"boosterCap":7,"brands":[1],"driveThrough":1,"wheelchairAccessible":0,"mobilityHelp":0,"deafAccommodations":0,"blindAccommodations":0,"paperworkAssistance":1,"seatingAvailable":1,"sensoryFriendly":1,"walkIn":1},{"name":"ANTHONY PUBLIC HEALTH OFFICE","locationId":31,"city":"Anthony","lat":32.00824722,"lng":-106.60804276,"startTime":"08:30:00","endTime":"09:30:00","date":"2021-08-18","address1":"865 N Anthony Dr.","zip":"88021","primaryAppointments":6,"primaryCap":7,"boosterAppointments":11,"boosterCap":11,"brands":[1],"driveThrough":0,"wheelchairAccessible":1,"mobilityHelp":1,"deafAccommodations":1,"blindAccommodations":1,"paperworkAssistance":1,"seatingAvailable":1,"sensoryFriendly":1,"walkIn":1},{"name":"Albertson's on Ridgecrest in Rio Rancho","locationId":41,"city":"RIO RANCHO","lat":35.2528357,"lng":-106.65169765,"startTime":"13:00:00","endTime":"17:30:00","date":"2021-08-18","address1":"4300 RIDGECREST DR SE","zip":"87124","primaryAppointments":4,"primaryCap":10,"boosterAppointments":5,"boosterCap":8,"brands":[1],"driveThrough":0,"wheelchairAccessible":1,"mobilityHelp":1,"deafAccommodations":0,"blindAccommodations":1,"paperworkAssistance":1,"seatingAvailable":1,"sensoryFriendly":1,"walkIn":1},{"name":"Albertsons - ABQ Academy","locationId":43,"city":"Albuquerque","lat":35.15374679,"lng":-106.49926406,"startTime":"10:00:00","endTime":"13:30:00","date":"2021-08-18","address1":"12201 ACADEMY RD NE","zip":"87111","primaryAppointments":0,"primaryCap":9,"boosterAppointments":4,"boosterCap":12,"brands":[1],"driveThrough":0,"wheelchairAccessible":1,"mobilityHelp":1,"deafAccommodations":0,"blindAccommodations":0,"paperworkAssistance":1,"seatingAvailable":1,"sensoryFriendly":1,"walkIn":1},{"name":"ALBERTSON'S ","locationId":44,"city":"Santa Fe","lat":35.64479843,"lng":-105.95522073,"startTime":"11:30:00","endTime":"13:30:00","date":"2021-08-18","address1":"3001 S SAINT FRANCIS DR","zip":"87505","primaryAppointments":0,"primaryCap":0,"boosterAppointments":24,"boosterCap":24,"brands":[1],"driveThrough":0,"wheelchairAccessible":1,"mobilityHelp":0,"deafAccommodations":0,"blindAccommodations":1,"paperworkAssistance":0,"seatingAvailable":1,"sensoryFriendly":0,"walkIn":1},{"name":"Artesia Walmart Pharmacy","locationId":46,"city":"Artesia","lat":32.84727192,"lng":-104.42740104,"startTime":"10:00:00","endTime":"10:30:00","date":"2021-08-18","address1":"604 N 26th St","zip":"88210-37","primaryAppointments":0,"primaryCap":0,"boosterAppointments":1,"boosterCap":3,"brands":[2],"driveThrough":0,"wheelchairAccessible":1,"mobilityHelp":0,"deafAccommodations":1,"blindAccommodations":0,"paperworkAssistance":1,"seatingAvailable":1,"sensoryFriendly":0,"walkIn":0},{"name":"Walmart - Coors Bypass-1397","locationId":47,"city":"Albuquerque","lat":35.20421306,"lng":-106.65693027,"startTime":"10:30:00","endTime":"16:30:00","date":"2021-08-18","address1":"10224 Coors Bypass NW","zip":"87114-43","primaryAppointments":0,"primaryCap":0,"boosterAppointments":2,"boosterCap":20,"brands":[2],"driveThrough":0,"wheelchairAccessible":1,"mobilityHelp":0,"deafAccommodations":1,"blindAccommodations":1,"paperworkAssistance":1,"seatingAvailable":1,"sensoryFriendly":1,"walkIn":1},{"name":"Farmington Walmart West Side ","locationId":50,"city":"Farmington","lat":36.73206361,"lng":-108.22798666,"startTime":"09:30:00","endTime":"20:30:00","date":"2021-08-18","address1":"1400 W Main St","zip":"87401","primaryAppointments":0,"primaryCap":20,"boosterAppointments":6,"boosterCap":20,"brands":[2],"driveThrough":0,"wheelchairAccessible":1,"mobilityHelp":0,"deafAccommodations":0,"blindAccommodations":0,"paperworkAssistance":1,"seatingAvailable":1,"sensoryFriendly":0,"walkIn":1},{"name":"WM RX-GALLUP, NM","locationId":51,"city":"Gallup","lat":35.52774518,"lng":-108.7694296,"startTime":"09:00:00","endTime":"20:00:00","date":"2021-08-18","address1":"1650 W Maloney Ave","zip":"87301-33","primaryAppointments":0,"primaryCap":63,"boosterAppointments":5,"boosterCap":21,"brands":[2],"driveThrough":0,"wheelchairAccessible":1,"mobilityHelp":1,"deafAccommodations":1,"blindAccommodations":1,"paperworkAssistance":1,"seatingAvailable":1,"sensoryFriendly":1,"walkIn":0},{"name":"Walmart Pharmacy Hobbs, NM","locationId":52,"city":"Hobbs","lat":32.74293834,"lng":-103.16149549,"startTime":"10:00:00","endTime":"17:00:00","date":"2021-08-18","address1":"3800 N Lovington Hwy","zip":"88240-10","primaryAppointments":0,"primaryCap":28,"boosterAppointments":3,"boosterCap":28,"brands":[2],"driveThrough":0,"wheelchairAccessible":1,"mobilityHelp":1,"deafAccommodations":1,"blindAccommodations":1,"paperworkAssistance":1,"seatingAvailable":1,"sensoryFriendly":1,"walkIn":1},{"name":"Sam's Club - Roswell","locationId":53,"city":"Roswell","lat":33.44777277,"lng":-104.52715705,"startTime":"10:00:00","endTime":"12:30:00","date":"2021-08-18","address1":"4400 N Main St","zip":"88201-03","primaryAppointments":0,"primaryCap":10,"boosterAppointments":4,"boosterCap":10,"brands":[2],"driveThrough":0,"wheelchairAccessible":null,"mobilityHelp":null,"deafAccommodations":null,"blindAccommodations":null,"paperworkAssistance":null,"seatingAvailable":null,"sensoryFriendly":null,"walkIn":1},{"name":"Sam's Club - Santa Fe Rodeo","locationId":54,"city":"Santa Fe","lat":35.6383503,"lng":-106.00867169,"startTime":"09:30:00","endTime":"12:30:00","date":"2021-08-18","address1":"4201 Rodeo Rd","zip":"87507-48","primaryAppointments":0,"primaryCap":6,"boosterAppointments":6,"boosterCap":6,"brands":[2],"driveThrough":0,"wheelchairAccessible":1,"mobilityHelp":0,"deafAccommodations":0,"blindAccommodations":1,"paperworkAssistance":0,"seatingAvailable":1,"sensoryFriendly":0,"walkIn":1},{"name":"Walmart - Wyoming/Menaul--5491","locationId":55,"city":"Albuquerque","lat":35.1058539,"lng":-106.54914912,"startTime":"10:00:00","endTime":"12:30:00","date":"2021-08-18","address1":"2266 Wyoming Blvd NE","zip":"87112-26","primaryAppointments":1,"primaryCap":2,"boosterAppointments":2,"boosterCap":10,"brands":[2],"driveThrough":0,"wheelchairAccessible":1,"mobilityHelp":1,"deafAccommodations":1,"blindAccommodations":1,"paperworkAssistance":0,"seatingAvailable":1,"sensoryFriendly":0,"walkIn":1},{"name":"PMS - Alamogordo Family Health Center","locationId":75,"city":"Alamogordo","lat":32.89849972,"lng":-105.94493996,"startTime":"13:00:00","endTime":"13:30:00","date":"2021-08-18","address1":"1501 East 10th Street","zip":"88310","primaryAppointments":0,"primaryCap":10,"boosterAppointments":0,"boosterCap":0,"brands":[2],"driveThrough":0,"wheelchairAccessible":null,"mobilityHelp":null,"deafAccommodations":null,"blindAccommodations":null,"paperworkAssistance":null,"seatingAvailable":null,"sensoryFriendly":null,"walkIn":0},{"name":"PMS - Farmington Community Health Center","locationId":80,"city":"Farmington","lat":36.72693104,"lng":-108.22316192,"startTime":"15:00:00","endTime":"15:30:00","date":"2021-08-18","address1":"1001 West Broadway Ave","zip":"87401","primaryAppointments":0,"primaryCap":20,"boosterAppointments":0,"boosterCap":20,"brands":[1],"driveThrough":0,"wheelchairAccessible":1,"mobilityHelp":0,"deafAccommodations":0,"blindAccommodations":1,"paperworkAssistance":1,"seatingAvailable":1,"sensoryFriendly":1,"walkIn":1},{"name":"PMS - Questa Health Center","locationId":86,"city":"Questa","lat":36.72389423,"lng":-105.59506453,"startTime":"13:00:00","endTime":"15:00:00","date":"2021-08-18","address1":"2573 State Highway 522","zip":"87556","primaryAppointments":1,"primaryCap":20,"boosterAppointments":1,"boosterCap":20,"brands":[2],"driveThrough":0,"wheelchairAccessible":1,"mobilityHelp":1,"deafAccommodations":0,"blindAccommodations":1,"paperworkAssistance":1,"seatingAvailable":1,"sensoryFriendly":1,"walkIn":1},{"name":"PMS - Socorro Community Health Center","locationId":89,"city":"Socorro","lat":34.03413276,"lng":-106.91675035,"startTime":"09:30:00","endTime":"10:00:00","date":"2021-08-18","address1":"1300 Enterprise Road","zip":"87801","primaryAppointments":0,"primaryCap":2,"boosterAppointments":11,"boosterCap":10,"brands":[2],"driveThrough":0,"wheelchairAccessible":null,"mobilityHelp":null,"deafAccommodations":null,"blindAccommodations":null,"paperworkAssistance":null,"seatingAvailable":null,"sensoryFriendly":null,"walkIn":1},{"name":"PMS - Tularosa Medical Center","locationId":91,"city":"Tularosa","lat":33.07364731,"lng":-106.01951486,"startTime":"13:00:00","endTime":"13:30:00","date":"2021-08-18","address1":"111 Central Avenue","zip":"88352","primaryAppointments":0,"primaryCap":10,"boosterAppointments":0,"boosterCap":0,"brands":[2],"driveThrough":0,"wheelchairAccessible":null,"mobilityHelp":null,"deafAccommodations":null,"blindAccommodations":null,"paperworkAssistance":null,"seatingAvailable":null,"sensoryFriendly":null,"walkIn":0},{"name":"Chaparral Family Health Center","locationId":106,"city":"Chaparral","lat":32.00877348,"lng":-106.34031534,"startTime":"13:00:00","endTime":"15:00:00","date":"2021-08-18","address1":"204 Angelina Boulevard","zip":"88081-75","primaryAppointments":0,"primaryCap":20,"boosterAppointments":0,"boosterCap":0,"brands":[2],"driveThrough":0,"wheelchairAccessible":1,"mobilityHelp":1,"deafAccommodations":1,"blindAccommodations":1,"paperworkAssistance":1,"seatingAvailable":1,"sensoryFriendly":1,"walkIn":1},{"name":"SFFWC","locationId":107,"city":"Santa Fe","lat":35.63681571,"lng":-106.02024894,"startTime":"08:30:00","endTime":"09:00:00","date":"2021-08-18","address1":"2504 Camino Entrada","zip":"87010","primaryAppointments":1,"primaryCap":1,"boosterAppointments":0,"boosterCap":15,"brands":[1],"driveThrough":0,"wheelchairAccessible":1,"mobilityHelp":0,"deafAccommodations":1,"blindAccommodations":1,"paperworkAssistance":1,"seatingAvailable":1,"sensoryFriendly":1,"walkIn":1},{"name":"Roosevelt General Hospital ","locationId":116,"city":"Portales","lat":34.16841057,"lng":-103.3622094,"startTime":"09:00:00","endTime":"16:00:00","date":"2021-08-18","address1":"42121 US 70","zip":"88130","primaryAppointments":0,"primaryCap":33,"boosterAppointments":6,"boosterCap":7,"brands":[2],"driveThrough":0,"wheelchairAccessible":1,"mobilityHelp":1,"deafAccommodations":1,"blindAccommodations":1,"paperworkAssistance":1,"seatingAvailable":1,"sensoryFriendly":0,"walkIn":1},{"name":"First Choice Community Healthcare Inc South Valley Center","locationId":125,"city":"Albuquerque","lat":35.04543945,"lng":-106.68237827,"startTime":"10:30:00","endTime":"11:00:00","date":"2021-08-18","address1":"2001 North Centro Familiar SW","zip":"87105","primaryAppointments":0,"primaryCap":0,"boosterAppointments":17,"boosterCap":20,"brands":[1],"driveThrough":0,"wheelchairAccessible":null,"mobilityHelp":null,"deafAccommodations":null,"blindAccommodations":null,"paperworkAssistance":null,"seatingAvailable":null,"sensoryFriendly":null,"walkIn":1},{"name":"Walmart - Academy/Wyoming-824","locationId":141,"city":"Albuquerque","lat":35.14433804,"lng":-106.55099885,"startTime":"09:00:00","endTime":"20:00:00","date":"2021-08-18","address1":"8000 Academy Rd NE","zip":"87111-11","primaryAppointments":0,"primaryCap":40,"boosterAppointments":14,"boosterCap":40,"brands":[1,2],"driveThrough":0,"wheelchairAccessible":1,"mobilityHelp":1,"deafAccommodations":1,"blindAccommodations":1,"paperworkAssistance":1,"seatingAvailable":1,"sensoryFriendly":0,"walkIn":1},{"name":"Sam's Club - Eubank","locationId":142,"city":"Albuquerque","lat":35.07687388,"lng":-106.53034406,"startTime":"09:30:00","endTime":"10:00:00","date":"2021-08-18","address1":"300 Eubank Blvd NE","zip":"87123-27","primaryAppointments":0,"primaryCap":0,"boosterAppointments":1,"boosterCap":1,"brands":[2],"driveThrough":0,"wheelchairAccessible":null,"mobilityHelp":null,"deafAccommodations":null,"blindAccommodations":null,"paperworkAssistance":null,"seatingAvailable":null,"sensoryFriendly":null,"walkIn":1},{"name":"Walmart - Cerrillos Road","locationId":143,"city":"Santa Fe","lat":35.6522413,"lng":-106.00011826,"startTime":"09:00:00","endTime":"20:00:00","date":"2021-08-18","address1":"3251 Cerrillos Rd","zip":"87507-29","primaryAppointments":0,"primaryCap":20,"boosterAppointments":10,"boosterCap":20,"brands":[2],"driveThrough":0,"wheelchairAccessible":1,"mobilityHelp":0,"deafAccommodations":0,"blindAccommodations":0,"paperworkAssistance":1,"seatingAvailable":1,"sensoryFriendly":0,"walkIn":1},{"name":"walmat - san mateo/zuni 831","locationId":144,"city":"Albuquerque","lat":35.0754004,"lng":-106.58801714,"startTime":"09:30:00","endTime":"15:00:00","date":"2021-08-18","address1":"301 San Mateo Blvd SE","zip":"87108-56","primaryAppointments":0,"primaryCap":4,"boosterAppointments":2,"boosterCap":13,"brands":[2],"driveThrough":0,"wheelchairAccessible":1,"mobilityHelp":0,"deafAccommodations":0,"blindAccommodations":0,"paperworkAssistance":1,"seatingAvailable":1,"sensoryFriendly":1,"walkIn":1},{"name":"walmart on eubank and I40","locationId":145,"city":"Albuquerque","lat":35.07843081,"lng":-106.52987822,"startTime":"09:30:00","endTime":"18:00:00","date":"2021-08-18","address1":"400 Eubank Blvd NE","zip":"87123-27","primaryAppointments":0,"primaryCap":15,"boosterAppointments":17,"boosterCap":17,"brands":[1],"driveThrough":0,"wheelchairAccessible":1,"mobilityHelp":0,"deafAccommodations":0,"blindAccommodations":0,"paperworkAssistance":1,"seatingAvailable":1,"sensoryFriendly":1,"walkIn":1},{"name":"Sam's Club","locationId":146,"city":"Albuquerque","lat":35.13794413,"lng":-106.61424657,"startTime":"10:00:00","endTime":"16:30:00","date":"2021-08-18","address1":"1421 N Renaissance Blvd NE","zip":"87107-70","primaryAppointments":0,"primaryCap":10,"boosterAppointments":11,"boosterCap":11,"brands":[1],"driveThrough":0,"wheelchairAccessible":1,"mobilityHelp":0,"deafAccommodations":0,"blindAccommodations":1,"paperworkAssistance":1,"seatingAvailable":1,"sensoryFriendly":0,"walkIn":1},{"name":"Walmart - Carlisle-850","locationId":148,"city":"Albuquerque","lat":35.1110806,"lng":-106.60858805,"startTime":"10:00:00","endTime":"17:00:00","date":"2021-08-18","address1":"2701 Carlisle Blvd NE","zip":"87110-28","primaryAppointments":0,"primaryCap":11,"boosterAppointments":3,"boosterCap":11,"brands":[2],"driveThrough":0,"wheelchairAccessible":1,"mobilityHelp":0,"deafAccommodations":0,"blindAccommodations":0,"paperworkAssistance":1,"seatingAvailable":1,"sensoryFriendly":1,"walkIn":1},{"name":"Las Cruces Walmart Pharmacy - Walton/Lohman","locationId":149,"city":"Las Cruces","lat":32.31453229,"lng":-106.75064357,"startTime":"08:30:00","endTime":"17:30:00","date":"2021-08-18","address1":"571 Walton Blvd","zip":"88001-84","primaryAppointments":0,"primaryCap":0,"boosterAppointments":15,"boosterCap":32,"brands":[1],"driveThrough":0,"wheelchairAccessible":1,"mobilityHelp":0,"deafAccommodations":1,"blindAccommodations":0,"paperworkAssistance":1,"seatingAvailable":1,"sensoryFriendly":0,"walkIn":0},{"name":"Carlsbad Walmart Pharmacy","locationId":152,"city":"Carlsbad","lat":32.39322719,"lng":-104.22387586,"startTime":"10:00:00","endTime":"18:30:00","date":"2021-08-18","address1":"2401 S Canal St","zip":"88220-65","primaryAppointments":0,"primaryCap":19,"boosterAppointments":9,"boosterCap":9,"brands":[2],"driveThrough":0,"wheelchairAccessible":1,"mobilityHelp":0,"deafAccommodations":1,"blindAccommodations":0,"paperworkAssistance":1,"seatingAvailable":1,"sensoryFriendly":0,"walkIn":1},{"name":"Alamogordo Walmart Supercenter Pharmacy","locationId":153,"city":"Alamogordo","lat":32.88662248,"lng":-105.95782101,"startTime":"09:00:00","endTime":"18:30:00","date":"2021-08-18","address1":"233 S New York Ave","zip":"88310","primaryAppointments":0,"primaryCap":6,"boosterAppointments":12,"boosterCap":20,"brands":[2],"driveThrough":0,"wheelchairAccessible":1,"mobilityHelp":0,"deafAccommodations":1,"blindAccommodations":1,"paperworkAssistance":1,"seatingAvailable":1,"sensoryFriendly":0,"walkIn":1},{"name":"Silver City Walmart Pharmacy","locationId":154,"city":"Silver City","lat":32.7888863,"lng":-108.24813216,"startTime":"08:30:00","endTime":"18:30:00","date":"2021-08-18","address1":"2501 Highway 180 E","zip":"88061","primaryAppointments":0,"primaryCap":17,"boosterAppointments":6,"boosterCap":17,"brands":[2],"driveThrough":0,"wheelchairAccessible":1,"mobilityHelp":0,"deafAccommodations":1,"blindAccommodations":1,"paperworkAssistance":1,"seatingAvailable":1,"sensoryFriendly":0,"walkIn":1},{"name":"Deming Walmart Pharmacy","locationId":157,"city":"Deming","lat":32.27038078,"lng":-107.74807321,"startTime":"09:30:00","endTime":"15:30:00","date":"2021-08-18","address1":"1021 E Pine St","zip":"88030-70","primaryAppointments":0,"primaryCap":0,"boosterAppointments":14,"boosterCap":14,"brands":[2],"driveThrough":0,"wheelchairAccessible":1,"mobilityHelp":0,"deafAccommodations":1,"blindAccommodations":0,"paperworkAssistance":1,"seatingAvailable":1,"sensoryFriendly":0,"walkIn":1},{"name":"Walmart - Neighborhood Market-Sonoma Ranch","locationId":158,"city":"Las Cruces","lat":32.32727632,"lng":-106.72326175,"startTime":"10:00:00","endTime":"12:00:00","date":"2021-08-18","address1":"150 N Sonoma Ranch Blvd","zip":"88001-16","primaryAppointments":1,"primaryCap":5,"boosterAppointments":4,"boosterCap":5,"brands":[2],"driveThrough":0,"wheelchairAccessible":null,"mobilityHelp":null,"deafAccommodations":null,"blindAccommodations":null,"paperworkAssistance":null,"seatingAvailable":null,"sensoryFriendly":null,"walkIn":1},{"name":"Walmart Neighborhood Market - Alamogordo Indian Wells","locationId":159,"city":"Alamogordo","lat":32.9159433,"lng":-105.931196,"startTime":"11:00:00","endTime":"13:30:00","date":"2021-08-18","address1":"2401 Indian Wells Rd.","zip":"88310-38","primaryAppointments":0,"primaryCap":5,"boosterAppointments":5,"boosterCap":5,"brands":[2],"driveThrough":0,"wheelchairAccessible":null,"mobilityHelp":null,"deafAccommodations":null,"blindAccommodations":null,"paperworkAssistance":null,"seatingAvailable":null,"sensoryFriendly":null,"walkIn":1},{"name":"Walmart Neighborhood Market 5675 Menaul and Juan Tabo","locationId":160,"city":"Albuquerque","lat":35.10877847,"lng":-106.51781654,"startTime":"09:00:00","endTime":"20:00:00","date":"2021-08-18","address1":"11001 Menaul Blvd","zip":"87112","primaryAppointments":0,"primaryCap":40,"boosterAppointments":2,"boosterCap":40,"brands":[2],"driveThrough":0,"wheelchairAccessible":1,"mobilityHelp":1,"deafAccommodations":1,"blindAccommodations":1,"paperworkAssistance":1,"seatingAvailable":1,"sensoryFriendly":0,"walkIn":1},{"name":"Walmart Clovis","locationId":161,"city":"Clovis","lat":34.43711823,"lng":-103.2006662,"startTime":"10:00:00","endTime":"17:30:00","date":"2021-08-18","address1":"3728 N Prince St","zip":"88101-97","primaryAppointments":1,"primaryCap":8,"boosterAppointments":5,"boosterCap":6,"brands":[2],"driveThrough":0,"wheelchairAccessible":1,"mobilityHelp":0,"deafAccommodations":0,"blindAccommodations":0,"paperworkAssistance":1,"seatingAvailable":1,"sensoryFriendly":0,"walkIn":1},{"name":"Walmart - Portales","locationId":162,"city":"Portales","lat":34.19790879,"lng":-103.31932888,"startTime":"10:00:00","endTime":"13:00:00","date":"2021-08-18","address1":"1604 E Spruce St","zip":"88130-94","primaryAppointments":0,"primaryCap":6,"boosterAppointments":0,"boosterCap":6,"brands":[2],"driveThrough":0,"wheelchairAccessible":null,"mobilityHelp":null,"deafAccommodations":null,"blindAccommodations":null,"paperworkAssistance":null,"seatingAvailable":null,"sensoryFriendly":null,"walkIn":1},{"name":"Las Vegas Walmart Pharmacy","locationId":165,"city":"Las Vegas","lat":35.62001926,"lng":-105.22765362,"startTime":"10:00:00","endTime":"16:00:00","date":"2021-08-18","address1":"2609 7th St","zip":"87701-48","primaryAppointments":0,"primaryCap":12,"boosterAppointments":8,"boosterCap":12,"brands":[2],"driveThrough":0,"wheelchairAccessible":1,"mobilityHelp":0,"deafAccommodations":0,"blindAccommodations":0,"paperworkAssistance":1,"seatingAvailable":1,"sensoryFriendly":0,"walkIn":1},{"name":"Walmart-Belen-1414","locationId":166,"city":"Belen","lat":34.69695185,"lng":-106.76842281,"startTime":"10:00:00","endTime":"17:00:00","date":"2021-08-18","address1":"1 I 25 Bypass","zip":"87002-81","primaryAppointments":1,"primaryCap":10,"boosterAppointments":4,"boosterCap":4,"brands":[2],"driveThrough":0,"wheelchairAccessible":1,"mobilityHelp":0,"deafAccommodations":0,"blindAccommodations":0,"paperworkAssistance":1,"seatingAvailable":1,"sensoryFriendly":1,"walkIn":1},{"name":"Walmart- Grants","locationId":167,"city":"Grants","lat":35.12417855,"lng":-107.82621389,"startTime":"09:30:00","endTime":"19:00:00","date":"2021-08-18","address1":"1000 Robert Rd","zip":"87020-40","primaryAppointments":0,"primaryCap":16,"boosterAppointments":6,"boosterCap":16,"brands":[2],"driveThrough":0,"wheelchairAccessible":1,"mobilityHelp":0,"deafAccommodations":1,"blindAccommodations":0,"paperworkAssistance":1,"seatingAvailable":1,"sensoryFriendly":1,"walkIn":1},{"name":"Walmart - Coors I-40--2924","locationId":169,"city":"Albuquerque","lat":35.10998404,"lng":-106.7016564,"startTime":"11:00:00","endTime":"16:30:00","date":"2021-08-18","address1":"2550 Coors Blvd NW","zip":"87120","primaryAppointments":0,"primaryCap":4,"boosterAppointments":2,"boosterCap":10,"brands":[2],"driveThrough":0,"wheelchairAccessible":1,"mobilityHelp":0,"deafAccommodations":0,"blindAccommodations":0,"paperworkAssistance":0,"seatingAvailable":1,"sensoryFriendly":0,"walkIn":1},{"name":"Walmart","locationId":170,"city":"Santa Fe","lat":35.61904364,"lng":-106.03205431,"startTime":"09:30:00","endTime":"12:00:00","date":"2021-08-18","address1":"5701 Herrera Dr","zip":"87507-26","primaryAppointments":0,"primaryCap":5,"boosterAppointments":0,"boosterCap":5,"brands":[2],"driveThrough":0,"wheelchairAccessible":1,"mobilityHelp":0,"deafAccommodations":1,"blindAccommodations":1,"paperworkAssistance":1,"seatingAvailable":1,"sensoryFriendly":0,"walkIn":1},{"name":"Walmart Pharmacy Los Lunas Moderna Vaccine","locationId":171,"city":"Los Lunas","lat":34.81699682,"lng":-106.76388371,"startTime":"10:00:00","endTime":"12:30:00","date":"2021-08-18","address1":"2250 Main St NW","zip":"87031-48","primaryAppointments":0,"primaryCap":14,"boosterAppointments":0,"boosterCap":0,"brands":[2],"driveThrough":0,"wheelchairAccessible":1,"mobilityHelp":0,"deafAccommodations":0,"blindAccommodations":1,"paperworkAssistance":1,"seatingAvailable":1,"sensoryFriendly":0,"walkIn":1},{"name":"Walmart-Bernalillo 3731","locationId":172,"city":"Bernalillo","lat":35.3194959,"lng":-106.57174681,"startTime":"09:00:00","endTime":"16:00:00","date":"2021-08-18","address1":"460 Highway 528","zip":"87004-66","primaryAppointments":0,"primaryCap":11,"boosterAppointments":0,"boosterCap":11,"brands":[2],"driveThrough":0,"wheelchairAccessible":1,"mobilityHelp":0,"deafAccommodations":1,"blindAccommodations":1,"paperworkAssistance":1,"seatingAvailable":1,"sensoryFriendly":1,"walkIn":1},{"name":"Walmart Neighborhood Market Cutler Store 2451","locationId":173,"city":"Albuquerque","lat":35.10440027,"lng":-106.59275797,"startTime":"09:00:00","endTime":"17:30:00","date":"2021-08-18","address1":"4700 Cutler Ave NE","zip":"87110-40","primaryAppointments":0,"primaryCap":15,"boosterAppointments":15,"boosterCap":15,"brands":[1],"driveThrough":0,"wheelchairAccessible":1,"mobilityHelp":0,"deafAccommodations":0,"blindAccommodations":0,"paperworkAssistance":1,"seatingAvailable":1,"sensoryFriendly":1,"walkIn":1},{"name":"Walmart Neighborhood Market 3385 Sage & 98th","locationId":174,"city":"Albuquerque","lat":35.05426216,"lng":-106.73944857,"startTime":"10:00:00","endTime":"15:00:00","date":"2021-08-18","address1":"9600 Sage Rd SW","zip":"87121-68","primaryAppointments":0,"primaryCap":10,"boosterAppointments":5,"boosterCap":10,"brands":[2],"driveThrough":0,"wheelchairAccessible":1,"mobilityHelp":0,"deafAccommodations":1,"blindAccommodations":1,"paperworkAssistance":0,"seatingAvailable":1,"sensoryFriendly":1,"walkIn":1},{"name":"walmart 3512 montgomery","locationId":176,"city":"Albuquerque","lat":35.12951592,"lng":-106.51774302,"startTime":"09:00:00","endTime":"20:00:00","date":"2021-08-18","address1":"11018 Montgomery Blvd NE","zip":"87111-39","primaryAppointments":0,"primaryCap":30,"boosterAppointments":3,"boosterCap":16,"brands":[1],"driveThrough":0,"wheelchairAccessible":1,"mobilityHelp":0,"deafAccommodations":1,"blindAccommodations":1,"paperworkAssistance":0,"seatingAvailable":1,"sensoryFriendly":1,"walkIn":1},{"name":"Walmart Neighborhood Market 3517 Rio Rancho Hwy 528","locationId":177,"city":"Rio Rancho","lat":35.23902043,"lng":-106.65894473,"startTime":"09:30:00","endTime":"20:00:00","date":"2021-08-18","address1":"1115 NM Hwy 528 SE","zip":"87124-00","primaryAppointments":0,"primaryCap":7,"boosterAppointments":1,"boosterCap":18,"brands":[2],"driveThrough":0,"wheelchairAccessible":1,"mobilityHelp":0,"deafAccommodations":1,"blindAccommodations":1,"paperworkAssistance":0,"seatingAvailable":1,"sensoryFriendly":1,"walkIn":1},{"name":"Walmart Neighborhood Market- Unser/Ladera","locationId":178,"city":"Albuquerque","lat":35.10228264,"lng":-106.72844695,"startTime":"09:30:00","endTime":"18:30:00","date":"2021-08-18","address1":"1820 Unser Blvd NW","zip":"87120-39","primaryAppointments":0,"primaryCap":29,"boosterAppointments":1,"boosterCap":1,"brands":[2],"driveThrough":0,"wheelchairAccessible":1,"mobilityHelp":0,"deafAccommodations":0,"blindAccommodations":0,"paperworkAssistance":0,"seatingAvailable":1,"sensoryFriendly":1,"walkIn":1},{"name":"Walmart - Edgewood-4201","locationId":179,"city":"Edgewood","lat":35.07051708,"lng":-106.18902695,"startTime":"09:00:00","endTime":"15:00:00","date":"2021-08-18","address1":"66 State Road 344","zip":"87015-68","primaryAppointments":0,"primaryCap":0,"boosterAppointments":5,"boosterCap":10,"brands":[2],"driveThrough":0,"wheelchairAccessible":1,"mobilityHelp":0,"deafAccommodations":0,"blindAccommodations":0,"paperworkAssistance":1,"seatingAvailable":1,"sensoryFriendly":0,"walkIn":1},{"name":"Walmart Pharmacy","locationId":180,"city":"Socorro","lat":34.07547937,"lng":-106.89283501,"startTime":"09:30:00","endTime":"12:30:00","date":"2021-08-18","address1":"700 6th St N","zip":"87801-42","primaryAppointments":0,"primaryCap":12,"boosterAppointments":0,"boosterCap":18,"brands":[2],"driveThrough":0,"wheelchairAccessible":1,"mobilityHelp":1,"deafAccommodations":1,"blindAccommodations":0,"paperworkAssistance":1,"seatingAvailable":1,"sensoryFriendly":1,"walkIn":1},{"name":"Walmart - Rio Bravo & Coors- 5430","locationId":181,"city":"Albuquerque","lat":35.02566256,"lng":-106.71093118,"startTime":"09:30:00","endTime":"19:00:00","date":"2021-08-18","address1":"3500 Coors Blvd SW","zip":"87121-52","primaryAppointments":0,"primaryCap":32,"boosterAppointments":6,"boosterCap":16,"brands":[2],"driveThrough":0,"wheelchairAccessible":1,"mobilityHelp":0,"deafAccommodations":1,"blindAccommodations":1,"paperworkAssistance":1,"seatingAvailable":1,"sensoryFriendly":1,"walkIn":1},{"name":"El Centro Family Health - Rio Arriba Health Commons","locationId":185,"city":"Espanola","lat":36.00669009,"lng":-106.10699021,"startTime":"09:00:00","endTime":"10:00:00","date":"2021-08-18","address1":"2010 Industrial Park Road","zip":"87532","primaryAppointments":0,"primaryCap":5,"boosterAppointments":5,"boosterCap":5,"brands":[2],"driveThrough":0,"wheelchairAccessible":1,"mobilityHelp":1,"deafAccommodations":1,"blindAccommodations":1,"paperworkAssistance":1,"seatingAvailable":1,"sensoryFriendly":1,"walkIn":1},{"name":"Walgreens #4510","locationId":195,"city":"FARMINGTON","lat":36.75926662,"lng":-108.15569169,"startTime":"14:30:00","endTime":"15:00:00","date":"2021-08-18","address1":"4221 E MAIN ST","zip":"87402-86","primaryAppointments":0,"primaryCap":0,"boosterAppointments":6,"boosterCap":6,"brands":[1],"driveThrough":0,"wheelchairAccessible":1,"mobilityHelp":0,"deafAccommodations":0,"blindAccommodations":1,"paperworkAssistance":0,"seatingAvailable":1,"sensoryFriendly":1,"walkIn":1},{"name":"Las Cruces Walmart Pfizer - Rinconada Blvd","locationId":199,"city":"Las Cruces","lat":32.3599771,"lng":-106.74671197,"startTime":"09:30:00","endTime":"17:30:00","date":"2021-08-18","address1":"3331 Rinconada Blvd. ","zip":"88012","primaryAppointments":0,"primaryCap":6,"boosterAppointments":9,"boosterCap":26,"brands":[1],"driveThrough":0,"wheelchairAccessible":1,"mobilityHelp":1,"deafAccommodations":1,"blindAccommodations":1,"paperworkAssistance":1,"seatingAvailable":1,"sensoryFriendly":0,"walkIn":1},{"name":"Albertson's - ROSWELL WEST 2ND STREET","locationId":240,"city":"ROSWELL","lat":33.39268701,"lng":-104.53571982,"startTime":"10:00:00","endTime":"12:30:00","date":"2021-08-18","address1":"900 WEST 2ND STREET","zip":"88201","primaryAppointments":0,"primaryCap":5,"boosterAppointments":1,"boosterCap":5,"brands":[2],"driveThrough":0,"wheelchairAccessible":null,"mobilityHelp":null,"deafAccommodations":null,"blindAccommodations":null,"paperworkAssistance":null,"seatingAvailable":null,"sensoryFriendly":null,"walkIn":1},{"name":"Albertson's - ABQ Montgomery","locationId":242,"city":"Albuquerque","lat":35.12904195,"lng":-106.58876811,"startTime":"15:00:00","endTime":"15:30:00","date":"2021-08-18","address1":"4950 MONTGOMERY BLVD NE","zip":"87109","primaryAppointments":0,"primaryCap":0,"boosterAppointments":1,"boosterCap":1,"brands":[1],"driveThrough":0,"wheelchairAccessible":1,"mobilityHelp":0,"deafAccommodations":1,"blindAccommodations":1,"paperworkAssistance":1,"seatingAvailable":1,"sensoryFriendly":0,"walkIn":1},{"name":"Albertson's Coors and Montano","locationId":245,"city":"Albuquerque","lat":35.15165874,"lng":-106.68282515,"startTime":"11:00:00","endTime":"17:00:00","date":"2021-08-18","address1":"6200 COORS BLVD NW","zip":"87120","primaryAppointments":0,"primaryCap":16,"boosterAppointments":14,"boosterCap":14,"brands":[1],"driveThrough":0,"wheelchairAccessible":1,"mobilityHelp":0,"deafAccommodations":0,"blindAccommodations":0,"paperworkAssistance":0,"seatingAvailable":1,"sensoryFriendly":0,"walkIn":0},{"name":"Albertsons on Rio Bravo & Isleta","locationId":246,"city":"Albuquerque","lat":35.02797451,"lng":-106.68255503,"startTime":"10:00:00","endTime":"20:00:00","date":"2021-08-18","address1":"1625 RIO BRAVO BLVD SW","zip":"87105","primaryAppointments":0,"primaryCap":100,"boosterAppointments":33,"boosterCap":100,"brands":[1],"driveThrough":0,"wheelchairAccessible":1,"mobilityHelp":1,"deafAccommodations":1,"blindAccommodations":1,"paperworkAssistance":1,"seatingAvailable":1,"sensoryFriendly":1,"walkIn":1},{"name":"Albertsons Los Lunas","locationId":247,"city":"LOS LUNAS","lat":34.80334699,"lng":-106.70457543,"startTime":"10:30:00","endTime":"13:30:00","date":"2021-08-18","address1":"2351 MAIN STREET SE","zip":"87031","primaryAppointments":0,"primaryCap":0,"boosterAppointments":6,"boosterCap":12,"brands":[1],"driveThrough":0,"wheelchairAccessible":1,"mobilityHelp":0,"deafAccommodations":0,"blindAccommodations":0,"paperworkAssistance":1,"seatingAvailable":1,"sensoryFriendly":1,"walkIn":1},{"name":"Albertson's - TAOS","locationId":248,"city":"Taos","lat":36.39167359,"lng":-105.58310168,"startTime":"10:00:00","endTime":"12:00:00","date":"2021-08-18","address1":"710 PASEO DEL PUEBLO SUR STE A","zip":"87571","primaryAppointments":0,"primaryCap":0,"boosterAppointments":7,"boosterCap":8,"brands":[2],"driveThrough":0,"wheelchairAccessible":1,"mobilityHelp":1,"deafAccommodations":1,"blindAccommodations":0,"paperworkAssistance":1,"seatingAvailable":1,"sensoryFriendly":1,"walkIn":1},{"name":"Albertson's - RIO RANCHO Enchanted Hills","locationId":249,"city":"RIO RANCHO","lat":35.32304677,"lng":-106.57716273,"startTime":"10:00:00","endTime":"13:30:00","date":"2021-08-18","address1":"7800 ENCHANTED HILLS BLVD NE","zip":"87144","primaryAppointments":1,"primaryCap":6,"boosterAppointments":5,"boosterCap":6,"brands":[1],"driveThrough":0,"wheelchairAccessible":1,"mobilityHelp":0,"deafAccommodations":1,"blindAccommodations":1,"paperworkAssistance":1,"seatingAvailable":1,"sensoryFriendly":1,"walkIn":0},{"name":"Albertsons Pharmacy Ventura","locationId":250,"city":"Albuquerque","lat":35.17507376,"lng":-106.54095736,"startTime":"11:00:00","endTime":"16:30:00","date":"2021-08-18","address1":"8100 VENTURA ST NE","zip":"87122","primaryAppointments":0,"primaryCap":0,"boosterAppointments":0,"boosterCap":18,"brands":[1],"driveThrough":0,"wheelchairAccessible":1,"mobilityHelp":0,"deafAccommodations":0,"blindAccommodations":0,"paperworkAssistance":0,"seatingAvailable":1,"sensoryFriendly":0,"walkIn":1},{"name":"MarketStreet Pharmacy #927","locationId":251,"city":"Santa Fe","lat":35.6930939,"lng":-105.95171933,"startTime":"10:30:00","endTime":"13:00:00","date":"2021-08-18","address1":"600 N GUADALUPE ST","zip":"87501","primaryAppointments":0,"primaryCap":12,"boosterAppointments":6,"boosterCap":12,"brands":[1],"driveThrough":0,"wheelchairAccessible":1,"mobilityHelp":0,"deafAccommodations":0,"blindAccommodations":0,"paperworkAssistance":0,"seatingAvailable":1,"sensoryFriendly":0,"walkIn":1},{"name":"Albertson's on Lomas","locationId":252,"city":"Albuquerque","lat":35.08791352,"lng":-106.51666456,"startTime":"11:00:00","endTime":"15:30:00","date":"2021-08-18","address1":"11825 LOMAS BLVD NE","zip":"87122","primaryAppointments":0,"primaryCap":9,"boosterAppointments":6,"boosterCap":9,"brands":[1],"driveThrough":0,"wheelchairAccessible":1,"mobilityHelp":1,"deafAccommodations":1,"blindAccommodations":1,"paperworkAssistance":1,"seatingAvailable":1,"sensoryFriendly":0,"walkIn":1},{"name":"Albertson's - ABQ WYOMING","locationId":254,"city":"Albuquerque","lat":35.15999804,"lng":-106.56136197,"startTime":"10:00:00","endTime":"13:30:00","date":"2021-08-18","address1":"7101 WYOMING BLVD NE","zip":"87109","primaryAppointments":0,"primaryCap":4,"boosterAppointments":6,"boosterCap":8,"brands":[1],"driveThrough":0,"wheelchairAccessible":1,"mobilityHelp":1,"deafAccommodations":0,"blindAccommodations":0,"paperworkAssistance":1,"seatingAvailable":1,"sensoryFriendly":1,"walkIn":1},{"name":"Albertson's - SANTA FE ZAFARANO DR","locationId":256,"city":"Santa Fe","lat":35.64018594,"lng":-106.01374392,"startTime":"10:00:00","endTime":"13:30:00","date":"2021-08-18","address1":"3542 ZAFARANO DR","zip":"87507","primaryAppointments":0,"primaryCap":21,"boosterAppointments":19,"boosterCap":27,"brands":[1],"driveThrough":0,"wheelchairAccessible":1,"mobilityHelp":0,"deafAccommodations":1,"blindAccommodations":1,"paperworkAssistance":1,"seatingAvailable":1,"sensoryFriendly":1,"walkIn":1},{"name":"Los Lunas Fire Station 2","locationId":263,"city":"Los Lunas","lat":34.82090464,"lng":-106.77492311,"startTime":"11:30:00","endTime":"13:30:00","date":"2021-08-18","address1":"465 Sand Sage","zip":"87031","primaryAppointments":0,"primaryCap":0,"boosterAppointments":29,"boosterCap":40,"brands":[1],"driveThrough":1,"wheelchairAccessible":1,"mobilityHelp":1,"deafAccommodations":0,"blindAccommodations":0,"paperworkAssistance":1,"seatingAvailable":0,"sensoryFriendly":0,"walkIn":1},{"name":"Sam's Club","locationId":291,"city":"Albuquerque","lat":35.20942482,"lng":-106.65847003,"startTime":"10:00:00","endTime":"16:00:00","date":"2021-08-18","address1":"10600 Coors Bypass NW","zip":"87114","primaryAppointments":0,"primaryCap":9,"boosterAppointments":5,"boosterCap":9,"brands":[2],"driveThrough":0,"wheelchairAccessible":1,"mobilityHelp":1,"deafAccommodations":1,"blindAccommodations":1,"paperworkAssistance":1,"seatingAvailable":1,"sensoryFriendly":1,"walkIn":1},{"name":"Roden Smith Pharmacy","locationId":312,"city":"Clovis","lat":34.43330721,"lng":-103.20588339,"startTime":"10:00:00","endTime":"17:00:00","date":"2021-08-18","address1":"305 E. Llano Estacado","zip":"88101","primaryAppointments":0,"primaryCap":42,"boosterAppointments":10,"boosterCap":42,"brands":[2],"driveThrough":0,"wheelchairAccessible":1,"mobilityHelp":0,"deafAccommodations":1,"blindAccommodations":0,"paperworkAssistance":1,"seatingAvailable":1,"sensoryFriendly":1,"walkIn":1},{"name":"United World College","locationId":321,"city":"Montezuma","lat":35.65533964,"lng":-105.28248113,"startTime":"15:00:00","endTime":"17:00:00","date":"2021-08-18","address1":"9 Castle Lane","zip":"87731","primaryAppointments":0,"primaryCap":100,"boosterAppointments":0,"boosterCap":0,"brands":[1],"driveThrough":0,"wheelchairAccessible":1,"mobilityHelp":1,"deafAccommodations":1,"blindAccommodations":0,"paperworkAssistance":1,"seatingAvailable":1,"sensoryFriendly":0,"walkIn":0},{"name":"Walgreens #5731 @ GOLF COURSE & PARADISE","locationId":365,"city":"Albuquerque","lat":35.18767471,"lng":-106.68489677,"startTime":"10:00:00","endTime":"17:00:00","date":"2021-08-18","address1":"9500 GOLF COURSE RD NW","zip":"87114-42","primaryAppointments":2,"primaryCap":10,"boosterAppointments":5,"boosterCap":10,"brands":[2],"driveThrough":0,"wheelchairAccessible":1,"mobilityHelp":0,"deafAccommodations":0,"blindAccommodations":0,"paperworkAssistance":0,"seatingAvailable":1,"sensoryFriendly":0,"walkIn":0},{"name":"Walgreens located on 525 W. Zia Rd. ","locationId":367,"city":"Santa Fe","lat":35.64693786,"lng":-105.95598215,"startTime":"14:30:00","endTime":"16:00:00","date":"2021-08-18","address1":"525 W ZIA RD","zip":"87505-69","primaryAppointments":0,"primaryCap":6,"boosterAppointments":0,"boosterCap":0,"brands":[1],"driveThrough":0,"wheelchairAccessible":1,"mobilityHelp":0,"deafAccommodations":1,"blindAccommodations":1,"paperworkAssistance":1,"seatingAvailable":1,"sensoryFriendly":0,"walkIn":1},{"name":"Walgreens 9067  (20th/Butler)","locationId":371,"city":"FARMINGTON","lat":36.74680307,"lng":-108.19743708,"startTime":"16:00:00","endTime":"16:30:00","date":"2021-08-18","address1":"701 E 20TH ST","zip":"87401-42","primaryAppointments":0,"primaryCap":5,"boosterAppointments":0,"boosterCap":0,"brands":[3],"driveThrough":0,"wheelchairAccessible":1,"mobilityHelp":1,"deafAccommodations":0,"blindAccommodations":0,"paperworkAssistance":1,"seatingAvailable":1,"sensoryFriendly":1,"walkIn":1},{"name":"Walgreens #11360","locationId":374,"city":"Albuquerque","lat":35.12940871,"lng":-106.51596991,"startTime":"10:00:00","endTime":"11:30:00","date":"2021-08-18","address1":"11200 MONTGOMERY BLVD NE","zip":"87111-","primaryAppointments":0,"primaryCap":3,"boosterAppointments":3,"boosterCap":3,"brands":[1],"driveThrough":0,"wheelchairAccessible":1,"mobilityHelp":0,"deafAccommodations":0,"blindAccommodations":1,"paperworkAssistance":0,"seatingAvailable":1,"sensoryFriendly":1,"walkIn":1},{"name":"Walgreens","locationId":376,"city":"Albuquerque","lat":35.10821758,"lng":-106.53322387,"startTime":"10:00:00","endTime":"15:00:00","date":"2021-08-18","address1":"9700 MENAUL BLVD NE","zip":"87112-23","primaryAppointments":0,"primaryCap":10,"boosterAppointments":1,"boosterCap":10,"brands":[1],"driveThrough":0,"wheelchairAccessible":1,"mobilityHelp":1,"deafAccommodations":1,"blindAccommodations":1,"paperworkAssistance":1,"seatingAvailable":1,"sensoryFriendly":1,"walkIn":1},{"name":"Walgreens Harper and Wyoming","locationId":378,"city":"Albuquerque","lat":35.15920189,"lng":-106.55912554,"startTime":"14:30:00","endTime":"17:00:00","date":"2021-08-18","address1":"8011 HARPER DR NE","zip":"87111-10","primaryAppointments":0,"primaryCap":0,"boosterAppointments":6,"boosterCap":6,"brands":[1],"driveThrough":0,"wheelchairAccessible":1,"mobilityHelp":0,"deafAccommodations":1,"blindAccommodations":1,"paperworkAssistance":1,"seatingAvailable":0,"sensoryFriendly":0,"walkIn":0},{"name":"Walgreens #9336","locationId":384,"city":"Albuquerque","lat":35.10766418,"lng":-106.66050315,"startTime":"10:00:00","endTime":"16:30:00","date":"2021-08-18","address1":"2011 12TH ST NW","zip":"87104-23","primaryAppointments":0,"primaryCap":0,"boosterAppointments":11,"boosterCap":12,"brands":[1],"driveThrough":0,"wheelchairAccessible":1,"mobilityHelp":0,"deafAccommodations":1,"blindAccommodations":0,"paperworkAssistance":1,"seatingAvailable":1,"sensoryFriendly":1,"walkIn":0},{"name":"Walgreens 4th and Griegos","locationId":409,"city":"Albuquerque","lat":35.12991653,"lng":-106.64227552,"startTime":"10:00:00","endTime":"13:30:00","date":"2021-08-18","address1":"4700 4TH ST NW","zip":"87107-39","primaryAppointments":0,"primaryCap":0,"boosterAppointments":14,"boosterCap":14,"brands":[1],"driveThrough":0,"wheelchairAccessible":1,"mobilityHelp":1,"deafAccommodations":1,"blindAccommodations":1,"paperworkAssistance":1,"seatingAvailable":1,"sensoryFriendly":1,"walkIn":1},{"name":"Walgreens #12407","locationId":415,"city":"Albuquerque","lat":35.21303541,"lng":-106.69806297,"startTime":"11:00:00","endTime":"17:30:00","date":"2021-08-18","address1":"10800 UNSER BLVD NW","zip":"87114-10","primaryAppointments":0,"primaryCap":10,"boosterAppointments":0,"boosterCap":10,"brands":[1],"driveThrough":0,"wheelchairAccessible":1,"mobilityHelp":0,"deafAccommodations":0,"blindAccommodations":1,"paperworkAssistance":0,"seatingAvailable":1,"sensoryFriendly":1,"walkIn":0},{"name":"BCA Pediatrics","locationId":442,"city":"Roswell","lat":33.40135299,"lng":-104.53159289,"startTime":"15:00:00","endTime":"15:30:00","date":"2021-08-18","address1":"813 N. Washington","zip":"88201","primaryAppointments":0,"primaryCap":0,"boosterAppointments":2,"boosterCap":2,"brands":[1],"driveThrough":0,"wheelchairAccessible":1,"mobilityHelp":0,"deafAccommodations":0,"blindAccommodations":0,"paperworkAssistance":1,"seatingAvailable":1,"sensoryFriendly":1,"walkIn":0},{"name":"BCA Medical Associates - Artesia","locationId":443,"city":"Artesia","lat":32.84796422,"lng":-104.39917361,"startTime":"08:30:00","endTime":"14:30:00","date":"2021-08-18","address1":"608 N. 1st Street","zip":"88210","primaryAppointments":0,"primaryCap":0,"boosterAppointments":9,"boosterCap":9,"brands":[1],"driveThrough":0,"wheelchairAccessible":1,"mobilityHelp":0,"deafAccommodations":0,"blindAccommodations":0,"paperworkAssistance":1,"seatingAvailable":1,"sensoryFriendly":1,"walkIn":1},{"name":"BCA Medical Associates - Dexter","locationId":445,"city":"Dexter","lat":33.19585239,"lng":-104.37086799,"startTime":"09:00:00","endTime":"14:30:00","date":"2021-08-18","address1":"113 S. Lincoln","zip":"88230","primaryAppointments":1,"primaryCap":1,"boosterAppointments":9,"boosterCap":9,"brands":[2],"driveThrough":0,"wheelchairAccessible":1,"mobilityHelp":0,"deafAccommodations":0,"blindAccommodations":0,"paperworkAssistance":1,"seatingAvailable":1,"sensoryFriendly":1,"walkIn":1},{"name":"Nambe Drugs Santa Fe","locationId":450,"city":"Santa Fe","lat":35.68104125,"lng":-105.93807183,"startTime":"10:30:00","endTime":"13:00:00","date":"2021-08-18","address1":"501 Old Santa Fe Trail","zip":"87505-03","primaryAppointments":0,"primaryCap":9,"boosterAppointments":5,"boosterCap":11,"brands":[2],"driveThrough":0,"wheelchairAccessible":1,"mobilityHelp":0,"deafAccommodations":0,"blindAccommodations":0,"paperworkAssistance":1,"seatingAvailable":1,"sensoryFriendly":0,"walkIn":1},{"name":"Nambe Drugs- Los Alamos","locationId":451,"city":"Los Alamos","lat":35.88143588,"lng":-106.30061247,"startTime":"10:30:00","endTime":"11:00:00","date":"2021-08-18","address1":"111 Central Park Square","zip":"87544","primaryAppointments":0,"primaryCap":5,"boosterAppointments":0,"boosterCap":5,"brands":[2],"driveThrough":0,"wheelchairAccessible":null,"mobilityHelp":null,"deafAccommodations":null,"blindAccommodations":null,"paperworkAssistance":null,"seatingAvailable":null,"sensoryFriendly":null,"walkIn":1},{"name":"Artesia General Hospital","locationId":469,"city":"Artesia","lat":32.84827018,"lng":-104.41197344,"startTime":"09:30:00","endTime":"11:00:00","date":"2021-08-18","address1":"702 North 13th Street","zip":"88210","primaryAppointments":8,"primaryCap":18,"boosterAppointments":5,"boosterCap":18,"brands":[1],"driveThrough":0,"wheelchairAccessible":null,"mobilityHelp":null,"deafAccommodations":null,"blindAccommodations":null,"paperworkAssistance":null,"seatingAvailable":null,"sensoryFriendly":null,"walkIn":1},{"name":"pinon family pharmacy","locationId":565,"city":"Farmington","lat":36.75712234,"lng":-108.17683652,"startTime":"10:00:00","endTime":"14:30:00","date":"2021-08-18","address1":"2300 B East 30th Suite 101","zip":"87401","primaryAppointments":0,"primaryCap":9,"boosterAppointments":0,"boosterCap":18,"brands":[1,2,3],"driveThrough":0,"wheelchairAccessible":1,"mobilityHelp":1,"deafAccommodations":1,"blindAccommodations":1,"paperworkAssistance":1,"seatingAvailable":1,"sensoryFriendly":1,"walkIn":1},{"name":"United Drug Superstore","locationId":635,"city":"Hatch","lat":32.66429406,"lng":-107.15506168,"startTime":"12:00:00","endTime":"16:30:00","date":"2021-08-18","address1":"221 W. Hall Street","zip":"87937","primaryAppointments":0,"primaryCap":8,"boosterAppointments":7,"boosterCap":20,"brands":[2],"driveThrough":1,"wheelchairAccessible":1,"mobilityHelp":1,"deafAccommodations":1,"blindAccommodations":1,"paperworkAssistance":1,"seatingAvailable":1,"sensoryFriendly":1,"walkIn":1},{"name":"Lowells Pharmacy","locationId":638,"city":"Artesia","lat":32.8477557,"lng":-104.4125974,"startTime":"10:00:00","endTime":"17:30:00","date":"2021-08-18","address1":"612 N. 13th St","zip":"88210","primaryAppointments":0,"primaryCap":8,"boosterAppointments":1,"boosterCap":8,"brands":[2],"driveThrough":0,"wheelchairAccessible":null,"mobilityHelp":null,"deafAccommodations":null,"blindAccommodations":null,"paperworkAssistance":null,"seatingAvailable":null,"sensoryFriendly":null,"walkIn":0},{"name":"Las Cruces Walmart Pfizer Clinic - S. Valley Drive","locationId":746,"city":"Las Cruces","lat":32.28747833,"lng":-106.78564404,"startTime":"14:00:00","endTime":"16:00:00","date":"2021-08-18","address1":"1550 S. Valley Drive","zip":"88005-31","primaryAppointments":0,"primaryCap":0,"boosterAppointments":11,"boosterCap":12,"brands":[1],"driveThrough":0,"wheelchairAccessible":1,"mobilityHelp":0,"deafAccommodations":1,"blindAccommodations":1,"paperworkAssistance":1,"seatingAvailable":1,"sensoryFriendly":0,"walkIn":1},{"name":"BESTCARE PHARMACY TUCUMCARI LL","locationId":762,"city":"Tucumcari","lat":35.17339235,"lng":-103.7268842,"startTime":"16:00:00","endTime":"16:30:00","date":"2021-08-18","address1":"511 S 2ND ST","zip":"88401","primaryAppointments":0,"primaryCap":0,"boosterAppointments":1,"boosterCap":1,"brands":[2],"driveThrough":0,"wheelchairAccessible":1,"mobilityHelp":1,"deafAccommodations":0,"blindAccommodations":0,"paperworkAssistance":1,"seatingAvailable":1,"sensoryFriendly":1,"walkIn":0},{"name":"Pharmaca Integrative Pharmacy","locationId":764,"city":"Santa Fe","lat":35.67293583,"lng":-105.95353254,"startTime":"09:00:00","endTime":"17:30:00","date":"2021-08-18","address1":"530 W CORDOVA RD STE B","zip":"87505","primaryAppointments":1,"primaryCap":17,"boosterAppointments":1,"boosterCap":17,"brands":[2],"driveThrough":0,"wheelchairAccessible":1,"mobilityHelp":0,"deafAccommodations":0,"blindAccommodations":0,"paperworkAssistance":0,"seatingAvailable":1,"sensoryFriendly":1,"walkIn":1},{"name":"Highland Pharmacy","locationId":765,"city":"ALBUQUERQUE","lat":35.088672,"lng":-106.6319821,"startTime":"09:30:00","endTime":"10:00:00","date":"2021-08-18","address1":"717 ENCINO PLACE NE STE 1","zip":"87102","primaryAppointments":0,"primaryCap":6,"boosterAppointments":0,"boosterCap":5,"brands":[1],"driveThrough":0,"wheelchairAccessible":null,"mobilityHelp":null,"deafAccommodations":null,"blindAccommodations":null,"paperworkAssistance":null,"seatingAvailable":null,"sensoryFriendly":null,"walkIn":0},{"name":"Phil's Pharmacy","locationId":766,"city":"Albuquerque","lat":35.08665953,"lng":-106.58443411,"startTime":"09:30:00","endTime":"15:30:00","date":"2021-08-18","address1":"5510 LOMAS BLVD NE","zip":"87110","primaryAppointments":1,"primaryCap":5,"boosterAppointments":3,"boosterCap":5,"brands":[2],"driveThrough":0,"wheelchairAccessible":1,"mobilityHelp":1,"deafAccommodations":0,"blindAccommodations":1,"paperworkAssistance":1,"seatingAvailable":1,"sensoryFriendly":1,"walkIn":1},{"name":"Sam's Regent Pharmacy","locationId":768,"city":"Albuquerque","lat":35.16045919,"lng":-106.55903677,"startTime":"11:00:00","endTime":"13:30:00","date":"2021-08-18","address1":"7120 WYOMING NE SUITE 7B","zip":"87109","primaryAppointments":1,"primaryCap":4,"boosterAppointments":3,"boosterCap":6,"brands":[2],"driveThrough":0,"wheelchairAccessible":1,"mobilityHelp":1,"deafAccommodations":0,"blindAccommodations":0,"paperworkAssistance":1,"seatingAvailable":1,"sensoryFriendly":1,"walkIn":0},{"name":"Michael's Prescription Corner - Hobbs","locationId":771,"city":"Hobbs","lat":32.72814257,"lng":-103.13626774,"startTime":"10:00:00","endTime":"15:00:00","date":"2021-08-18","address1":"2420 N FOWLER","zip":"88240","primaryAppointments":0,"primaryCap":20,"boosterAppointments":18,"boosterCap":20,"brands":[2],"driveThrough":0,"wheelchairAccessible":1,"mobilityHelp":0,"deafAccommodations":0,"blindAccommodations":0,"paperworkAssistance":1,"seatingAvailable":1,"sensoryFriendly":1,"walkIn":1},{"name":"John's Pharmacy","locationId":797,"city":"Albuquerque","lat":35.07283046,"lng":-106.54648146,"startTime":"10:00:00","endTime":"17:00:00","date":"2021-08-18","address1":"9134 CENTRAL AVE SE","zip":"87123","primaryAppointments":0,"primaryCap":70,"boosterAppointments":2,"boosterCap":70,"brands":[2],"driveThrough":0,"wheelchairAccessible":1,"mobilityHelp":1,"deafAccommodations":1,"blindAccommodations":0,"paperworkAssistance":1,"seatingAvailable":1,"sensoryFriendly":1,"walkIn":1},{"name":"Pfizer Walk-in","locationId":806,"city":"Albuquerque","lat":35.17989636,"lng":-106.69024829,"startTime":"09:00:00","endTime":"20:30:00","date":"2021-08-18","address1":"8511 Golf Course Rd NW","zip":"87114","primaryAppointments":0,"primaryCap":15,"boosterAppointments":8,"boosterCap":15,"brands":[1],"driveThrough":0,"wheelchairAccessible":1,"mobilityHelp":1,"deafAccommodations":0,"blindAccommodations":0,"paperworkAssistance":1,"seatingAvailable":1,"sensoryFriendly":0,"walkIn":1},{"name":"Presbyterian COVID-19 Vaccination Hub at Plains Regional Medical - Presbyterian COVID 19 Vaccination HUB PRMC POD","locationId":836,"city":"Clovis","lat":34.41974899,"lng":-103.23686173,"startTime":"08:30:00","endTime":"16:00:00","date":"2021-08-18","address1":"2200 W. 21st","zip":"88101","primaryAppointments":0,"primaryCap":20,"boosterAppointments":3,"boosterCap":28,"brands":[2],"driveThrough":0,"wheelchairAccessible":1,"mobilityHelp":1,"deafAccommodations":1,"blindAccommodations":1,"paperworkAssistance":1,"seatingAvailable":1,"sensoryFriendly":1,"walkIn":1},{"name":"Ribera Healthcare","locationId":852,"city":"Albuquerque","lat":35.15604147,"lng":-106.68120261,"startTime":"09:00:00","endTime":"15:30:00","date":"2021-08-18","address1":"6271 Riverside Plaza Ln. NW, Suite D112B","zip":"87120","primaryAppointments":0,"primaryCap":100,"boosterAppointments":5,"boosterCap":100,"brands":[1],"driveThrough":0,"wheelchairAccessible":1,"mobilityHelp":1,"deafAccommodations":0,"blindAccommodations":0,"paperworkAssistance":1,"seatingAvailable":1,"sensoryFriendly":1,"walkIn":1},{"name":"Safeway Pharmacy-Gallup","locationId":864,"city":"Gallup","lat":35.53473937,"lng":-108.75682044,"startTime":"10:00:00","endTime":"19:00:00","date":"2021-08-18","address1":"980 N US HWY 491","zip":"87301","primaryAppointments":0,"primaryCap":72,"boosterAppointments":4,"boosterCap":72,"brands":[1],"driveThrough":0,"wheelchairAccessible":1,"mobilityHelp":0,"deafAccommodations":0,"blindAccommodations":0,"paperworkAssistance":1,"seatingAvailable":1,"sensoryFriendly":1,"walkIn":1},{"name":"Albertsons","locationId":866,"city":"Silver City","lat":32.78567245,"lng":-108.25468906,"startTime":"10:00:00","endTime":"17:00:00","date":"2021-08-18","address1":"1956 Highway 180 East","zip":"88061","primaryAppointments":0,"primaryCap":0,"boosterAppointments":0,"boosterCap":24,"brands":[2],"driveThrough":0,"wheelchairAccessible":1,"mobilityHelp":1,"deafAccommodations":0,"blindAccommodations":0,"paperworkAssistance":1,"seatingAvailable":1,"sensoryFriendly":1,"walkIn":1},{"name":"Smith's Pharmacy #448","locationId":887,"city":"ALBUQUERQUE","lat":35.17859332,"lng":-106.69021692,"startTime":"10:00:00","endTime":"11:30:00","date":"2021-08-18","address1":"8301 GOLF COURSE RD","zip":"87120","primaryAppointments":0,"primaryCap":2,"boosterAppointments":2,"boosterCap":2,"brands":[2],"driveThrough":0,"wheelchairAccessible":1,"mobilityHelp":0,"deafAccommodations":0,"blindAccommodations":0,"paperworkAssistance":1,"seatingAvailable":1,"sensoryFriendly":1,"walkIn":1},{"name":"Del Norte Pharmacy of El Dorado","locationId":919,"city":"Santa Fe","lat":35.53594602,"lng":-105.8906687,"startTime":"10:00:00","endTime":"15:30:00","date":"2021-08-18","address1":"7 Caliente Rd","zip":"87507","primaryAppointments":0,"primaryCap":4,"boosterAppointments":0,"boosterCap":4,"brands":[2],"driveThrough":1,"wheelchairAccessible":1,"mobilityHelp":1,"deafAccommodations":1,"blindAccommodations":0,"paperworkAssistance":1,"seatingAvailable":1,"sensoryFriendly":1,"walkIn":1},{"name":"Del Norte Pharmacy: Las Vegas","locationId":921,"city":"Las Vegas","lat":35.610448,"lng":-105.21089933,"startTime":"10:00:00","endTime":"17:00:00","date":"2021-08-18","address1":"615 North Grand Avenue","zip":"87701","primaryAppointments":0,"primaryCap":11,"boosterAppointments":1,"boosterCap":11,"brands":[2],"driveThrough":1,"wheelchairAccessible":1,"mobilityHelp":1,"deafAccommodations":0,"blindAccommodations":1,"paperworkAssistance":1,"seatingAvailable":1,"sensoryFriendly":1,"walkIn":1},{"name":"Corrales Fire Department - Corrales Recreation Center(Pfizer CFD) - 500 Jones Road, Corrale","locationId":935,"city":"Corrales","lat":35.2199784,"lng":-106.62254835,"startTime":"19:00:00","endTime":"20:00:00","date":"2021-08-18","address1":"500 Jones Road ","zip":"87048","primaryAppointments":0,"primaryCap":18,"boosterAppointments":15,"boosterCap":18,"brands":[1],"driveThrough":1,"wheelchairAccessible":1,"mobilityHelp":1,"deafAccommodations":0,"blindAccommodations":0,"paperworkAssistance":1,"seatingAvailable":0,"sensoryFriendly":0,"walkIn":1},{"name":"RioGrande Care Pharmacy","locationId":946,"city":"Las Cruces","lat":32.324347,"lng":-106.72654976,"startTime":"08:30:00","endTime":"18:00:00","date":"2021-08-18","address1":" 4371 E Lohman Ave","zip":"88011","primaryAppointments":0,"primaryCap":17,"boosterAppointments":1,"boosterCap":17,"brands":[2],"driveThrough":0,"wheelchairAccessible":1,"mobilityHelp":0,"deafAccommodations":0,"blindAccommodations":0,"paperworkAssistance":1,"seatingAvailable":1,"sensoryFriendly":1,"walkIn":1},{"name":"Del-Rey Pharmacy","locationId":969,"city":"Las Cruces","lat":32.35192765,"lng":-106.76836015,"startTime":"10:00:00","endTime":"17:00:00","date":"2021-08-18","address1":"3291 Del Rey Blvd #3","zip":"88012","primaryAppointments":0,"primaryCap":70,"boosterAppointments":2,"boosterCap":70,"brands":[2],"driveThrough":0,"wheelchairAccessible":1,"mobilityHelp":1,"deafAccommodations":0,"blindAccommodations":0,"paperworkAssistance":1,"seatingAvailable":1,"sensoryFriendly":1,"walkIn":1},{"name":"El Centro Family Health WLV SBHC ","locationId":997,"city":"Las Vegas","lat":35.58770812,"lng":-105.22399231,"startTime":"09:00:00","endTime":"10:30:00","date":"2021-08-18","address1":"1024 South Pacific","zip":"87701","primaryAppointments":0,"primaryCap":0,"boosterAppointments":7,"boosterCap":7,"brands":[1],"driveThrough":1,"wheelchairAccessible":1,"mobilityHelp":1,"deafAccommodations":0,"blindAccommodations":1,"paperworkAssistance":1,"seatingAvailable":1,"sensoryFriendly":1,"walkIn":1},{"name":"Walmart 3731-Bernalillo","locationId":1042,"city":"Bernalillo ","lat":35.31951183,"lng":-106.57261526,"startTime":"09:00:00","endTime":"20:00:00","date":"2021-08-18","address1":"460 NM HWY #528","zip":"87004","primaryAppointments":0,"primaryCap":19,"boosterAppointments":9,"boosterCap":19,"brands":[1],"driveThrough":0,"wheelchairAccessible":1,"mobilityHelp":0,"deafAccommodations":1,"blindAccommodations":1,"paperworkAssistance":1,"seatingAvailable":1,"sensoryFriendly":1,"walkIn":1},{"name":"El Centro - Rio Arriba Health Commons - EVHS School Based Clinic","locationId":1044,"city":"Espanola","lat":36.00590251,"lng":-106.03939489,"startTime":"09:00:00","endTime":"11:00:00","date":"2021-08-18","address1":"1111 El Llano Road","zip":"87532","primaryAppointments":0,"primaryCap":4,"boosterAppointments":11,"boosterCap":12,"brands":[1],"driveThrough":0,"wheelchairAccessible":1,"mobilityHelp":1,"deafAccommodations":1,"blindAccommodations":1,"paperworkAssistance":1,"seatingAvailable":1,"sensoryFriendly":1,"walkIn":1},{"name":"HMS-SC: COVID-19 Community Clinic","locationId":1048,"city":"Silver City","lat":32.79373006,"lng":-108.26215209,"startTime":"09:00:00","endTime":"17:30:00","date":"2021-08-18","address1":"1304 E. 32nd St","zip":"88061","primaryAppointments":0,"primaryCap":15,"boosterAppointments":13,"boosterCap":15,"brands":[1],"driveThrough":1,"wheelchairAccessible":1,"mobilityHelp":1,"deafAccommodations":0,"blindAccommodations":0,"paperworkAssistance":1,"seatingAvailable":1,"sensoryFriendly":1,"walkIn":1},{"name":"Walmart Pharmacy on Carlisle","locationId":1061,"city":"Albuquerque","lat":35.11031931,"lng":-106.60821446,"startTime":"10:00:00","endTime":"16:00:00","date":"2021-08-18","address1":"2701 Carlisle BLVD NE","zip":"87110","primaryAppointments":0,"primaryCap":8,"boosterAppointments":8,"boosterCap":8,"brands":[1],"driveThrough":0,"wheelchairAccessible":1,"mobilityHelp":0,"deafAccommodations":1,"blindAccommodations":1,"paperworkAssistance":1,"seatingAvailable":1,"sensoryFriendly":1,"walkIn":1},{"name":"Rio Communities Senior Center","locationId":1077,"city":"Belen","lat":34.64499605,"lng":-106.73328017,"startTime":"16:00:00","endTime":"18:00:00","date":"2021-08-18","address1":"351 Rio Communities Blvd","zip":"87002","primaryAppointments":1,"primaryCap":20,"boosterAppointments":20,"boosterCap":40,"brands":[1],"driveThrough":0,"wheelchairAccessible":1,"mobilityHelp":1,"deafAccommodations":1,"blindAccommodations":1,"paperworkAssistance":1,"seatingAvailable":1,"sensoryFriendly":1,"walkIn":1},{"name":"Sandoval Health Commons 1500 Idalia Rd Bldg B Bernalillo, NM","locationId":1097,"city":"Bernalillo","lat":35.30863271,"lng":-106.58563451,"startTime":"15:30:00","endTime":"17:30:00","date":"2021-08-18","address1":"1500 Idalia Road Building B","zip":"87004","primaryAppointments":0,"primaryCap":7,"boosterAppointments":4,"boosterCap":5,"brands":[1],"driveThrough":1,"wheelchairAccessible":1,"mobilityHelp":0,"deafAccommodations":0,"blindAccommodations":0,"paperworkAssistance":1,"seatingAvailable":1,"sensoryFriendly":1,"walkIn":1},{"name":"Sandoval Health Commons 1500 Idalia Rd Bldg B Bernalillo, NM","locationId":1103,"city":"Bernalillo","lat":35.30910562,"lng":-106.58518981,"startTime":"15:30:00","endTime":"17:30:00","date":"2021-08-18","address1":"1500 Idalia Road Building B","zip":"87004","primaryAppointments":1,"primaryCap":5,"boosterAppointments":0,"boosterCap":0,"brands":[3],"driveThrough":1,"wheelchairAccessible":1,"mobilityHelp":0,"deafAccommodations":0,"blindAccommodations":0,"paperworkAssistance":1,"seatingAvailable":1,"sensoryFriendly":1,"walkIn":1},{"name":"LAS CLINICAS DEL NORTE","locationId":1121,"city":"Espanola ","lat":35.99409093,"lng":-106.08220296,"startTime":"08:00:00","endTime":"17:00:00","date":"2021-08-18","address1":"313 N. Paseo De Onate","zip":"87532","primaryAppointments":1,"primaryCap":150,"boosterAppointments":2,"boosterCap":35,"brands":[1],"driveThrough":0,"wheelchairAccessible":1,"mobilityHelp":1,"deafAccommodations":1,"blindAccommodations":1,"paperworkAssistance":1,"seatingAvailable":1,"sensoryFriendly":1,"walkIn":1},{"name":"Los Padillas Community Center","locationId":1175,"city":"Albuquerque","lat":34.95613148,"lng":-106.69745948,"startTime":"14:00:00","endTime":"19:00:00","date":"2021-08-18","address1":"2117 Los Padillas Rd SW","zip":"87105","primaryAppointments":3,"primaryCap":200,"boosterAppointments":14,"boosterCap":200,"brands":[1],"driveThrough":0,"wheelchairAccessible":0,"mobilityHelp":0,"deafAccommodations":0,"blindAccommodations":0,"paperworkAssistance":1,"seatingAvailable":1,"sensoryFriendly":1,"walkIn":1},{"name":"Belen, Walmart Pharmacy  Store 1414","locationId":1186,"city":"Belen","lat":34.69707015,"lng":-106.76885824,"startTime":"11:30:00","endTime":"13:00:00","date":"2021-08-18","address1":"1 I-25 Bypass","zip":"87002","primaryAppointments":2,"primaryCap":3,"boosterAppointments":0,"boosterCap":3,"brands":[1],"driveThrough":0,"wheelchairAccessible":1,"mobilityHelp":1,"deafAccommodations":1,"blindAccommodations":1,"paperworkAssistance":1,"seatingAvailable":1,"sensoryFriendly":1,"walkIn":1},{"name":"Walmart Neighborhood Market - Juan Tabo/Menual Pfizer","locationId":1187,"city":"Albuquerque","lat":35.1092259,"lng":-106.51811344,"startTime":"09:00:00","endTime":"20:00:00","date":"2021-08-18","address1":"11001 Menaul Blvd","zip":"87112","primaryAppointments":0,"primaryCap":40,"boosterAppointments":6,"boosterCap":40,"brands":[1],"driveThrough":0,"wheelchairAccessible":1,"mobilityHelp":1,"deafAccommodations":1,"blindAccommodations":1,"paperworkAssistance":1,"seatingAvailable":1,"sensoryFriendly":1,"walkIn":1},{"name":"Walmart Pharmacy","locationId":1189,"city":"Albuquerque","lat":35.11034324,"lng":-106.72895676,"startTime":"09:30:00","endTime":"12:30:00","date":"2021-08-18","address1":"1820 Unser Blvd NW","zip":"87120","primaryAppointments":0,"primaryCap":2,"boosterAppointments":10,"boosterCap":10,"brands":[1],"driveThrough":0,"wheelchairAccessible":1,"mobilityHelp":0,"deafAccommodations":1,"blindAccommodations":1,"paperworkAssistance":1,"seatingAvailable":1,"sensoryFriendly":1,"walkIn":1},{"name":"Walmart Pharmacy Los Lunas Pfizer","locationId":1190,"city":"Los Lunas","lat":34.8165634,"lng":-106.76319543,"startTime":"14:00:00","endTime":"17:00:00","date":"2021-08-18","address1":"2250 Main Steeet","zip":"87031","primaryAppointments":0,"primaryCap":2,"boosterAppointments":9,"boosterCap":10,"brands":[1],"driveThrough":0,"wheelchairAccessible":1,"mobilityHelp":1,"deafAccommodations":1,"blindAccommodations":1,"paperworkAssistance":1,"seatingAvailable":1,"sensoryFriendly":1,"walkIn":1},{"name":"Pfizer Walmart event","locationId":1192,"city":"Rio Rancho","lat":35.23948742,"lng":-106.6588789,"startTime":"10:30:00","endTime":"12:00:00","date":"2021-08-18","address1":"1115 NM-HWY 528 SE","zip":"87124","primaryAppointments":0,"primaryCap":3,"boosterAppointments":2,"boosterCap":3,"brands":[1],"driveThrough":0,"wheelchairAccessible":1,"mobilityHelp":0,"deafAccommodations":1,"blindAccommodations":1,"paperworkAssistance":0,"seatingAvailable":1,"sensoryFriendly":1,"walkIn":1},{"name":"Walmart Farmington East Pfizer","locationId":1225,"city":"Farmington","lat":36.76703444,"lng":-108.15244454,"startTime":"09:00:00","endTime":"19:00:00","date":"2021-08-18","address1":"4600 E Main St ","zip":"87401","primaryAppointments":0,"primaryCap":36,"boosterAppointments":19,"boosterCap":36,"brands":[1],"driveThrough":0,"wheelchairAccessible":1,"mobilityHelp":0,"deafAccommodations":0,"blindAccommodations":0,"paperworkAssistance":1,"seatingAvailable":1,"sensoryFriendly":1,"walkIn":1},{"name":"University of New Mexico Student Union Building","locationId":1262,"city":"Albuquerque","lat":35.08146241,"lng":-106.6204064,"startTime":"10:00:00","endTime":"14:00:00","date":"2021-08-18","address1":"398 Cornell Dr NE","zip":"87131","primaryAppointments":1,"primaryCap":400,"boosterAppointments":0,"boosterCap":400,"brands":[1],"driveThrough":0,"wheelchairAccessible":1,"mobilityHelp":0,"deafAccommodations":0,"blindAccommodations":0,"paperworkAssistance":1,"seatingAvailable":1,"sensoryFriendly":0,"walkIn":1},{"name":"On site Vaccination ","locationId":1263,"city":"Belen","lat":34.59448808,"lng":-106.73224249,"startTime":"06:00:00","endTime":"07:00:00","date":"2021-08-18","address1":"101 Christine Dr, Belen","zip":"87002","primaryAppointments":0,"primaryCap":50,"boosterAppointments":0,"boosterCap":50,"brands":[1],"driveThrough":0,"wheelchairAccessible":1,"mobilityHelp":1,"deafAccommodations":1,"blindAccommodations":1,"paperworkAssistance":1,"seatingAvailable":1,"sensoryFriendly":1,"walkIn":1},{"name":"walmart I40/Coors Pfizer","locationId":1265,"city":"Albuquerque","lat":35.109855,"lng":-106.70118594,"startTime":"14:30:00","endTime":"17:30:00","date":"2021-08-18","address1":"2550 Coors Blvd NW","zip":"87112","primaryAppointments":0,"primaryCap":4,"boosterAppointments":8,"boosterCap":8,"brands":[1],"driveThrough":0,"wheelchairAccessible":1,"mobilityHelp":1,"deafAccommodations":1,"blindAccommodations":1,"paperworkAssistance":1,"seatingAvailable":1,"sensoryFriendly":1,"walkIn":1},{"name":"Pfizer - Socorro Walmart Pharmacy","locationId":1272,"city":"Socorro","lat":34.07483084,"lng":-106.89255114,"startTime":"14:30:00","endTime":"16:00:00","date":"2021-08-18","address1":"700 North 6th Street","zip":"87801","primaryAppointments":0,"primaryCap":0,"boosterAppointments":6,"boosterCap":6,"brands":[1],"driveThrough":0,"wheelchairAccessible":1,"mobilityHelp":1,"deafAccommodations":1,"blindAccommodations":1,"paperworkAssistance":1,"seatingAvailable":1,"sensoryFriendly":1,"walkIn":1},{"name":"MESALAND COMMUNITY COLLEGE","locationId":1286,"city":"TUCUMCARI","lat":35.15993622,"lng":-103.73679856,"startTime":"09:00:00","endTime":"17:00:00","date":"2021-08-18","address1":"911 SOUTH TENTH STREET","zip":"88401","primaryAppointments":0,"primaryCap":8000,"boosterAppointments":0,"boosterCap":8000,"brands":[1],"driveThrough":0,"wheelchairAccessible":1,"mobilityHelp":1,"deafAccommodations":1,"blindAccommodations":1,"paperworkAssistance":1,"seatingAvailable":1,"sensoryFriendly":1,"walkIn":1},{"name":"McCurdy Charter School","locationId":1293,"city":"Espanola","lat":35.99593136,"lng":-106.05073601,"startTime":"09:00:00","endTime":"13:00:00","date":"2021-08-18","address1":"515 Camino Arbolera","zip":"87532","primaryAppointments":2,"primaryCap":200,"boosterAppointments":43,"boosterCap":200,"brands":[1],"driveThrough":0,"wheelchairAccessible":1,"mobilityHelp":1,"deafAccommodations":1,"blindAccommodations":1,"paperworkAssistance":1,"seatingAvailable":1,"sensoryFriendly":1,"walkIn":1},{"name":"Espanola Walmart Pfizer","locationId":1311,"city":"espanola","lat":36.01508819,"lng":-106.06841216,"startTime":"09:30:00","endTime":"18:30:00","date":"2021-08-18","address1":"1610 N Riverside Drive","zip":"87532","primaryAppointments":0,"primaryCap":16,"boosterAppointments":6,"boosterCap":16,"brands":[1],"driveThrough":0,"wheelchairAccessible":1,"mobilityHelp":0,"deafAccommodations":0,"blindAccommodations":0,"paperworkAssistance":1,"seatingAvailable":1,"sensoryFriendly":0,"walkIn":1},{"name":"Holy Cross Medical Center","locationId":1324,"city":"Taos","lat":36.36788501,"lng":-105.57646206,"startTime":"13:00:00","endTime":"15:00:00","date":"2021-08-18","address1":"1397 Weimer Road","zip":"87571","primaryAppointments":0,"primaryCap":20,"boosterAppointments":0,"boosterCap":20,"brands":[2],"driveThrough":1,"wheelchairAccessible":1,"mobilityHelp":1,"deafAccommodations":1,"blindAccommodations":1,"paperworkAssistance":1,"seatingAvailable":1,"sensoryFriendly":0,"walkIn":1},{"name":"MOSAIC MINE","locationId":1329,"city":"CARLSBAD","lat":32.41968464,"lng":-104.22893503,"startTime":"07:00:00","endTime":"22:00:00","date":"2021-08-18","address1":"76 RAN HIDE RD","zip":"88220","primaryAppointments":0,"primaryCap":4000,"boosterAppointments":0,"boosterCap":4000,"brands":[1],"driveThrough":0,"wheelchairAccessible":0,"mobilityHelp":0,"deafAccommodations":0,"blindAccommodations":0,"paperworkAssistance":1,"seatingAvailable":1,"sensoryFriendly":1,"walkIn":0},{"name":"One Hope Centro de Vida Health Center ","locationId":1352,"city":"Albuquerque","lat":35.07504071,"lng":-106.5537797,"startTime":"16:00:00","endTime":"20:00:00","date":"2021-08-18","address1":"133 Virginia St NE","zip":"87108","primaryAppointments":0,"primaryCap":400,"boosterAppointments":0,"boosterCap":400,"brands":[1],"driveThrough":0,"wheelchairAccessible":1,"mobilityHelp":0,"deafAccommodations":0,"blindAccommodations":0,"paperworkAssistance":1,"seatingAvailable":1,"sensoryFriendly":0,"walkIn":1}]}