{"status":"ok","message":"","data":[{"name":"McKinley Public Health Office","locationId":6,"city":"Gallup","lat":35.50591715,"lng":-108.72894399,"startTime":"11:00:00","endTime":"15:30:00","date":"2021-08-02","address1":"1919 COLLEGE DRIVE","zip":"87301","primaryAppointments":1,"primaryCap":6,"boosterAppointments":2,"boosterCap":6,"brands":[1],"driveThrough":1,"wheelchairAccessible":1,"mobilityHelp":1,"deafAccommodations":0,"blindAccommodations":0,"paperworkAssistance":1,"seatingAvailable":1,"sensoryFriendly":1,"walkIn":1},{"name":"Carlsbad Public Health Office","locationId":20,"city":"Carlsbad","lat":32.42114836,"lng":-104.24323075,"startTime":"08:30:00","endTime":"11:00:00","date":"2021-08-02","address1":"1306 W STEVENS","zip":"88220","primaryAppointments":48,"primaryCap":48,"boosterAppointments":10,"boosterCap":19,"brands":[1],"driveThrough":1,"wheelchairAccessible":1,"mobilityHelp":1,"deafAccommodations":0,"blindAccommodations":0,"paperworkAssistance":1,"seatingAvailable":1,"sensoryFriendly":1,"walkIn":1},{"name":"Las Cruces Public Health Office","locationId":32,"city":"Las Cruces","lat":32.32054442,"lng":-106.77081886,"startTime":"08:30:00","endTime":"16:00:00","date":"2021-08-02","address1":"1170. N SOLANO","zip":"88001","primaryAppointments":25,"primaryCap":36,"boosterAppointments":2,"boosterCap":24,"brands":[1],"driveThrough":0,"wheelchairAccessible":1,"mobilityHelp":1,"deafAccommodations":1,"blindAccommodations":1,"paperworkAssistance":1,"seatingAvailable":1,"sensoryFriendly":1,"walkIn":1},{"name":"Albertson's on Ridgecrest in Rio Rancho","locationId":41,"city":"RIO RANCHO","lat":35.2528357,"lng":-106.65169765,"startTime":"13:00:00","endTime":"15:30:00","date":"2021-08-02","address1":"4300 RIDGECREST DR SE","zip":"87124","primaryAppointments":14,"primaryCap":14,"boosterAppointments":9,"boosterCap":10,"brands":[1],"driveThrough":0,"wheelchairAccessible":1,"mobilityHelp":1,"deafAccommodations":0,"blindAccommodations":1,"paperworkAssistance":1,"seatingAvailable":1,"sensoryFriendly":1,"walkIn":1},{"name":"Albertsons - ABQ Academy","locationId":43,"city":"Albuquerque","lat":35.15374679,"lng":-106.49926406,"startTime":"10:00:00","endTime":"14:30:00","date":"2021-08-02","address1":"12201 ACADEMY RD NE","zip":"87111","primaryAppointments":6,"primaryCap":8,"boosterAppointments":12,"boosterCap":13,"brands":[1],"driveThrough":0,"wheelchairAccessible":1,"mobilityHelp":1,"deafAccommodations":0,"blindAccommodations":0,"paperworkAssistance":1,"seatingAvailable":1,"sensoryFriendly":1,"walkIn":1},{"name":"Albertsons - SANTA FE S SAINT FRANCIS DR","locationId":44,"city":"Santa Fe","lat":35.645377,"lng":-105.95585902,"startTime":"11:30:00","endTime":"14:00:00","date":"2021-08-02","address1":"3001 S SAINT FRANCIS DR","zip":"87505","primaryAppointments":9,"primaryCap":24,"boosterAppointments":3,"boosterCap":6,"brands":[2],"driveThrough":0,"wheelchairAccessible":null,"mobilityHelp":null,"deafAccommodations":null,"blindAccommodations":null,"paperworkAssistance":null,"seatingAvailable":null,"sensoryFriendly":null,"walkIn":1},{"name":"Las Cruces Walmart Pharmacy - Rinconada Blvd","locationId":45,"city":"Las Cruces","lat":32.3596457,"lng":-106.74699073,"startTime":"10:00:00","endTime":"17:00:00","date":"2021-08-02","address1":"3331 Rinconada Blvd","zip":"88011-71","primaryAppointments":0,"primaryCap":28,"boosterAppointments":0,"boosterCap":28,"brands":[2],"driveThrough":0,"wheelchairAccessible":1,"mobilityHelp":0,"deafAccommodations":1,"blindAccommodations":0,"paperworkAssistance":1,"seatingAvailable":1,"sensoryFriendly":0,"walkIn":1},{"name":"Artesia Walmart Pharmacy","locationId":46,"city":"Artesia","lat":32.84727192,"lng":-104.42740104,"startTime":"09:30:00","endTime":"20:30:00","date":"2021-08-02","address1":"604 N 26th St","zip":"88210-37","primaryAppointments":7,"primaryCap":38,"boosterAppointments":0,"boosterCap":0,"brands":[2],"driveThrough":0,"wheelchairAccessible":1,"mobilityHelp":0,"deafAccommodations":1,"blindAccommodations":0,"paperworkAssistance":1,"seatingAvailable":1,"sensoryFriendly":0,"walkIn":0},{"name":"Walmart - Coors Bypass-1397","locationId":47,"city":"Albuquerque","lat":35.20421306,"lng":-106.65693027,"startTime":"10:30:00","endTime":"16:30:00","date":"2021-08-02","address1":"10224 Coors Bypass NW","zip":"87114-43","primaryAppointments":0,"primaryCap":0,"boosterAppointments":2,"boosterCap":20,"brands":[2],"driveThrough":0,"wheelchairAccessible":1,"mobilityHelp":0,"deafAccommodations":1,"blindAccommodations":1,"paperworkAssistance":1,"seatingAvailable":1,"sensoryFriendly":1,"walkIn":1},{"name":"Espanola Walmart 2656 Moderna","locationId":48,"city":"Espanola","lat":36.01482649,"lng":-106.06850502,"startTime":"09:30:00","endTime":"20:30:00","date":"2021-08-02","address1":"1610 N Riverside Dr","zip":"87532-80","primaryAppointments":5,"primaryCap":20,"boosterAppointments":6,"boosterCap":20,"brands":[2],"driveThrough":0,"wheelchairAccessible":1,"mobilityHelp":0,"deafAccommodations":0,"blindAccommodations":0,"paperworkAssistance":1,"seatingAvailable":1,"sensoryFriendly":0,"walkIn":1},{"name":"Farmington Walmart West Side ","locationId":50,"city":"Farmington","lat":36.73206361,"lng":-108.22798666,"startTime":"09:30:00","endTime":"20:30:00","date":"2021-08-02","address1":"1400 W Main St","zip":"87401","primaryAppointments":1,"primaryCap":20,"boosterAppointments":6,"boosterCap":20,"brands":[2],"driveThrough":0,"wheelchairAccessible":1,"mobilityHelp":0,"deafAccommodations":0,"blindAccommodations":0,"paperworkAssistance":1,"seatingAvailable":1,"sensoryFriendly":0,"walkIn":1},{"name":"WM RX-GALLUP, NM","locationId":51,"city":"Gallup","lat":35.52774518,"lng":-108.7694296,"startTime":"09:00:00","endTime":"20:00:00","date":"2021-08-02","address1":"1650 W Maloney Ave","zip":"87301-33","primaryAppointments":0,"primaryCap":63,"boosterAppointments":4,"boosterCap":63,"brands":[2],"driveThrough":0,"wheelchairAccessible":1,"mobilityHelp":1,"deafAccommodations":1,"blindAccommodations":1,"paperworkAssistance":1,"seatingAvailable":1,"sensoryFriendly":1,"walkIn":0},{"name":"Walmart Pharmacy Hobbs, NM","locationId":52,"city":"Hobbs","lat":32.74293834,"lng":-103.16149549,"startTime":"11:00:00","endTime":"17:00:00","date":"2021-08-02","address1":"3800 N Lovington Hwy","zip":"88240-10","primaryAppointments":1,"primaryCap":24,"boosterAppointments":24,"boosterCap":24,"brands":[2],"driveThrough":0,"wheelchairAccessible":1,"mobilityHelp":1,"deafAccommodations":1,"blindAccommodations":1,"paperworkAssistance":1,"seatingAvailable":1,"sensoryFriendly":1,"walkIn":1},{"name":"Sam's Club - Roswell","locationId":53,"city":"Roswell","lat":33.44777277,"lng":-104.52715705,"startTime":"09:30:00","endTime":"16:00:00","date":"2021-08-02","address1":"4400 N Main St","zip":"88201-03","primaryAppointments":2,"primaryCap":26,"boosterAppointments":4,"boosterCap":26,"brands":[2],"driveThrough":0,"wheelchairAccessible":null,"mobilityHelp":null,"deafAccommodations":null,"blindAccommodations":null,"paperworkAssistance":null,"seatingAvailable":null,"sensoryFriendly":null,"walkIn":1},{"name":"Walmart - Wyoming/Menaul--5491","locationId":55,"city":"Albuquerque","lat":35.1058539,"lng":-106.54914912,"startTime":"10:00:00","endTime":"13:00:00","date":"2021-08-02","address1":"2266 Wyoming Blvd NE","zip":"87112-26","primaryAppointments":2,"primaryCap":2,"boosterAppointments":4,"boosterCap":10,"brands":[2],"driveThrough":0,"wheelchairAccessible":1,"mobilityHelp":1,"deafAccommodations":1,"blindAccommodations":1,"paperworkAssistance":0,"seatingAvailable":1,"sensoryFriendly":0,"walkIn":1},{"name":"PMS - Deming Health Center","locationId":78,"city":"Deming","lat":32.26666167,"lng":-107.75574677,"startTime":"13:00:00","endTime":"13:30:00","date":"2021-08-02","address1":"300 S. Diamond Avenue","zip":"88030","primaryAppointments":5,"primaryCap":7,"boosterAppointments":3,"boosterCap":3,"brands":[2],"driveThrough":0,"wheelchairAccessible":null,"mobilityHelp":null,"deafAccommodations":null,"blindAccommodations":null,"paperworkAssistance":null,"seatingAvailable":null,"sensoryFriendly":null,"walkIn":0},{"name":"PMS - Grants Family Health Center","locationId":81,"city":"Grants","lat":35.16211359,"lng":-107.82960896,"startTime":"09:00:00","endTime":"11:00:00","date":"2021-08-02","address1":"1217 Bonita Street","zip":"87020-21","primaryAppointments":1,"primaryCap":40,"boosterAppointments":0,"boosterCap":40,"brands":[2],"driveThrough":0,"wheelchairAccessible":null,"mobilityHelp":null,"deafAccommodations":null,"blindAccommodations":null,"paperworkAssistance":null,"seatingAvailable":null,"sensoryFriendly":null,"walkIn":0},{"name":"PMS - Rio Rancho Family Health Center","locationId":87,"city":"Rio Rancho","lat":35.26099912,"lng":-106.69763369,"startTime":"10:00:00","endTime":"14:30:00","date":"2021-08-02","address1":"184 Unser Boulevard, NE","zip":"87124","primaryAppointments":4,"primaryCap":5,"boosterAppointments":1,"boosterCap":3,"brands":[1],"driveThrough":0,"wheelchairAccessible":null,"mobilityHelp":null,"deafAccommodations":null,"blindAccommodations":null,"paperworkAssistance":null,"seatingAvailable":null,"sensoryFriendly":null,"walkIn":0},{"name":"Vida Pharmacy ","locationId":96,"city":"Albuquerque","lat":35.17941181,"lng":-106.59218948,"startTime":"15:00:00","endTime":"17:00:00","date":"2021-08-02","address1":"8500 Jefferson St NE","zip":"87113","primaryAppointments":1,"primaryCap":8,"boosterAppointments":0,"boosterCap":2,"brands":[1],"driveThrough":0,"wheelchairAccessible":0,"mobilityHelp":0,"deafAccommodations":0,"blindAccommodations":0,"paperworkAssistance":1,"seatingAvailable":1,"sensoryFriendly":1,"walkIn":1},{"name":"Roswell Walmart Pharmacy","locationId":104,"city":"Roswell","lat":33.44979359,"lng":-104.52683336,"startTime":"10:30:00","endTime":"17:30:00","date":"2021-08-02","address1":"4500 N Main St","zip":"88201-03","primaryAppointments":3,"primaryCap":28,"boosterAppointments":0,"boosterCap":0,"brands":[2],"driveThrough":0,"wheelchairAccessible":1,"mobilityHelp":0,"deafAccommodations":1,"blindAccommodations":0,"paperworkAssistance":1,"seatingAvailable":1,"sensoryFriendly":0,"walkIn":0},{"name":"PMS Family Health Center","locationId":105,"city":"Rio Rancho","lat":35.21967421,"lng":-106.66382391,"startTime":"09:30:00","endTime":"14:00:00","date":"2021-08-02","address1":"2300 Grande Boulevard SE","zip":"87124","primaryAppointments":2,"primaryCap":13,"boosterAppointments":0,"boosterCap":7,"brands":[2],"driveThrough":0,"wheelchairAccessible":1,"mobilityHelp":1,"deafAccommodations":1,"blindAccommodations":0,"paperworkAssistance":1,"seatingAvailable":1,"sensoryFriendly":0,"walkIn":1},{"name":"Chaparral Family Health Center","locationId":106,"city":"Chaparral","lat":32.00877348,"lng":-106.34031534,"startTime":"13:00:00","endTime":"14:00:00","date":"2021-08-02","address1":"204 Angelina Boulevard","zip":"88081-75","primaryAppointments":1,"primaryCap":5,"boosterAppointments":0,"boosterCap":0,"brands":[2],"driveThrough":0,"wheelchairAccessible":1,"mobilityHelp":1,"deafAccommodations":1,"blindAccommodations":1,"paperworkAssistance":1,"seatingAvailable":1,"sensoryFriendly":1,"walkIn":1},{"name":"La Clinica Del Pueblo De Rio Arriba","locationId":134,"city":"Tierra Amarilla","lat":36.71178247,"lng":-106.5623564,"startTime":"10:00:00","endTime":"16:00:00","date":"2021-08-02","address1":"US Hwy 84, Country road 0324 #14","zip":"87575","primaryAppointments":14,"primaryCap":61,"boosterAppointments":1,"boosterCap":5,"brands":[1],"driveThrough":1,"wheelchairAccessible":1,"mobilityHelp":1,"deafAccommodations":1,"blindAccommodations":1,"paperworkAssistance":1,"seatingAvailable":1,"sensoryFriendly":1,"walkIn":1},{"name":"Carlsbad public health office ","locationId":139,"city":"Carlsbad","lat":32.37072176,"lng":-104.23012286,"startTime":"12:00:00","endTime":"15:30:00","date":"2021-08-02","address1":"4012 National Parks Hwy","zip":"88220","primaryAppointments":0,"primaryCap":0,"boosterAppointments":13,"boosterCap":13,"brands":[1],"driveThrough":0,"wheelchairAccessible":1,"mobilityHelp":1,"deafAccommodations":0,"blindAccommodations":0,"paperworkAssistance":1,"seatingAvailable":1,"sensoryFriendly":1,"walkIn":1},{"name":"Walmart - Academy/Wyoming-824","locationId":141,"city":"Albuquerque","lat":35.14433804,"lng":-106.55099885,"startTime":"09:00:00","endTime":"20:00:00","date":"2021-08-02","address1":"8000 Academy Rd NE","zip":"87111-11","primaryAppointments":13,"primaryCap":40,"boosterAppointments":7,"boosterCap":40,"brands":[1,2],"driveThrough":0,"wheelchairAccessible":1,"mobilityHelp":1,"deafAccommodations":1,"blindAccommodations":1,"paperworkAssistance":1,"seatingAvailable":1,"sensoryFriendly":0,"walkIn":1},{"name":"Sam's Club - Eubank","locationId":142,"city":"Albuquerque","lat":35.07687388,"lng":-106.53034406,"startTime":"09:30:00","endTime":"17:00:00","date":"2021-08-02","address1":"300 Eubank Blvd NE","zip":"87123-27","primaryAppointments":1,"primaryCap":10,"boosterAppointments":5,"boosterCap":10,"brands":[2],"driveThrough":0,"wheelchairAccessible":null,"mobilityHelp":null,"deafAccommodations":null,"blindAccommodations":null,"paperworkAssistance":null,"seatingAvailable":null,"sensoryFriendly":null,"walkIn":1},{"name":"Walmart - Cerrillos Road","locationId":143,"city":"Santa Fe","lat":35.65187605,"lng":-105.99928406,"startTime":"09:30:00","endTime":"20:00:00","date":"2021-08-02","address1":"3251 Cerrillos Rd","zip":"87507-29","primaryAppointments":2,"primaryCap":10,"boosterAppointments":6,"boosterCap":10,"brands":[2],"driveThrough":0,"wheelchairAccessible":1,"mobilityHelp":0,"deafAccommodations":0,"blindAccommodations":0,"paperworkAssistance":1,"seatingAvailable":1,"sensoryFriendly":0,"walkIn":1},{"name":"walmat - san mateo/zuni 831","locationId":144,"city":"Albuquerque","lat":35.0754004,"lng":-106.58801714,"startTime":"09:30:00","endTime":"15:30:00","date":"2021-08-02","address1":"301 San Mateo Blvd SE","zip":"87108-56","primaryAppointments":4,"primaryCap":4,"boosterAppointments":6,"boosterCap":20,"brands":[2],"driveThrough":0,"wheelchairAccessible":1,"mobilityHelp":0,"deafAccommodations":0,"blindAccommodations":0,"paperworkAssistance":1,"seatingAvailable":1,"sensoryFriendly":1,"walkIn":1},{"name":"walmart on eubank and I40","locationId":145,"city":"Albuquerque","lat":35.07843081,"lng":-106.52987822,"startTime":"09:30:00","endTime":"20:00:00","date":"2021-08-02","address1":"400 Eubank Blvd NE","zip":"87123-27","primaryAppointments":3,"primaryCap":19,"boosterAppointments":15,"boosterCap":19,"brands":[1],"driveThrough":0,"wheelchairAccessible":1,"mobilityHelp":0,"deafAccommodations":0,"blindAccommodations":0,"paperworkAssistance":1,"seatingAvailable":1,"sensoryFriendly":1,"walkIn":1},{"name":"Sam's Club","locationId":146,"city":"Albuquerque","lat":35.13794413,"lng":-106.61424657,"startTime":"10:00:00","endTime":"15:30:00","date":"2021-08-02","address1":"1421 N Renaissance Blvd NE","zip":"87107-70","primaryAppointments":0,"primaryCap":4,"boosterAppointments":6,"boosterCap":7,"brands":[2],"driveThrough":0,"wheelchairAccessible":1,"mobilityHelp":0,"deafAccommodations":0,"blindAccommodations":1,"paperworkAssistance":1,"seatingAvailable":1,"sensoryFriendly":0,"walkIn":1},{"name":"Walmart - Carlisle-850","locationId":148,"city":"Albuquerque","lat":35.1110806,"lng":-106.60858805,"startTime":"09:00:00","endTime":"18:00:00","date":"2021-08-02","address1":"2701 Carlisle Blvd NE","zip":"87110-28","primaryAppointments":6,"primaryCap":16,"boosterAppointments":4,"boosterCap":16,"brands":[2],"driveThrough":0,"wheelchairAccessible":1,"mobilityHelp":0,"deafAccommodations":0,"blindAccommodations":0,"paperworkAssistance":1,"seatingAvailable":1,"sensoryFriendly":1,"walkIn":1},{"name":"Las Cruces Walmart Pharmacy - Walton/Lohman","locationId":149,"city":"Las Cruces","lat":32.31453229,"lng":-106.75064357,"startTime":"08:00:00","endTime":"12:30:00","date":"2021-08-02","address1":"571 Walton Blvd","zip":"88001-84","primaryAppointments":0,"primaryCap":0,"boosterAppointments":9,"boosterCap":20,"brands":[1],"driveThrough":0,"wheelchairAccessible":1,"mobilityHelp":0,"deafAccommodations":1,"blindAccommodations":0,"paperworkAssistance":1,"seatingAvailable":1,"sensoryFriendly":0,"walkIn":0},{"name":"Taos Walmart Pharmacy","locationId":150,"city":"Taos","lat":36.38620309,"lng":-105.58775748,"startTime":"09:30:00","endTime":"20:30:00","date":"2021-08-02","address1":"926 Paseo Del Pueblo Sur","zip":"87571-59","primaryAppointments":3,"primaryCap":20,"boosterAppointments":1,"boosterCap":20,"brands":[2],"driveThrough":0,"wheelchairAccessible":1,"mobilityHelp":0,"deafAccommodations":0,"blindAccommodations":0,"paperworkAssistance":1,"seatingAvailable":1,"sensoryFriendly":0,"walkIn":1},{"name":"Ruidoso Walmart Pharmacy","locationId":151,"city":"Ruidoso Downs","lat":33.32379499,"lng":-105.61472759,"startTime":"09:30:00","endTime":"19:30:00","date":"2021-08-02","address1":"26180 Us Highway 70 E","zip":"88346-91","primaryAppointments":1,"primaryCap":34,"boosterAppointments":0,"boosterCap":0,"brands":[2],"driveThrough":0,"wheelchairAccessible":1,"mobilityHelp":0,"deafAccommodations":1,"blindAccommodations":0,"paperworkAssistance":1,"seatingAvailable":1,"sensoryFriendly":0,"walkIn":1},{"name":"Carlsbad Walmart Pharmacy","locationId":152,"city":"Carlsbad","lat":32.39322719,"lng":-104.22387586,"startTime":"10:00:00","endTime":"18:30:00","date":"2021-08-02","address1":"2401 S Canal St","zip":"88220-65","primaryAppointments":8,"primaryCap":8,"boosterAppointments":2,"boosterCap":2,"brands":[2],"driveThrough":0,"wheelchairAccessible":1,"mobilityHelp":0,"deafAccommodations":1,"blindAccommodations":0,"paperworkAssistance":1,"seatingAvailable":1,"sensoryFriendly":0,"walkIn":1},{"name":"Alamogordo Walmart Supercenter Pharmacy","locationId":153,"city":"Alamogordo","lat":32.88662248,"lng":-105.95782101,"startTime":"09:00:00","endTime":"18:00:00","date":"2021-08-02","address1":"233 S New York Ave","zip":"88310","primaryAppointments":2,"primaryCap":30,"boosterAppointments":0,"boosterCap":8,"brands":[2],"driveThrough":0,"wheelchairAccessible":1,"mobilityHelp":0,"deafAccommodations":1,"blindAccommodations":1,"paperworkAssistance":1,"seatingAvailable":1,"sensoryFriendly":0,"walkIn":1},{"name":"Silver City Walmart Pharmacy","locationId":154,"city":"Silver City","lat":32.7888863,"lng":-108.24813216,"startTime":"08:30:00","endTime":"18:00:00","date":"2021-08-02","address1":"2501 Highway 180 E","zip":"88061","primaryAppointments":4,"primaryCap":23,"boosterAppointments":0,"boosterCap":9,"brands":[2],"driveThrough":0,"wheelchairAccessible":1,"mobilityHelp":0,"deafAccommodations":1,"blindAccommodations":1,"paperworkAssistance":1,"seatingAvailable":1,"sensoryFriendly":0,"walkIn":1},{"name":"Truth or Consequences Walmart Pharmacy","locationId":155,"city":"Truth or Consequences","lat":33.15200396,"lng":-107.25029776,"startTime":"09:30:00","endTime":"19:30:00","date":"2021-08-02","address1":"2001 HR Ashbaugh Dr","zip":"87901-37","primaryAppointments":0,"primaryCap":36,"boosterAppointments":0,"boosterCap":0,"brands":[2],"driveThrough":0,"wheelchairAccessible":1,"mobilityHelp":0,"deafAccommodations":1,"blindAccommodations":1,"paperworkAssistance":1,"seatingAvailable":1,"sensoryFriendly":0,"walkIn":1},{"name":"Las Cruces Walmart Pharmacy S. Valley Dr.","locationId":156,"city":"Las Cruces","lat":32.28808791,"lng":-106.78587356,"startTime":"09:30:00","endTime":"20:00:00","date":"2021-08-02","address1":"1550 S Valley Dr","zip":"88005-31","primaryAppointments":12,"primaryCap":32,"boosterAppointments":1,"boosterCap":28,"brands":[2],"driveThrough":0,"wheelchairAccessible":1,"mobilityHelp":0,"deafAccommodations":1,"blindAccommodations":0,"paperworkAssistance":1,"seatingAvailable":1,"sensoryFriendly":0,"walkIn":1},{"name":"Deming Walmart Pharmacy","locationId":157,"city":"Deming","lat":32.27038078,"lng":-107.74807321,"startTime":"09:30:00","endTime":"18:30:00","date":"2021-08-02","address1":"1021 E Pine St","zip":"88030-70","primaryAppointments":1,"primaryCap":36,"boosterAppointments":0,"boosterCap":0,"brands":[2],"driveThrough":0,"wheelchairAccessible":1,"mobilityHelp":0,"deafAccommodations":1,"blindAccommodations":0,"paperworkAssistance":1,"seatingAvailable":1,"sensoryFriendly":0,"walkIn":1},{"name":"Walmart - Neighborhood Market-Sonoma Ranch","locationId":158,"city":"Las Cruces","lat":32.32727632,"lng":-106.72326175,"startTime":"10:00:00","endTime":"12:00:00","date":"2021-08-02","address1":"150 N Sonoma Ranch Blvd","zip":"88001-16","primaryAppointments":5,"primaryCap":6,"boosterAppointments":4,"boosterCap":4,"brands":[2],"driveThrough":0,"wheelchairAccessible":null,"mobilityHelp":null,"deafAccommodations":null,"blindAccommodations":null,"paperworkAssistance":null,"seatingAvailable":null,"sensoryFriendly":null,"walkIn":1},{"name":"Walmart Neighborhood Market - Alamogordo Indian Wells","locationId":159,"city":"Alamogordo","lat":32.9159433,"lng":-105.931196,"startTime":"10:30:00","endTime":"14:00:00","date":"2021-08-02","address1":"2401 Indian Wells Rd.","zip":"88310-38","primaryAppointments":1,"primaryCap":7,"boosterAppointments":2,"boosterCap":7,"brands":[2],"driveThrough":0,"wheelchairAccessible":null,"mobilityHelp":null,"deafAccommodations":null,"blindAccommodations":null,"paperworkAssistance":null,"seatingAvailable":null,"sensoryFriendly":null,"walkIn":1},{"name":"Walmart Neighborhood Market 5675 Menaul and Juan Tabo","locationId":160,"city":"Albuquerque","lat":35.10877847,"lng":-106.51781654,"startTime":"09:00:00","endTime":"20:00:00","date":"2021-08-02","address1":"11001 Menaul Blvd","zip":"87112","primaryAppointments":2,"primaryCap":60,"boosterAppointments":1,"boosterCap":60,"brands":[2],"driveThrough":0,"wheelchairAccessible":1,"mobilityHelp":1,"deafAccommodations":1,"blindAccommodations":1,"paperworkAssistance":1,"seatingAvailable":1,"sensoryFriendly":0,"walkIn":1},{"name":"Walmart Clovis","locationId":161,"city":"Clovis","lat":34.43711823,"lng":-103.2006662,"startTime":"10:00:00","endTime":"17:30:00","date":"2021-08-02","address1":"3728 N Prince St","zip":"88101-97","primaryAppointments":0,"primaryCap":6,"boosterAppointments":3,"boosterCap":8,"brands":[2],"driveThrough":0,"wheelchairAccessible":1,"mobilityHelp":0,"deafAccommodations":0,"blindAccommodations":0,"paperworkAssistance":1,"seatingAvailable":1,"sensoryFriendly":0,"walkIn":1},{"name":"Walmart - Portales","locationId":162,"city":"Portales","lat":34.19790879,"lng":-103.31932888,"startTime":"09:30:00","endTime":"12:30:00","date":"2021-08-02","address1":"1604 E Spruce St","zip":"88130-94","primaryAppointments":0,"primaryCap":6,"boosterAppointments":1,"boosterCap":6,"brands":[2],"driveThrough":0,"wheelchairAccessible":null,"mobilityHelp":null,"deafAccommodations":null,"blindAccommodations":null,"paperworkAssistance":null,"seatingAvailable":null,"sensoryFriendly":null,"walkIn":1},{"name":"NHM Golf Course Moderna Walkin","locationId":163,"city":"Albuquerque","lat":35.17995036,"lng":-106.69015597,"startTime":"10:00:00","endTime":"13:30:00","date":"2021-08-02","address1":"8511 Golf Course Rd NW","zip":"87114-48","primaryAppointments":2,"primaryCap":7,"boosterAppointments":0,"boosterCap":7,"brands":[2],"driveThrough":0,"wheelchairAccessible":1,"mobilityHelp":1,"deafAccommodations":1,"blindAccommodations":0,"paperworkAssistance":1,"seatingAvailable":1,"sensoryFriendly":1,"walkIn":0},{"name":"Las Vegas Walmart Pharmacy","locationId":165,"city":"Las Vegas","lat":35.62001926,"lng":-105.22765362,"startTime":"10:00:00","endTime":"16:00:00","date":"2021-08-02","address1":"2609 7th St","zip":"87701-48","primaryAppointments":3,"primaryCap":12,"boosterAppointments":1,"boosterCap":12,"brands":[2],"driveThrough":0,"wheelchairAccessible":1,"mobilityHelp":0,"deafAccommodations":0,"blindAccommodations":0,"paperworkAssistance":1,"seatingAvailable":1,"sensoryFriendly":0,"walkIn":1},{"name":"Walmart-Belen-1414","locationId":166,"city":"Belen","lat":34.69695185,"lng":-106.76842281,"startTime":"09:30:00","endTime":"17:00:00","date":"2021-08-02","address1":"1 I 25 Bypass","zip":"87002-81","primaryAppointments":3,"primaryCap":3,"boosterAppointments":5,"boosterCap":7,"brands":[2],"driveThrough":0,"wheelchairAccessible":1,"mobilityHelp":0,"deafAccommodations":0,"blindAccommodations":0,"paperworkAssistance":1,"seatingAvailable":1,"sensoryFriendly":1,"walkIn":1},{"name":"Walmart- Grants","locationId":167,"city":"Grants","lat":35.12417855,"lng":-107.82621389,"startTime":"09:30:00","endTime":"19:00:00","date":"2021-08-02","address1":"1000 Robert Rd","zip":"87020-40","primaryAppointments":0,"primaryCap":15,"boosterAppointments":4,"boosterCap":15,"brands":[2],"driveThrough":0,"wheelchairAccessible":1,"mobilityHelp":0,"deafAccommodations":1,"blindAccommodations":0,"paperworkAssistance":1,"seatingAvailable":1,"sensoryFriendly":1,"walkIn":1},{"name":"Walmart - Coors I-40--2924","locationId":169,"city":"Albuquerque","lat":35.10998404,"lng":-106.7016564,"startTime":"11:00:00","endTime":"13:00:00","date":"2021-08-02","address1":"2550 Coors Blvd NW","zip":"87120","primaryAppointments":2,"primaryCap":4,"boosterAppointments":3,"boosterCap":6,"brands":[2],"driveThrough":0,"wheelchairAccessible":1,"mobilityHelp":0,"deafAccommodations":0,"blindAccommodations":0,"paperworkAssistance":0,"seatingAvailable":1,"sensoryFriendly":0,"walkIn":1},{"name":"Walmart - Santa Fe Herrera 3423","locationId":170,"city":"Santa Fe","lat":35.61961019,"lng":-106.03256585,"startTime":"13:00:00","endTime":"13:30:00","date":"2021-08-02","address1":"5701 Herrera Dr","zip":"87507-26","primaryAppointments":0,"primaryCap":0,"boosterAppointments":1,"boosterCap":2,"brands":[2],"driveThrough":0,"wheelchairAccessible":1,"mobilityHelp":0,"deafAccommodations":1,"blindAccommodations":1,"paperworkAssistance":1,"seatingAvailable":1,"sensoryFriendly":0,"walkIn":1},{"name":"Walmart Pharmacy Los Lunas Moderna Vaccine","locationId":171,"city":"Los Lunas","lat":34.81644691,"lng":-106.76370398,"startTime":"10:00:00","endTime":"17:30:00","date":"2021-08-02","address1":"2250 Main St NW","zip":"87031-48","primaryAppointments":2,"primaryCap":15,"boosterAppointments":0,"boosterCap":0,"brands":[2],"driveThrough":0,"wheelchairAccessible":1,"mobilityHelp":0,"deafAccommodations":0,"blindAccommodations":1,"paperworkAssistance":1,"seatingAvailable":1,"sensoryFriendly":0,"walkIn":1},{"name":"Walmart-Bernalillo 3731","locationId":172,"city":"Bernalillo","lat":35.3194959,"lng":-106.57174681,"startTime":"09:00:00","endTime":"16:00:00","date":"2021-08-02","address1":"460 Highway 528","zip":"87004-66","primaryAppointments":0,"primaryCap":11,"boosterAppointments":5,"boosterCap":11,"brands":[2],"driveThrough":0,"wheelchairAccessible":1,"mobilityHelp":0,"deafAccommodations":1,"blindAccommodations":1,"paperworkAssistance":1,"seatingAvailable":1,"sensoryFriendly":1,"walkIn":1},{"name":"Walmart Neighborhood Market Cutler Store 2451","locationId":173,"city":"Albuquerque","lat":35.10440027,"lng":-106.59275797,"startTime":"09:00:00","endTime":"17:30:00","date":"2021-08-02","address1":"4700 Cutler Ave NE","zip":"87110-40","primaryAppointments":8,"primaryCap":15,"boosterAppointments":2,"boosterCap":15,"brands":[1],"driveThrough":0,"wheelchairAccessible":1,"mobilityHelp":0,"deafAccommodations":0,"blindAccommodations":0,"paperworkAssistance":1,"seatingAvailable":1,"sensoryFriendly":1,"walkIn":1},{"name":"Walmart Neighborhood Market 3385 Sage & 98th","locationId":174,"city":"Albuquerque","lat":35.05426216,"lng":-106.73944857,"startTime":"10:00:00","endTime":"15:00:00","date":"2021-08-02","address1":"9600 Sage Rd SW","zip":"87121-68","primaryAppointments":8,"primaryCap":10,"boosterAppointments":1,"boosterCap":10,"brands":[2],"driveThrough":0,"wheelchairAccessible":1,"mobilityHelp":0,"deafAccommodations":1,"blindAccommodations":1,"paperworkAssistance":0,"seatingAvailable":1,"sensoryFriendly":1,"walkIn":1},{"name":"walmart 3512 montgomery","locationId":176,"city":"Albuquerque","lat":35.12951592,"lng":-106.51774302,"startTime":"09:00:00","endTime":"20:00:00","date":"2021-08-02","address1":"11018 Montgomery Blvd NE","zip":"87111-39","primaryAppointments":1,"primaryCap":30,"boosterAppointments":4,"boosterCap":16,"brands":[1],"driveThrough":0,"wheelchairAccessible":1,"mobilityHelp":0,"deafAccommodations":1,"blindAccommodations":1,"paperworkAssistance":0,"seatingAvailable":1,"sensoryFriendly":1,"walkIn":1},{"name":"Walmart Neighborhood Market 3517 Rio Rancho Hwy 528","locationId":177,"city":"Rio Rancho","lat":35.23902043,"lng":-106.65894473,"startTime":"09:30:00","endTime":"20:00:00","date":"2021-08-02","address1":"1115 NM Hwy 528 SE","zip":"87124-00","primaryAppointments":6,"primaryCap":11,"boosterAppointments":5,"boosterCap":9,"brands":[2],"driveThrough":0,"wheelchairAccessible":1,"mobilityHelp":0,"deafAccommodations":1,"blindAccommodations":1,"paperworkAssistance":0,"seatingAvailable":1,"sensoryFriendly":1,"walkIn":1},{"name":"Walmart Neighborhood Market- Unser/Ladera","locationId":178,"city":"Albuquerque","lat":35.10228264,"lng":-106.72844695,"startTime":"09:30:00","endTime":"18:30:00","date":"2021-08-02","address1":"1820 Unser Blvd NW","zip":"87120-39","primaryAppointments":4,"primaryCap":27,"boosterAppointments":3,"boosterCap":3,"brands":[2],"driveThrough":0,"wheelchairAccessible":1,"mobilityHelp":0,"deafAccommodations":0,"blindAccommodations":0,"paperworkAssistance":0,"seatingAvailable":1,"sensoryFriendly":1,"walkIn":1},{"name":"Walmart - Edgewood-4201","locationId":179,"city":"Edgewood","lat":35.07051708,"lng":-106.18902695,"startTime":"09:00:00","endTime":"15:00:00","date":"2021-08-02","address1":"66 State Road 344","zip":"87015-68","primaryAppointments":1,"primaryCap":6,"boosterAppointments":3,"boosterCap":4,"brands":[2],"driveThrough":0,"wheelchairAccessible":1,"mobilityHelp":0,"deafAccommodations":0,"blindAccommodations":0,"paperworkAssistance":1,"seatingAvailable":1,"sensoryFriendly":0,"walkIn":1},{"name":"Walmart Pharmacy","locationId":180,"city":"Socorro","lat":34.07547937,"lng":-106.89283501,"startTime":"09:30:00","endTime":"12:00:00","date":"2021-08-02","address1":"700 6th St N","zip":"87801-42","primaryAppointments":4,"primaryCap":8,"boosterAppointments":0,"boosterCap":12,"brands":[2],"driveThrough":0,"wheelchairAccessible":1,"mobilityHelp":1,"deafAccommodations":1,"blindAccommodations":0,"paperworkAssistance":1,"seatingAvailable":1,"sensoryFriendly":1,"walkIn":1},{"name":"Walmart - Rio Bravo & Coors- 5430","locationId":181,"city":"Albuquerque","lat":35.02566256,"lng":-106.71093118,"startTime":"09:30:00","endTime":"19:00:00","date":"2021-08-02","address1":"3500 Coors Blvd SW","zip":"87121-52","primaryAppointments":4,"primaryCap":32,"boosterAppointments":13,"boosterCap":16,"brands":[2],"driveThrough":0,"wheelchairAccessible":1,"mobilityHelp":0,"deafAccommodations":1,"blindAccommodations":1,"paperworkAssistance":1,"seatingAvailable":1,"sensoryFriendly":1,"walkIn":1},{"name":"El Centro Family Health - Rio Arriba Health Commons","locationId":185,"city":"Espanola","lat":36.00669009,"lng":-106.10699021,"startTime":"13:00:00","endTime":"14:00:00","date":"2021-08-02","address1":"2010 Industrial Park Road","zip":"87532","primaryAppointments":6,"primaryCap":6,"boosterAppointments":4,"boosterCap":4,"brands":[2],"driveThrough":0,"wheelchairAccessible":1,"mobilityHelp":1,"deafAccommodations":1,"blindAccommodations":1,"paperworkAssistance":1,"seatingAvailable":1,"sensoryFriendly":1,"walkIn":1},{"name":"El Centro Family Health - Taos Clinic","locationId":186,"city":"Taos","lat":36.37220781,"lng":-105.59077082,"startTime":"09:00:00","endTime":"15:30:00","date":"2021-08-02","address1":"1331 Gusdorf Road","zip":"87571","primaryAppointments":4,"primaryCap":4,"boosterAppointments":26,"boosterCap":26,"brands":[2],"driveThrough":0,"wheelchairAccessible":1,"mobilityHelp":1,"deafAccommodations":1,"blindAccommodations":0,"paperworkAssistance":1,"seatingAvailable":1,"sensoryFriendly":1,"walkIn":1},{"name":"Walgrrens 4047","locationId":189,"city":"Albuquerque","lat":35.07943359,"lng":-106.71160109,"startTime":"09:30:00","endTime":"17:30:00","date":"2021-08-02","address1":"101 COORS BLVD NW","zip":"87121","primaryAppointments":5,"primaryCap":14,"boosterAppointments":10,"boosterCap":14,"brands":[1],"driveThrough":0,"wheelchairAccessible":1,"mobilityHelp":1,"deafAccommodations":1,"blindAccommodations":1,"paperworkAssistance":1,"seatingAvailable":1,"sensoryFriendly":0,"walkIn":1},{"name":"Walgreens #3934","locationId":193,"city":"Santa Fe","lat":34.80242656,"lng":-106.72971277,"startTime":"08:00:00","endTime":"17:00:00","date":"2021-08-02","address1":"3298 CERRILLOS RD","zip":"87507-29","primaryAppointments":24,"primaryCap":180,"boosterAppointments":2,"boosterCap":0,"brands":[1],"driveThrough":0,"wheelchairAccessible":1,"mobilityHelp":0,"deafAccommodations":0,"blindAccommodations":0,"paperworkAssistance":0,"seatingAvailable":1,"sensoryFriendly":0,"walkIn":0},{"name":"Walgreens #4510","locationId":195,"city":"FARMINGTON","lat":36.75926662,"lng":-108.15569169,"startTime":"14:30:00","endTime":"15:00:00","date":"2021-08-02","address1":"4221 E MAIN ST","zip":"87402-86","primaryAppointments":5,"primaryCap":5,"boosterAppointments":5,"boosterCap":5,"brands":[2],"driveThrough":0,"wheelchairAccessible":1,"mobilityHelp":0,"deafAccommodations":0,"blindAccommodations":1,"paperworkAssistance":0,"seatingAvailable":1,"sensoryFriendly":1,"walkIn":1},{"name":"Walgreens Pharmacy","locationId":196,"city":"Albuquerque","lat":35.13268152,"lng":-106.58891921,"startTime":"14:00:00","endTime":"14:30:00","date":"2021-08-02","address1":"5001 MONTGOMERY BLVD NE","zip":"87109-13","primaryAppointments":2,"primaryCap":3,"boosterAppointments":0,"boosterCap":3,"brands":[1],"driveThrough":0,"wheelchairAccessible":1,"mobilityHelp":0,"deafAccommodations":0,"blindAccommodations":0,"paperworkAssistance":0,"seatingAvailable":1,"sensoryFriendly":1,"walkIn":0},{"name":"Walgreens ","locationId":197,"city":"Albuquerque","lat":35.17318036,"lng":-106.54308337,"startTime":"10:00:00","endTime":"16:00:00","date":"2021-08-02","address1":"8011 VENTURA ST NE","zip":"87109-64","primaryAppointments":3,"primaryCap":9,"boosterAppointments":3,"boosterCap":9,"brands":[1],"driveThrough":0,"wheelchairAccessible":1,"mobilityHelp":0,"deafAccommodations":0,"blindAccommodations":0,"paperworkAssistance":1,"seatingAvailable":1,"sensoryFriendly":1,"walkIn":0},{"name":"Albertson's - HOBBS","locationId":236,"city":"HOBBS","lat":32.72689521,"lng":-103.14410582,"startTime":"11:00:00","endTime":"13:30:00","date":"2021-08-02","address1":"2402 N. GRIMES","zip":"88220","primaryAppointments":2,"primaryCap":6,"boosterAppointments":4,"boosterCap":4,"brands":[2],"driveThrough":0,"wheelchairAccessible":null,"mobilityHelp":null,"deafAccommodations":null,"blindAccommodations":null,"paperworkAssistance":null,"seatingAvailable":null,"sensoryFriendly":null,"walkIn":1},{"name":"Albertson's - ABQ Montgomery","locationId":242,"city":"Albuquerque","lat":35.12904195,"lng":-106.58876811,"startTime":"14:30:00","endTime":"17:00:00","date":"2021-08-02","address1":"4950 MONTGOMERY BLVD NE","zip":"87109","primaryAppointments":4,"primaryCap":4,"boosterAppointments":1,"boosterCap":1,"brands":[1],"driveThrough":0,"wheelchairAccessible":1,"mobilityHelp":0,"deafAccommodations":1,"blindAccommodations":1,"paperworkAssistance":1,"seatingAvailable":1,"sensoryFriendly":0,"walkIn":1},{"name":"Albertsons Eubank","locationId":244,"city":"Albuquerque","lat":35.1145186,"lng":-106.53523916,"startTime":"11:30:00","endTime":"17:00:00","date":"2021-08-02","address1":"2801 EUBANK BLVD NE STE A","zip":"87112","primaryAppointments":10,"primaryCap":10,"boosterAppointments":0,"boosterCap":0,"brands":[2],"driveThrough":0,"wheelchairAccessible":1,"mobilityHelp":0,"deafAccommodations":0,"blindAccommodations":1,"paperworkAssistance":0,"seatingAvailable":1,"sensoryFriendly":0,"walkIn":0},{"name":"Albertsons on Rio Bravo & Isleta","locationId":246,"city":"Albuquerque","lat":35.02797451,"lng":-106.68255503,"startTime":"11:00:00","endTime":"14:00:00","date":"2021-08-02","address1":"1625 RIO BRAVO BLVD SW","zip":"87105","primaryAppointments":9,"primaryCap":30,"boosterAppointments":8,"boosterCap":30,"brands":[2],"driveThrough":0,"wheelchairAccessible":1,"mobilityHelp":1,"deafAccommodations":1,"blindAccommodations":1,"paperworkAssistance":1,"seatingAvailable":1,"sensoryFriendly":1,"walkIn":1},{"name":"Albertsons Los Lunas","locationId":247,"city":"LOS LUNAS","lat":34.80334699,"lng":-106.70457543,"startTime":"10:30:00","endTime":"13:30:00","date":"2021-08-02","address1":"2351 MAIN STREET SE","zip":"87031","primaryAppointments":0,"primaryCap":0,"boosterAppointments":3,"boosterCap":12,"brands":[1],"driveThrough":0,"wheelchairAccessible":1,"mobilityHelp":0,"deafAccommodations":0,"blindAccommodations":0,"paperworkAssistance":1,"seatingAvailable":1,"sensoryFriendly":1,"walkIn":1},{"name":"Albertson's - TAOS","locationId":248,"city":"Taos","lat":36.39167359,"lng":-105.58310168,"startTime":"10:00:00","endTime":"14:00:00","date":"2021-08-02","address1":"710 PASEO DEL PUEBLO SUR STE A","zip":"87571","primaryAppointments":11,"primaryCap":15,"boosterAppointments":0,"boosterCap":0,"brands":[3],"driveThrough":0,"wheelchairAccessible":1,"mobilityHelp":1,"deafAccommodations":1,"blindAccommodations":0,"paperworkAssistance":1,"seatingAvailable":1,"sensoryFriendly":1,"walkIn":1},{"name":"Albertson's - RIO RANCHO Enchanted Hills","locationId":249,"city":"RIO RANCHO","lat":35.32304677,"lng":-106.57716273,"startTime":"10:00:00","endTime":"13:30:00","date":"2021-08-02","address1":"7800 ENCHANTED HILLS BLVD NE","zip":"87144","primaryAppointments":6,"primaryCap":6,"boosterAppointments":6,"boosterCap":6,"brands":[1],"driveThrough":0,"wheelchairAccessible":1,"mobilityHelp":0,"deafAccommodations":1,"blindAccommodations":1,"paperworkAssistance":1,"seatingAvailable":1,"sensoryFriendly":1,"walkIn":0},{"name":"Albertsons Pharmacy Ventura","locationId":250,"city":"Albuquerque","lat":35.17507376,"lng":-106.54095736,"startTime":"10:00:00","endTime":"15:30:00","date":"2021-08-02","address1":"8100 VENTURA ST NE","zip":"87122","primaryAppointments":4,"primaryCap":4,"boosterAppointments":3,"boosterCap":2,"brands":[1],"driveThrough":0,"wheelchairAccessible":1,"mobilityHelp":0,"deafAccommodations":0,"blindAccommodations":0,"paperworkAssistance":0,"seatingAvailable":1,"sensoryFriendly":0,"walkIn":1},{"name":"MarketStreet Pharmacy #927","locationId":251,"city":"Santa Fe","lat":35.6930939,"lng":-105.95171933,"startTime":"10:30:00","endTime":"13:00:00","date":"2021-08-02","address1":"600 N GUADALUPE ST","zip":"87501","primaryAppointments":5,"primaryCap":12,"boosterAppointments":4,"boosterCap":12,"brands":[1],"driveThrough":0,"wheelchairAccessible":1,"mobilityHelp":0,"deafAccommodations":0,"blindAccommodations":0,"paperworkAssistance":0,"seatingAvailable":1,"sensoryFriendly":0,"walkIn":1},{"name":"Albertson's on Lomas","locationId":252,"city":"Albuquerque","lat":35.08792444,"lng":-106.51601807,"startTime":"10:00:00","endTime":"17:00:00","date":"2021-08-02","address1":"11825 LOMAS BLVD NE","zip":"87122","primaryAppointments":21,"primaryCap":44,"boosterAppointments":6,"boosterCap":16,"brands":[1],"driveThrough":0,"wheelchairAccessible":1,"mobilityHelp":1,"deafAccommodations":1,"blindAccommodations":1,"paperworkAssistance":1,"seatingAvailable":1,"sensoryFriendly":0,"walkIn":1},{"name":"Albertson's - ABQ 10131 COORS ","locationId":253,"city":"Albuquerque","lat":35.19938695,"lng":-106.65168169,"startTime":"12:00:00","endTime":"18:00:00","date":"2021-08-02","address1":"10131 COORS BLVD NW","zip":"87114","primaryAppointments":0,"primaryCap":0,"boosterAppointments":12,"boosterCap":12,"brands":[1],"driveThrough":0,"wheelchairAccessible":1,"mobilityHelp":0,"deafAccommodations":1,"blindAccommodations":1,"paperworkAssistance":1,"seatingAvailable":1,"sensoryFriendly":1,"walkIn":1},{"name":"Albertson's - ABQ WYOMING","locationId":254,"city":"Albuquerque","lat":35.15999804,"lng":-106.56136197,"startTime":"10:00:00","endTime":"13:30:00","date":"2021-08-02","address1":"7101 WYOMING BLVD NE","zip":"87109","primaryAppointments":4,"primaryCap":4,"boosterAppointments":3,"boosterCap":8,"brands":[1],"driveThrough":0,"wheelchairAccessible":1,"mobilityHelp":1,"deafAccommodations":0,"blindAccommodations":0,"paperworkAssistance":1,"seatingAvailable":1,"sensoryFriendly":1,"walkIn":1},{"name":"Albertson's - SANTA FE ZAFARANO DR","locationId":256,"city":"Santa Fe","lat":35.64018594,"lng":-106.01374392,"startTime":"13:00:00","endTime":"16:00:00","date":"2021-08-02","address1":"3542 ZAFARANO DR","zip":"87507","primaryAppointments":19,"primaryCap":20,"boosterAppointments":7,"boosterCap":22,"brands":[2],"driveThrough":0,"wheelchairAccessible":1,"mobilityHelp":0,"deafAccommodations":1,"blindAccommodations":1,"paperworkAssistance":1,"seatingAvailable":1,"sensoryFriendly":1,"walkIn":1},{"name":"El Centro Family Health - Las Vegas","locationId":274,"city":"Las Vegas","lat":35.60150832,"lng":-105.22352676,"startTime":"09:00:00","endTime":"16:00:00","date":"2021-08-02","address1":"1235 8th Street","zip":"87701","primaryAppointments":5,"primaryCap":12,"boosterAppointments":5,"boosterCap":12,"brands":[1],"driveThrough":1,"wheelchairAccessible":1,"mobilityHelp":1,"deafAccommodations":1,"blindAccommodations":1,"paperworkAssistance":1,"seatingAvailable":1,"sensoryFriendly":1,"walkIn":1},{"name":"NMDOH Midtown Public Health Office","locationId":287,"city":"Albuquerque","lat":35.10739435,"lng":-106.60749648,"startTime":"09:00:00","endTime":"09:30:00","date":"2021-08-02","address1":"2400 Wellesley Dr NE 87107","zip":"87107","primaryAppointments":2,"primaryCap":2,"boosterAppointments":0,"boosterCap":2,"brands":[3],"driveThrough":0,"wheelchairAccessible":1,"mobilityHelp":0,"deafAccommodations":0,"blindAccommodations":0,"paperworkAssistance":0,"seatingAvailable":0,"sensoryFriendly":0,"walkIn":1},{"name":"Sam's Club","locationId":291,"city":"Albuquerque","lat":35.20942482,"lng":-106.65847003,"startTime":"10:00:00","endTime":"16:00:00","date":"2021-08-02","address1":"10600 Coors Bypass NW","zip":"87114","primaryAppointments":0,"primaryCap":12,"boosterAppointments":4,"boosterCap":12,"brands":[2],"driveThrough":0,"wheelchairAccessible":1,"mobilityHelp":1,"deafAccommodations":1,"blindAccommodations":1,"paperworkAssistance":1,"seatingAvailable":1,"sensoryFriendly":1,"walkIn":1},{"name":"Sam's Club - Farmington","locationId":292,"city":"Farmington","lat":36.7660891,"lng":-108.15399606,"startTime":"09:30:00","endTime":"17:00:00","date":"2021-08-02","address1":"4500 E Main St","zip":"87402","primaryAppointments":5,"primaryCap":26,"boosterAppointments":0,"boosterCap":0,"brands":[3],"driveThrough":0,"wheelchairAccessible":1,"mobilityHelp":1,"deafAccommodations":1,"blindAccommodations":1,"paperworkAssistance":1,"seatingAvailable":1,"sensoryFriendly":1,"walkIn":1},{"name":"Roden Smith Pharmacy","locationId":312,"city":"Clovis","lat":34.43330721,"lng":-103.20588339,"startTime":"10:00:00","endTime":"17:00:00","date":"2021-08-02","address1":"305 E. Llano Estacado","zip":"88101","primaryAppointments":14,"primaryCap":42,"boosterAppointments":12,"boosterCap":42,"brands":[2],"driveThrough":0,"wheelchairAccessible":1,"mobilityHelp":0,"deafAccommodations":1,"blindAccommodations":0,"paperworkAssistance":1,"seatingAvailable":1,"sensoryFriendly":1,"walkIn":1},{"name":"Duran Central Pharmacy","locationId":317,"city":"Albuquerque","lat":35.09241873,"lng":-106.66727573,"startTime":"08:30:00","endTime":"09:00:00","date":"2021-08-02","address1":"1815 Central Ave NW","zip":"87104","primaryAppointments":1,"primaryCap":7,"boosterAppointments":0,"boosterCap":3,"brands":[2],"driveThrough":0,"wheelchairAccessible":1,"mobilityHelp":0,"deafAccommodations":1,"blindAccommodations":0,"paperworkAssistance":1,"seatingAvailable":1,"sensoryFriendly":1,"walkIn":1},{"name":"Walgreens #1279 ( Central and Girard)","locationId":357,"city":"Albuquerque","lat":35.07967923,"lng":-106.61302426,"startTime":"10:00:00","endTime":"16:00:00","date":"2021-08-02","address1":"2950 CENTRAL AVE SE","zip":"87106-22","primaryAppointments":7,"primaryCap":18,"boosterAppointments":0,"boosterCap":0,"brands":[1],"driveThrough":0,"wheelchairAccessible":1,"mobilityHelp":1,"deafAccommodations":1,"blindAccommodations":1,"paperworkAssistance":1,"seatingAvailable":1,"sensoryFriendly":1,"walkIn":0},{"name":"Walgreens Las Vegas ","locationId":362,"city":"LAS VEGAS","lat":35.60592707,"lng":-105.22312076,"startTime":"10:00:00","endTime":"12:00:00","date":"2021-08-02","address1":"620 MILLS AVE","zip":"87701-46","primaryAppointments":12,"primaryCap":12,"boosterAppointments":0,"boosterCap":12,"brands":[1],"driveThrough":0,"wheelchairAccessible":1,"mobilityHelp":1,"deafAccommodations":0,"blindAccommodations":0,"paperworkAssistance":1,"seatingAvailable":1,"sensoryFriendly":1,"walkIn":1},{"name":"Walgreens #2900","locationId":363,"city":"Santa Fe","lat":35.67513915,"lng":-105.95435362,"startTime":"10:00:00","endTime":"16:00:00","date":"2021-08-02","address1":"1096 S SAINT FRANCIS DR","zip":"87505-16","primaryAppointments":5,"primaryCap":18,"boosterAppointments":0,"boosterCap":0,"brands":[1],"driveThrough":0,"wheelchairAccessible":1,"mobilityHelp":0,"deafAccommodations":1,"blindAccommodations":1,"paperworkAssistance":0,"seatingAvailable":1,"sensoryFriendly":1,"walkIn":0},{"name":"Walgreens #5731 @ GOLF COURSE & PARADISE","locationId":365,"city":"Albuquerque","lat":35.18767471,"lng":-106.68489677,"startTime":"10:00:00","endTime":"17:00:00","date":"2021-08-02","address1":"9500 GOLF COURSE RD NW","zip":"87114-42","primaryAppointments":9,"primaryCap":9,"boosterAppointments":8,"boosterCap":9,"brands":[1],"driveThrough":0,"wheelchairAccessible":1,"mobilityHelp":0,"deafAccommodations":0,"blindAccommodations":0,"paperworkAssistance":0,"seatingAvailable":1,"sensoryFriendly":0,"walkIn":0},{"name":"Walgreens","locationId":368,"city":"LAS CRUCES","lat":32.31142641,"lng":-106.75259762,"startTime":"09:30:00","endTime":"17:00:00","date":"2021-08-02","address1":"2300 E LOHMAN AVE","zip":"88001-84","primaryAppointments":8,"primaryCap":10,"boosterAppointments":0,"boosterCap":0,"brands":[3],"driveThrough":0,"wheelchairAccessible":1,"mobilityHelp":0,"deafAccommodations":0,"blindAccommodations":0,"paperworkAssistance":0,"seatingAvailable":1,"sensoryFriendly":1,"walkIn":1},{"name":"Walgreens","locationId":373,"city":"LAS CRUCES","lat":32.29737939,"lng":-106.7729105,"startTime":"10:00:00","endTime":"13:30:00","date":"2021-08-02","address1":"1256 EL PASEO RD","zip":"88001-60","primaryAppointments":8,"primaryCap":8,"boosterAppointments":1,"boosterCap":8,"brands":[2],"driveThrough":0,"wheelchairAccessible":1,"mobilityHelp":1,"deafAccommodations":1,"blindAccommodations":1,"paperworkAssistance":1,"seatingAvailable":1,"sensoryFriendly":1,"walkIn":1},{"name":"Walgreens","locationId":376,"city":"Albuquerque","lat":35.10821758,"lng":-106.53322387,"startTime":"12:00:00","endTime":"15:00:00","date":"2021-08-02","address1":"9700 MENAUL BLVD NE","zip":"87112-23","primaryAppointments":0,"primaryCap":6,"boosterAppointments":0,"boosterCap":6,"brands":[1],"driveThrough":0,"wheelchairAccessible":1,"mobilityHelp":1,"deafAccommodations":1,"blindAccommodations":1,"paperworkAssistance":1,"seatingAvailable":1,"sensoryFriendly":1,"walkIn":1},{"name":"Walgreens Harper and Wyoming","locationId":378,"city":"Albuquerque","lat":35.15920189,"lng":-106.55912554,"startTime":"14:30:00","endTime":"17:00:00","date":"2021-08-02","address1":"8011 HARPER DR NE","zip":"87111-10","primaryAppointments":2,"primaryCap":6,"boosterAppointments":0,"boosterCap":0,"brands":[1],"driveThrough":0,"wheelchairAccessible":1,"mobilityHelp":0,"deafAccommodations":1,"blindAccommodations":1,"paperworkAssistance":1,"seatingAvailable":0,"sensoryFriendly":0,"walkIn":0},{"name":"Walgreens North","locationId":381,"city":"ROSWELL","lat":33.41501086,"lng":-104.52228783,"startTime":"09:00:00","endTime":"17:00:00","date":"2021-08-02","address1":"1835 N MAIN ST","zip":"88201-51","primaryAppointments":2,"primaryCap":32,"boosterAppointments":16,"boosterCap":32,"brands":[2],"driveThrough":0,"wheelchairAccessible":1,"mobilityHelp":1,"deafAccommodations":1,"blindAccommodations":1,"paperworkAssistance":1,"seatingAvailable":1,"sensoryFriendly":1,"walkIn":1},{"name":"Walgreens Coors and Montano ","locationId":397,"city":"Albuquerque","lat":35.14962544,"lng":-106.68551251,"startTime":"09:00:00","endTime":"12:00:00","date":"2021-08-02","address1":"6000 COORS BLVD NW","zip":"87120-27","primaryAppointments":6,"primaryCap":6,"boosterAppointments":0,"boosterCap":0,"brands":[1],"driveThrough":0,"wheelchairAccessible":1,"mobilityHelp":1,"deafAccommodations":1,"blindAccommodations":1,"paperworkAssistance":1,"seatingAvailable":1,"sensoryFriendly":1,"walkIn":1},{"name":"Walgreens (San Pedro and Menaul)","locationId":399,"city":"Albuquerque","lat":35.11044979,"lng":-106.57859873,"startTime":"10:00:00","endTime":"11:30:00","date":"2021-08-02","address1":"2625 SAN PEDRO DR NE","zip":"87110-33","primaryAppointments":6,"primaryCap":6,"boosterAppointments":0,"boosterCap":0,"brands":[1],"driveThrough":0,"wheelchairAccessible":1,"mobilityHelp":1,"deafAccommodations":0,"blindAccommodations":0,"paperworkAssistance":1,"seatingAvailable":1,"sensoryFriendly":0,"walkIn":0},{"name":"Walgreens #7442","locationId":401,"city":"Albuquerque","lat":35.05366524,"lng":-106.72309711,"startTime":"10:00:00","endTime":"12:30:00","date":"2021-08-02","address1":"1201 UNSER BLVD SW","zip":"87121-78","primaryAppointments":8,"primaryCap":10,"boosterAppointments":0,"boosterCap":0,"brands":[3],"driveThrough":0,"wheelchairAccessible":1,"mobilityHelp":0,"deafAccommodations":0,"blindAccommodations":0,"paperworkAssistance":1,"seatingAvailable":1,"sensoryFriendly":1,"walkIn":1},{"name":"Walgreens ","locationId":402,"city":"Albuquerque","lat":35.1531968,"lng":-106.63947327,"startTime":"16:00:00","endTime":"17:30:00","date":"2021-08-02","address1":"6605 4TH ST NW","zip":"87107","primaryAppointments":0,"primaryCap":0,"boosterAppointments":1,"boosterCap":6,"brands":[1],"driveThrough":0,"wheelchairAccessible":1,"mobilityHelp":0,"deafAccommodations":0,"blindAccommodations":1,"paperworkAssistance":1,"seatingAvailable":1,"sensoryFriendly":1,"walkIn":0},{"name":"walgreens","locationId":407,"city":"Albuquerque","lat":35.10809482,"lng":-106.60325591,"startTime":"15:30:00","endTime":"16:00:00","date":"2021-08-02","address1":"3632 MENAUL BLVD NE","zip":"87110-28","primaryAppointments":0,"primaryCap":0,"boosterAppointments":4,"boosterCap":5,"brands":[1],"driveThrough":0,"wheelchairAccessible":1,"mobilityHelp":0,"deafAccommodations":1,"blindAccommodations":1,"paperworkAssistance":1,"seatingAvailable":1,"sensoryFriendly":1,"walkIn":1},{"name":"Walgreens 4th and Griegos","locationId":409,"city":"Albuquerque","lat":35.12991653,"lng":-106.64227552,"startTime":"11:00:00","endTime":"17:00:00","date":"2021-08-02","address1":"4700 4TH ST NW","zip":"87107-39","primaryAppointments":5,"primaryCap":22,"boosterAppointments":0,"boosterCap":0,"brands":[1],"driveThrough":0,"wheelchairAccessible":1,"mobilityHelp":1,"deafAccommodations":1,"blindAccommodations":1,"paperworkAssistance":1,"seatingAvailable":1,"sensoryFriendly":1,"walkIn":1},{"name":"Walgreens #9213 at Wyoming and Indian School","locationId":413,"city":"Albuquerque","lat":35.10214394,"lng":-106.55065116,"startTime":"10:00:00","endTime":"15:30:00","date":"2021-08-02","address1":"1900 WYOMING BLVD NE","zip":"87112-28","primaryAppointments":1,"primaryCap":1,"boosterAppointments":7,"boosterCap":9,"brands":[2],"driveThrough":0,"wheelchairAccessible":1,"mobilityHelp":0,"deafAccommodations":0,"blindAccommodations":0,"paperworkAssistance":1,"seatingAvailable":1,"sensoryFriendly":1,"walkIn":1},{"name":"Walgreens #12407","locationId":415,"city":"Albuquerque","lat":35.21303541,"lng":-106.69806297,"startTime":"11:00:00","endTime":"16:30:00","date":"2021-08-02","address1":"10800 UNSER BLVD NW","zip":"87114-10","primaryAppointments":0,"primaryCap":8,"boosterAppointments":0,"boosterCap":8,"brands":[1],"driveThrough":0,"wheelchairAccessible":1,"mobilityHelp":0,"deafAccommodations":0,"blindAccommodations":1,"paperworkAssistance":0,"seatingAvailable":1,"sensoryFriendly":1,"walkIn":0},{"name":"BCA Medical Associates - Artesia","locationId":443,"city":"Artesia","lat":32.84796422,"lng":-104.39917361,"startTime":"11:00:00","endTime":"11:30:00","date":"2021-08-02","address1":"608 N. 1st Street","zip":"88210","primaryAppointments":3,"primaryCap":3,"boosterAppointments":3,"boosterCap":3,"brands":[1],"driveThrough":0,"wheelchairAccessible":1,"mobilityHelp":0,"deafAccommodations":0,"blindAccommodations":0,"paperworkAssistance":1,"seatingAvailable":1,"sensoryFriendly":1,"walkIn":1},{"name":"NMSU Aggie Health and Wellness Center","locationId":502,"city":"Las Cruces","lat":32.28062919,"lng":-106.75023382,"startTime":"13:30:00","endTime":"16:00:00","date":"2021-08-02","address1":"3080 Breland Dr","zip":"88003-80","primaryAppointments":2,"primaryCap":15,"boosterAppointments":0,"boosterCap":0,"brands":[3],"driveThrough":0,"wheelchairAccessible":1,"mobilityHelp":0,"deafAccommodations":1,"blindAccommodations":0,"paperworkAssistance":1,"seatingAvailable":1,"sensoryFriendly":0,"walkIn":0},{"name":"ACUTE CARE HOUSE CALLS LLC","locationId":522,"city":"Los Lunas","lat":34.81114218,"lng":-106.76663162,"startTime":"07:30:00","endTime":"15:30:00","date":"2021-08-02","address1":"2210 Sun Ranch Village Loop","zip":"87031","primaryAppointments":4,"primaryCap":92,"boosterAppointments":0,"boosterCap":77,"brands":[2],"driveThrough":1,"wheelchairAccessible":1,"mobilityHelp":1,"deafAccommodations":1,"blindAccommodations":1,"paperworkAssistance":1,"seatingAvailable":1,"sensoryFriendly":1,"walkIn":1},{"name":"pinon family pharmacy","locationId":565,"city":"Farmington","lat":36.75712234,"lng":-108.17683652,"startTime":"10:00:00","endTime":"14:30:00","date":"2021-08-02","address1":"2300 B East 30th Suite 101","zip":"87401","primaryAppointments":2,"primaryCap":9,"boosterAppointments":0,"boosterCap":18,"brands":[2],"driveThrough":0,"wheelchairAccessible":1,"mobilityHelp":1,"deafAccommodations":1,"blindAccommodations":1,"paperworkAssistance":1,"seatingAvailable":1,"sensoryFriendly":1,"walkIn":1},{"name":"Sierra Blanca Pharmacy","locationId":595,"city":"Ruidoso","lat":33.36838384,"lng":-105.66813088,"startTime":"09:00:00","endTime":"16:00:00","date":"2021-08-02","address1":"1206 Mechem Dr.","zip":"88345","primaryAppointments":14,"primaryCap":30,"boosterAppointments":4,"boosterCap":30,"brands":[2],"driveThrough":1,"wheelchairAccessible":1,"mobilityHelp":1,"deafAccommodations":0,"blindAccommodations":0,"paperworkAssistance":1,"seatingAvailable":1,"sensoryFriendly":1,"walkIn":1},{"name":"United Drug Superstore","locationId":635,"city":"Hatch","lat":32.66438228,"lng":-107.15480455,"startTime":"09:00:00","endTime":"16:30:00","date":"2021-08-02","address1":"221 W. Hall Street","zip":"87937","primaryAppointments":2,"primaryCap":23,"boosterAppointments":2,"boosterCap":27,"brands":[2],"driveThrough":1,"wheelchairAccessible":1,"mobilityHelp":1,"deafAccommodations":1,"blindAccommodations":1,"paperworkAssistance":1,"seatingAvailable":1,"sensoryFriendly":1,"walkIn":1},{"name":"DACC East Mesa","locationId":728,"city":"Las Cruces","lat":32.35293749,"lng":-106.73787073,"startTime":"15:30:00","endTime":"18:00:00","date":"2021-08-02","address1":"2800 N Sonoma Ranch Blvd","zip":" 88011 ","primaryAppointments":32,"primaryCap":100,"boosterAppointments":18,"boosterCap":100,"brands":[1],"driveThrough":0,"wheelchairAccessible":1,"mobilityHelp":1,"deafAccommodations":1,"blindAccommodations":1,"paperworkAssistance":1,"seatingAvailable":1,"sensoryFriendly":1,"walkIn":1},{"name":"El Centro Family Health","locationId":744,"city":"Springer","lat":36.36069165,"lng":-104.59739033,"startTime":"10:00:00","endTime":"10:30:00","date":"2021-08-02","address1":"502 4th St","zip":"87747","primaryAppointments":3,"primaryCap":5,"boosterAppointments":0,"boosterCap":5,"brands":[1],"driveThrough":0,"wheelchairAccessible":1,"mobilityHelp":1,"deafAccommodations":1,"blindAccommodations":1,"paperworkAssistance":1,"seatingAvailable":1,"sensoryFriendly":1,"walkIn":1},{"name":"Pharmaca Integrative Pharmacy","locationId":764,"city":"Santa Fe","lat":35.67293583,"lng":-105.95353254,"startTime":"09:00:00","endTime":"17:30:00","date":"2021-08-02","address1":"530 W CORDOVA RD STE B","zip":"87505","primaryAppointments":3,"primaryCap":17,"boosterAppointments":4,"boosterCap":17,"brands":[2],"driveThrough":0,"wheelchairAccessible":1,"mobilityHelp":0,"deafAccommodations":0,"blindAccommodations":0,"paperworkAssistance":0,"seatingAvailable":1,"sensoryFriendly":1,"walkIn":1},{"name":"Highland Pharmacy","locationId":765,"city":"ALBUQUERQUE","lat":35.088672,"lng":-106.6319821,"startTime":"09:30:00","endTime":"10:00:00","date":"2021-08-02","address1":"717 ENCINO PLACE NE STE 1","zip":"87102","primaryAppointments":2,"primaryCap":6,"boosterAppointments":2,"boosterCap":5,"brands":[2],"driveThrough":0,"wheelchairAccessible":null,"mobilityHelp":null,"deafAccommodations":null,"blindAccommodations":null,"paperworkAssistance":null,"seatingAvailable":null,"sensoryFriendly":null,"walkIn":0},{"name":"Phil's Pharmacy","locationId":766,"city":"Albuquerque","lat":35.08688337,"lng":-106.58449321,"startTime":"08:30:00","endTime":"15:00:00","date":"2021-08-02","address1":"5510 LOMAS BLVD NE","zip":"87110","primaryAppointments":1,"primaryCap":11,"boosterAppointments":0,"boosterCap":0,"brands":[2],"driveThrough":0,"wheelchairAccessible":1,"mobilityHelp":1,"deafAccommodations":0,"blindAccommodations":1,"paperworkAssistance":1,"seatingAvailable":1,"sensoryFriendly":1,"walkIn":1},{"name":"John's Pharmacy","locationId":797,"city":"Albuquerque","lat":35.07283046,"lng":-106.54648146,"startTime":"10:00:00","endTime":"17:00:00","date":"2021-08-02","address1":"9134 CENTRAL AVE SE","zip":"87123","primaryAppointments":4,"primaryCap":70,"boosterAppointments":3,"boosterCap":70,"brands":[2],"driveThrough":0,"wheelchairAccessible":1,"mobilityHelp":1,"deafAccommodations":1,"blindAccommodations":0,"paperworkAssistance":1,"seatingAvailable":1,"sensoryFriendly":1,"walkIn":1},{"name":"Pfizer Walk-in","locationId":806,"city":"Albuquerque","lat":35.17989636,"lng":-106.69024829,"startTime":"09:00:00","endTime":"20:30:00","date":"2021-08-02","address1":"8511 Golf Course Rd NW","zip":"87114","primaryAppointments":10,"primaryCap":15,"boosterAppointments":9,"boosterCap":15,"brands":[1],"driveThrough":0,"wheelchairAccessible":1,"mobilityHelp":1,"deafAccommodations":0,"blindAccommodations":0,"paperworkAssistance":1,"seatingAvailable":1,"sensoryFriendly":0,"walkIn":1},{"name":"Ribera Healthcare","locationId":852,"city":"Albuquerque","lat":35.15583147,"lng":-106.68159623,"startTime":"09:00:00","endTime":"15:30:00","date":"2021-08-02","address1":"6271 Riverside Plaza Ln. NW, Suite D112B","zip":"87120","primaryAppointments":6,"primaryCap":100,"boosterAppointments":37,"boosterCap":100,"brands":[1],"driveThrough":0,"wheelchairAccessible":1,"mobilityHelp":1,"deafAccommodations":0,"blindAccommodations":0,"paperworkAssistance":1,"seatingAvailable":1,"sensoryFriendly":1,"walkIn":1},{"name":"Safeway Pharmacy-Gallup","locationId":864,"city":"Gallup","lat":35.53473937,"lng":-108.75682044,"startTime":"10:00:00","endTime":"19:00:00","date":"2021-08-02","address1":"980 N US HWY 491","zip":"87301","primaryAppointments":1,"primaryCap":72,"boosterAppointments":4,"boosterCap":72,"brands":[1],"driveThrough":0,"wheelchairAccessible":1,"mobilityHelp":0,"deafAccommodations":0,"blindAccommodations":0,"paperworkAssistance":1,"seatingAvailable":1,"sensoryFriendly":1,"walkIn":1},{"name":"Albertsons","locationId":866,"city":"Silver City","lat":32.78651546,"lng":-108.25477321,"startTime":"10:00:00","endTime":"17:00:00","date":"2021-08-02","address1":"1956 Highway 180 East","zip":"88061","primaryAppointments":0,"primaryCap":0,"boosterAppointments":0,"boosterCap":24,"brands":[1],"driveThrough":0,"wheelchairAccessible":1,"mobilityHelp":1,"deafAccommodations":0,"blindAccommodations":0,"paperworkAssistance":1,"seatingAvailable":1,"sensoryFriendly":1,"walkIn":1},{"name":"Costco Pharmacy #116","locationId":874,"city":"Albuquerque","lat":35.13559248,"lng":-106.61392212,"startTime":"10:30:00","endTime":"14:30:00","date":"2021-08-02","address1":"1420 Renaissance Blvd","zip":"87107","primaryAppointments":9,"primaryCap":24,"boosterAppointments":3,"boosterCap":4,"brands":[1],"driveThrough":0,"wheelchairAccessible":1,"mobilityHelp":0,"deafAccommodations":1,"blindAccommodations":1,"paperworkAssistance":1,"seatingAvailable":1,"sensoryFriendly":1,"walkIn":1},{"name":"costco west side ","locationId":875,"city":"Albuquerque","lat":35.19454649,"lng":-106.66175417,"startTime":"10:00:00","endTime":"15:00:00","date":"2021-08-02","address1":"9955 Coors Bypass NW","zip":"87114","primaryAppointments":17,"primaryCap":32,"boosterAppointments":15,"boosterCap":32,"brands":[2],"driveThrough":0,"wheelchairAccessible":1,"mobilityHelp":0,"deafAccommodations":1,"blindAccommodations":1,"paperworkAssistance":1,"seatingAvailable":1,"sensoryFriendly":0,"walkIn":1},{"name":"Smith's Food & Drug","locationId":878,"city":"RIO RANCHO","lat":35.26509837,"lng":-106.62845855,"startTime":"11:00:00","endTime":"16:30:00","date":"2021-08-02","address1":"1000 RIO RANCHO DR","zip":"87124","primaryAppointments":0,"primaryCap":10,"boosterAppointments":0,"boosterCap":0,"brands":[2],"driveThrough":0,"wheelchairAccessible":1,"mobilityHelp":0,"deafAccommodations":0,"blindAccommodations":0,"paperworkAssistance":0,"seatingAvailable":1,"sensoryFriendly":0,"walkIn":0},{"name":"SMITHS PHARMACY #414 (Main St. Los Lunas, NM)","locationId":879,"city":"LOS LUNAS","lat":34.8082849,"lng":-106.70336231,"startTime":"10:30:00","endTime":"11:00:00","date":"2021-08-02","address1":"2580 MAIN STREET","zip":"87031","primaryAppointments":0,"primaryCap":0,"boosterAppointments":7,"boosterCap":10,"brands":[2],"driveThrough":0,"wheelchairAccessible":1,"mobilityHelp":1,"deafAccommodations":0,"blindAccommodations":0,"paperworkAssistance":1,"seatingAvailable":1,"sensoryFriendly":1,"walkIn":1},{"name":"SMITHS PHARMACY #424 (NM-344, Edgewood, NM)","locationId":881,"city":"EDGEWOOD","lat":35.06082657,"lng":-106.19059088,"startTime":"09:00:00","endTime":"14:30:00","date":"2021-08-02","address1":"02B HWY 344","zip":"87015","primaryAppointments":0,"primaryCap":6,"boosterAppointments":0,"boosterCap":4,"brands":[2],"driveThrough":0,"wheelchairAccessible":1,"mobilityHelp":0,"deafAccommodations":1,"blindAccommodations":1,"paperworkAssistance":1,"seatingAvailable":1,"sensoryFriendly":1,"walkIn":1},{"name":"Smith's Marketplace Pharmacy- Los Alamos","locationId":892,"city":"Los Alamos","lat":35.87909715,"lng":-106.29379486,"startTime":"11:00:00","endTime":"17:30:00","date":"2021-08-02","address1":"751 TRINITY DR, SUITE 100","zip":"87544","primaryAppointments":0,"primaryCap":0,"boosterAppointments":11,"boosterCap":12,"brands":[1],"driveThrough":0,"wheelchairAccessible":1,"mobilityHelp":0,"deafAccommodations":0,"blindAccommodations":0,"paperworkAssistance":0,"seatingAvailable":1,"sensoryFriendly":1,"walkIn":0},{"name":"Del Norte Pharmacy of El Dorado","locationId":919,"city":"Santa Fe","lat":35.53594602,"lng":-105.8906687,"startTime":"09:30:00","endTime":"15:30:00","date":"2021-08-02","address1":"7 Caliente Rd","zip":"87507","primaryAppointments":1,"primaryCap":5,"boosterAppointments":0,"boosterCap":5,"brands":[2],"driveThrough":1,"wheelchairAccessible":1,"mobilityHelp":1,"deafAccommodations":1,"blindAccommodations":0,"paperworkAssistance":1,"seatingAvailable":1,"sensoryFriendly":1,"walkIn":1},{"name":"Del Norte Pharmacy: Santa Fe","locationId":920,"city":"Santa Fe","lat":35.65936722,"lng":-105.95166124,"startTime":"10:00:00","endTime":"15:00:00","date":"2021-08-02","address1":"1691 Galisteo St","zip":"87505","primaryAppointments":1,"primaryCap":10,"boosterAppointments":0,"boosterCap":10,"brands":[2],"driveThrough":0,"wheelchairAccessible":1,"mobilityHelp":1,"deafAccommodations":0,"blindAccommodations":0,"paperworkAssistance":1,"seatingAvailable":0,"sensoryFriendly":1,"walkIn":1},{"name":"Del Norte Pharmacy: Las Vegas","locationId":921,"city":"Las Vegas","lat":35.610448,"lng":-105.21089933,"startTime":"10:00:00","endTime":"17:00:00","date":"2021-08-02","address1":"615 North Grand Avenue","zip":"87701","primaryAppointments":1,"primaryCap":11,"boosterAppointments":4,"boosterCap":11,"brands":[2],"driveThrough":1,"wheelchairAccessible":1,"mobilityHelp":1,"deafAccommodations":0,"blindAccommodations":1,"paperworkAssistance":1,"seatingAvailable":1,"sensoryFriendly":1,"walkIn":1},{"name":"RioGrande Care Pharmacy","locationId":946,"city":"Las Cruces","lat":32.324347,"lng":-106.72654976,"startTime":"08:30:00","endTime":"18:00:00","date":"2021-08-02","address1":" 4371 E Lohman Ave","zip":"88011","primaryAppointments":0,"primaryCap":17,"boosterAppointments":5,"boosterCap":17,"brands":[2],"driveThrough":0,"wheelchairAccessible":1,"mobilityHelp":0,"deafAccommodations":0,"blindAccommodations":0,"paperworkAssistance":1,"seatingAvailable":1,"sensoryFriendly":1,"walkIn":1},{"name":"Del-Rey Pharmacy","locationId":969,"city":"Las Cruces","lat":32.35192765,"lng":-106.76836015,"startTime":"10:00:00","endTime":"17:00:00","date":"2021-08-02","address1":"3291 Del Rey Blvd #3","zip":"88012","primaryAppointments":4,"primaryCap":70,"boosterAppointments":0,"boosterCap":70,"brands":[3],"driveThrough":0,"wheelchairAccessible":1,"mobilityHelp":1,"deafAccommodations":0,"blindAccommodations":0,"paperworkAssistance":1,"seatingAvailable":1,"sensoryFriendly":1,"walkIn":1},{"name":"Christus St Vincent Outpatient Pharmacy","locationId":1019,"city":"Santa Fe","lat":35.65912386,"lng":-105.94811102,"startTime":"09:00:00","endTime":"16:00:00","date":"2021-08-02","address1":"465 St Michaels Drive, Suite 112","zip":"87505","primaryAppointments":2,"primaryCap":14,"boosterAppointments":0,"boosterCap":7,"brands":[2],"driveThrough":0,"wheelchairAccessible":1,"mobilityHelp":1,"deafAccommodations":1,"blindAccommodations":1,"paperworkAssistance":1,"seatingAvailable":1,"sensoryFriendly":1,"walkIn":1},{"name":"Walmart 3731-Bernalillo","locationId":1042,"city":"Bernalillo ","lat":35.31951183,"lng":-106.57261526,"startTime":"09:30:00","endTime":"20:00:00","date":"2021-08-02","address1":"460 NM HWY #528","zip":"87004","primaryAppointments":6,"primaryCap":18,"boosterAppointments":4,"boosterCap":18,"brands":[1],"driveThrough":0,"wheelchairAccessible":1,"mobilityHelp":0,"deafAccommodations":1,"blindAccommodations":1,"paperworkAssistance":1,"seatingAvailable":1,"sensoryFriendly":1,"walkIn":1},{"name":"El Centro - Rio Arriba Health Commons - EVHS School Based Clinic","locationId":1044,"city":"Espanola","lat":36.00590251,"lng":-106.03939489,"startTime":"09:00:00","endTime":"10:30:00","date":"2021-08-02","address1":"1111 El Llano Road","zip":"87532","primaryAppointments":4,"primaryCap":4,"boosterAppointments":6,"boosterCap":8,"brands":[1],"driveThrough":0,"wheelchairAccessible":1,"mobilityHelp":1,"deafAccommodations":1,"blindAccommodations":1,"paperworkAssistance":1,"seatingAvailable":1,"sensoryFriendly":1,"walkIn":1},{"name":"HMS-SC: COVID-19 Community Clinic","locationId":1048,"city":"Silver City","lat":32.79373006,"lng":-108.26215209,"startTime":"09:00:00","endTime":"17:30:00","date":"2021-08-02","address1":"1304 E. 32nd St","zip":"88061","primaryAppointments":4,"primaryCap":15,"boosterAppointments":0,"boosterCap":15,"brands":[1],"driveThrough":1,"wheelchairAccessible":1,"mobilityHelp":1,"deafAccommodations":0,"blindAccommodations":0,"paperworkAssistance":1,"seatingAvailable":1,"sensoryFriendly":1,"walkIn":1},{"name":"Walmart Pharmacy on Carlisle","locationId":1061,"city":"Albuquerque","lat":35.11031931,"lng":-106.60821446,"startTime":"10:00:00","endTime":"12:30:00","date":"2021-08-02","address1":"2701 Carlisle BLVD NE","zip":"87110","primaryAppointments":4,"primaryCap":5,"boosterAppointments":2,"boosterCap":5,"brands":[1],"driveThrough":0,"wheelchairAccessible":1,"mobilityHelp":0,"deafAccommodations":1,"blindAccommodations":1,"paperworkAssistance":1,"seatingAvailable":1,"sensoryFriendly":1,"walkIn":1},{"name":"Walmart 3732 Rio Rancho Pfizer","locationId":1063,"city":"rio rancho","lat":35.24300137,"lng":-106.70109497,"startTime":"10:00:00","endTime":"11:30:00","date":"2021-08-02","address1":"901 unser blvd se","zip":"87124","primaryAppointments":0,"primaryCap":0,"boosterAppointments":4,"boosterCap":6,"brands":[1],"driveThrough":0,"wheelchairAccessible":1,"mobilityHelp":0,"deafAccommodations":0,"blindAccommodations":0,"paperworkAssistance":1,"seatingAvailable":1,"sensoryFriendly":0,"walkIn":1},{"name":"J&J vaccine WM RX-Gallup","locationId":1084,"city":"Gallup","lat":35.52766533,"lng":-108.77011738,"startTime":"10:00:00","endTime":"15:30:00","date":"2021-08-02","address1":"1650 West Maloney Ave","zip":"87301","primaryAppointments":0,"primaryCap":40,"boosterAppointments":0,"boosterCap":0,"brands":[3],"driveThrough":0,"wheelchairAccessible":1,"mobilityHelp":1,"deafAccommodations":1,"blindAccommodations":1,"paperworkAssistance":1,"seatingAvailable":1,"sensoryFriendly":1,"walkIn":1},{"name":"Socorro County Detention Center ","locationId":1140,"city":"Socorro","lat":34.02720064,"lng":-106.92534143,"startTime":"13:30:00","endTime":"15:00:00","date":"2021-08-02","address1":"1001 Grefco ","zip":"87832","primaryAppointments":0,"primaryCap":75,"boosterAppointments":0,"boosterCap":75,"brands":[1],"driveThrough":0,"wheelchairAccessible":1,"mobilityHelp":1,"deafAccommodations":1,"blindAccommodations":1,"paperworkAssistance":1,"seatingAvailable":1,"sensoryFriendly":1,"walkIn":0},{"name":"Belen, Walmart Pharmacy  Store 1414","locationId":1186,"city":"Belen","lat":34.69707015,"lng":-106.76885824,"startTime":"11:00:00","endTime":"15:00:00","date":"2021-08-02","address1":"1 I-25 Bypass","zip":"87002","primaryAppointments":9,"primaryCap":9,"boosterAppointments":3,"boosterCap":3,"brands":[1],"driveThrough":0,"wheelchairAccessible":1,"mobilityHelp":1,"deafAccommodations":1,"blindAccommodations":1,"paperworkAssistance":1,"seatingAvailable":1,"sensoryFriendly":1,"walkIn":1},{"name":"Walmart Neighborhood Market - Juan Tabo/Menual Pfizer","locationId":1187,"city":"Albuquerque","lat":35.1092259,"lng":-106.51811344,"startTime":"09:00:00","endTime":"20:00:00","date":"2021-08-02","address1":"11001 Menaul Blvd","zip":"87112","primaryAppointments":6,"primaryCap":43,"boosterAppointments":9,"boosterCap":43,"brands":[1],"driveThrough":0,"wheelchairAccessible":1,"mobilityHelp":1,"deafAccommodations":1,"blindAccommodations":1,"paperworkAssistance":1,"seatingAvailable":1,"sensoryFriendly":1,"walkIn":1},{"name":"Walmart Pharmacy","locationId":1189,"city":"Albuquerque","lat":35.11034324,"lng":-106.72895676,"startTime":"09:30:00","endTime":"12:30:00","date":"2021-08-02","address1":"1820 Unser Blvd NW","zip":"87120","primaryAppointments":1,"primaryCap":7,"boosterAppointments":4,"boosterCap":5,"brands":[1],"driveThrough":0,"wheelchairAccessible":1,"mobilityHelp":0,"deafAccommodations":1,"blindAccommodations":1,"paperworkAssistance":1,"seatingAvailable":1,"sensoryFriendly":1,"walkIn":1},{"name":"Walmart Pharmacy Los Lunas Pfizer","locationId":1190,"city":"Los Lunas","lat":34.81624277,"lng":-106.76375498,"startTime":"14:00:00","endTime":"17:00:00","date":"2021-08-02","address1":"2250 Main Steeet","zip":"87031","primaryAppointments":12,"primaryCap":12,"boosterAppointments":0,"boosterCap":0,"brands":[1],"driveThrough":0,"wheelchairAccessible":1,"mobilityHelp":1,"deafAccommodations":1,"blindAccommodations":1,"paperworkAssistance":1,"seatingAvailable":1,"sensoryFriendly":1,"walkIn":1},{"name":"Pfizer Walmart event","locationId":1192,"city":"Rio Rancho","lat":35.23948742,"lng":-106.6588789,"startTime":"15:30:00","endTime":"17:00:00","date":"2021-08-02","address1":"1115 NM-HWY 528 SE","zip":"87124","primaryAppointments":3,"primaryCap":3,"boosterAppointments":0,"boosterCap":3,"brands":[1],"driveThrough":0,"wheelchairAccessible":1,"mobilityHelp":0,"deafAccommodations":1,"blindAccommodations":1,"paperworkAssistance":0,"seatingAvailable":1,"sensoryFriendly":1,"walkIn":1},{"name":"Walmart Farmington East Pfizer","locationId":1225,"city":"Farmington","lat":36.76703444,"lng":-108.15244454,"startTime":"09:00:00","endTime":"19:00:00","date":"2021-08-02","address1":"4600 E Main St ","zip":"87401","primaryAppointments":5,"primaryCap":36,"boosterAppointments":2,"boosterCap":36,"brands":[1],"driveThrough":0,"wheelchairAccessible":1,"mobilityHelp":0,"deafAccommodations":0,"blindAccommodations":0,"paperworkAssistance":1,"seatingAvailable":1,"sensoryFriendly":1,"walkIn":1},{"name":"University of New Mexico Student Union Building","locationId":1262,"city":"Albuquerque","lat":35.0812785,"lng":-106.6205453,"startTime":"10:00:00","endTime":"14:30:00","date":"2021-08-02","address1":"398 Cornell Dr NE","zip":"87131","primaryAppointments":8,"primaryCap":450,"boosterAppointments":3,"boosterCap":450,"brands":[1],"driveThrough":0,"wheelchairAccessible":1,"mobilityHelp":0,"deafAccommodations":0,"blindAccommodations":0,"paperworkAssistance":1,"seatingAvailable":1,"sensoryFriendly":0,"walkIn":1},{"name":"walmart I40/Coors Pfizer","locationId":1265,"city":"Albuquerque","lat":35.109855,"lng":-106.70118594,"startTime":"14:30:00","endTime":"17:30:00","date":"2021-08-02","address1":"2550 Coors Blvd NW","zip":"87112","primaryAppointments":9,"primaryCap":10,"boosterAppointments":0,"boosterCap":2,"brands":[1],"driveThrough":0,"wheelchairAccessible":1,"mobilityHelp":1,"deafAccommodations":1,"blindAccommodations":1,"paperworkAssistance":1,"seatingAvailable":1,"sensoryFriendly":1,"walkIn":1},{"name":"Walmart Pharmacy","locationId":1267,"city":"ABQ","lat":35.02552902,"lng":-106.71135566,"startTime":"10:00:00","endTime":"19:00:00","date":"2021-08-02","address1":"3500 Coors blvd sw ","zip":"87105","primaryAppointments":4,"primaryCap":225,"boosterAppointments":1,"boosterCap":225,"brands":[1],"driveThrough":0,"wheelchairAccessible":1,"mobilityHelp":1,"deafAccommodations":1,"blindAccommodations":1,"paperworkAssistance":1,"seatingAvailable":1,"sensoryFriendly":1,"walkIn":1},{"name":"Pfizer - Socorro Walmart Pharmacy","locationId":1272,"city":"Socorro","lat":34.07483084,"lng":-106.89255114,"startTime":"14:30:00","endTime":"18:00:00","date":"2021-08-02","address1":"700 North 6th Street","zip":"87801","primaryAppointments":3,"primaryCap":12,"boosterAppointments":0,"boosterCap":0,"brands":[1],"driveThrough":0,"wheelchairAccessible":1,"mobilityHelp":1,"deafAccommodations":1,"blindAccommodations":1,"paperworkAssistance":1,"seatingAvailable":1,"sensoryFriendly":1,"walkIn":1},{"name":"\"FREE CUTS\" / NOR-LEA","locationId":1287,"city":"HOBBS","lat":32.69359654,"lng":-103.12238148,"startTime":"09:00:00","endTime":"14:30:00","date":"2021-08-02","address1":"1200 EAST HUMBLE STREET","zip":"88240","primaryAppointments":8,"primaryCap":550,"boosterAppointments":0,"boosterCap":275,"brands":[1],"driveThrough":0,"wheelchairAccessible":1,"mobilityHelp":1,"deafAccommodations":1,"blindAccommodations":1,"paperworkAssistance":1,"seatingAvailable":1,"sensoryFriendly":1,"walkIn":1},{"name":"La Cueva High School","locationId":1321,"city":"Albuquerque","lat":35.18299758,"lng":-106.56030139,"startTime":"14:30:00","endTime":"18:30:00","date":"2021-08-02","address1":"7801 Wilshire Ave. NE","zip":"87122","primaryAppointments":0,"primaryCap":95,"boosterAppointments":0,"boosterCap":40,"brands":[1],"driveThrough":0,"wheelchairAccessible":1,"mobilityHelp":0,"deafAccommodations":0,"blindAccommodations":0,"paperworkAssistance":1,"seatingAvailable":1,"sensoryFriendly":0,"walkIn":1},{"name":"New Mexico Military Institute","locationId":1327,"city":"Roswell","lat":33.40896548,"lng":-104.52588436,"startTime":"11:00:00","endTime":"17:00:00","date":"2021-08-02","address1":"101 W College Blvd.","zip":"88201","primaryAppointments":0,"primaryCap":6000,"boosterAppointments":0,"boosterCap":6000,"brands":[1],"driveThrough":0,"wheelchairAccessible":1,"mobilityHelp":1,"deafAccommodations":1,"blindAccommodations":1,"paperworkAssistance":1,"seatingAvailable":1,"sensoryFriendly":1,"walkIn":1}]}