{"status":"ok","message":"","data":[{"name":"McKinley Public Health Office","locationId":6,"city":"Gallup","lat":35.50591715,"lng":-108.72894399,"startTime":"12:00:00","endTime":"13:30:00","date":"2021-07-23","address1":"1919 COLLEGE DRIVE","zip":"87301","primaryAppointments":0,"primaryCap":0,"boosterAppointments":3,"boosterCap":3,"brands":[1],"driveThrough":1,"wheelchairAccessible":1,"mobilityHelp":1,"deafAccommodations":0,"blindAccommodations":0,"paperworkAssistance":1,"seatingAvailable":1,"sensoryFriendly":1,"walkIn":1},{"name":"Santa Fe Public Health Office","locationId":7,"city":"Santa Fe","lat":35.67119397,"lng":-105.95203753,"startTime":"09:00:00","endTime":"11:00:00","date":"2021-07-23","address1":"605 LETRADO ST","zip":"87505","primaryAppointments":19,"primaryCap":23,"boosterAppointments":8,"boosterCap":8,"brands":[1],"driveThrough":1,"wheelchairAccessible":1,"mobilityHelp":1,"deafAccommodations":1,"blindAccommodations":1,"paperworkAssistance":1,"seatingAvailable":1,"sensoryFriendly":1,"walkIn":0},{"name":"ROSWELL PUBLIC HEALTH OFFICE ","locationId":18,"city":"Roswell","lat":33.37529714,"lng":-104.52022075,"startTime":"07:30:00","endTime":"11:00:00","date":"2021-07-23","address1":"200 E CHISUM BOX 1","zip":"88203","primaryAppointments":31,"primaryCap":85,"boosterAppointments":24,"boosterCap":51,"brands":[1],"driveThrough":1,"wheelchairAccessible":1,"mobilityHelp":1,"deafAccommodations":0,"blindAccommodations":1,"paperworkAssistance":1,"seatingAvailable":1,"sensoryFriendly":1,"walkIn":1},{"name":"Las Cruces Public Health Office","locationId":32,"city":"Las Cruces","lat":32.32054442,"lng":-106.77081886,"startTime":"10:00:00","endTime":"10:30:00","date":"2021-07-23","address1":"1170. N SOLANO","zip":"88001","primaryAppointments":6,"primaryCap":15,"boosterAppointments":0,"boosterCap":5,"brands":[1,3],"driveThrough":0,"wheelchairAccessible":1,"mobilityHelp":1,"deafAccommodations":1,"blindAccommodations":1,"paperworkAssistance":1,"seatingAvailable":1,"sensoryFriendly":1,"walkIn":1},{"name":"Otero Public Health Office","locationId":36,"city":"Alamogordo","lat":32.897198,"lng":-105.94737813,"startTime":"08:30:00","endTime":"14:00:00","date":"2021-07-23","address1":"1207 8TH STREET","zip":"88310","primaryAppointments":60,"primaryCap":76,"boosterAppointments":48,"boosterCap":74,"brands":[1],"driveThrough":0,"wheelchairAccessible":1,"mobilityHelp":0,"deafAccommodations":0,"blindAccommodations":0,"paperworkAssistance":1,"seatingAvailable":1,"sensoryFriendly":0,"walkIn":1},{"name":"Albertson's on Ridgecrest in Rio Rancho","locationId":41,"city":"RIO RANCHO","lat":35.2528357,"lng":-106.65169765,"startTime":"13:00:00","endTime":"14:30:00","date":"2021-07-23","address1":"4300 RIDGECREST DR SE","zip":"87124","primaryAppointments":6,"primaryCap":7,"boosterAppointments":5,"boosterCap":5,"brands":[1],"driveThrough":0,"wheelchairAccessible":1,"mobilityHelp":1,"deafAccommodations":0,"blindAccommodations":1,"paperworkAssistance":1,"seatingAvailable":1,"sensoryFriendly":1,"walkIn":1},{"name":"Albertson's Market Pharmacy","locationId":42,"city":"ALAMOGORDO","lat":32.89880179,"lng":-105.94636043,"startTime":"14:00:00","endTime":"14:30:00","date":"2021-07-23","address1":"1300 EAST 10TH STREET","zip":"88310","primaryAppointments":0,"primaryCap":0,"boosterAppointments":2,"boosterCap":5,"brands":[2],"driveThrough":0,"wheelchairAccessible":1,"mobilityHelp":0,"deafAccommodations":0,"blindAccommodations":0,"paperworkAssistance":1,"seatingAvailable":1,"sensoryFriendly":0,"walkIn":1},{"name":"Albertsons - ABQ Academy","locationId":43,"city":"Albuquerque","lat":35.15374679,"lng":-106.49926406,"startTime":"10:00:00","endTime":"13:30:00","date":"2021-07-23","address1":"12201 ACADEMY RD NE","zip":"87111","primaryAppointments":6,"primaryCap":9,"boosterAppointments":4,"boosterCap":12,"brands":[1],"driveThrough":0,"wheelchairAccessible":1,"mobilityHelp":1,"deafAccommodations":0,"blindAccommodations":0,"paperworkAssistance":1,"seatingAvailable":1,"sensoryFriendly":1,"walkIn":1},{"name":"Albertsons - SANTA FE S SAINT FRANCIS DR","locationId":44,"city":"Santa Fe","lat":35.645377,"lng":-105.95585902,"startTime":"11:30:00","endTime":"13:30:00","date":"2021-07-23","address1":"3001 S SAINT FRANCIS DR","zip":"87505","primaryAppointments":2,"primaryCap":13,"boosterAppointments":8,"boosterCap":12,"brands":[2],"driveThrough":0,"wheelchairAccessible":null,"mobilityHelp":null,"deafAccommodations":null,"blindAccommodations":null,"paperworkAssistance":null,"seatingAvailable":null,"sensoryFriendly":null,"walkIn":1},{"name":"Las Cruces Walmart Pharmacy - Rinconada Blvd","locationId":45,"city":"Las Cruces","lat":32.35941416,"lng":-106.74625632,"startTime":"10:00:00","endTime":"19:30:00","date":"2021-07-23","address1":"3331 Rinconada Blvd","zip":"88011-71","primaryAppointments":7,"primaryCap":13,"boosterAppointments":15,"boosterCap":28,"brands":[2],"driveThrough":0,"wheelchairAccessible":1,"mobilityHelp":0,"deafAccommodations":1,"blindAccommodations":0,"paperworkAssistance":1,"seatingAvailable":1,"sensoryFriendly":0,"walkIn":1},{"name":"Artesia Walmart Pharmacy","locationId":46,"city":"Artesia","lat":32.84753041,"lng":-104.4271588,"startTime":"09:30:00","endTime":"19:30:00","date":"2021-07-23","address1":"604 N 26th St","zip":"88210-37","primaryAppointments":5,"primaryCap":28,"boosterAppointments":0,"boosterCap":0,"brands":[2],"driveThrough":0,"wheelchairAccessible":1,"mobilityHelp":0,"deafAccommodations":1,"blindAccommodations":0,"paperworkAssistance":1,"seatingAvailable":1,"sensoryFriendly":0,"walkIn":0},{"name":"Walmart - Coors Bypass-1397","locationId":47,"city":"Albuquerque","lat":35.20421306,"lng":-106.65693027,"startTime":"10:30:00","endTime":"16:30:00","date":"2021-07-23","address1":"10224 Coors Bypass NW","zip":"87114-43","primaryAppointments":2,"primaryCap":20,"boosterAppointments":1,"boosterCap":20,"brands":[2],"driveThrough":0,"wheelchairAccessible":1,"mobilityHelp":0,"deafAccommodations":1,"blindAccommodations":1,"paperworkAssistance":1,"seatingAvailable":1,"sensoryFriendly":1,"walkIn":1},{"name":"Espanola Walmart 2656 Moderna","locationId":48,"city":"Espanola","lat":36.01482649,"lng":-106.06850502,"startTime":"09:30:00","endTime":"20:30:00","date":"2021-07-23","address1":"1610 N Riverside Dr","zip":"87532-80","primaryAppointments":4,"primaryCap":20,"boosterAppointments":0,"boosterCap":20,"brands":[2],"driveThrough":0,"wheelchairAccessible":1,"mobilityHelp":0,"deafAccommodations":0,"blindAccommodations":0,"paperworkAssistance":1,"seatingAvailable":1,"sensoryFriendly":0,"walkIn":1},{"name":"Walmart - Farmington E. Main--826","locationId":49,"city":"Farmington","lat":36.76765218,"lng":-108.1523218,"startTime":"09:00:00","endTime":"20:00:00","date":"2021-07-23","address1":"4600 E Main St","zip":"87402-","primaryAppointments":6,"primaryCap":26,"boosterAppointments":11,"boosterCap":45,"brands":[2],"driveThrough":0,"wheelchairAccessible":1,"mobilityHelp":1,"deafAccommodations":0,"blindAccommodations":0,"paperworkAssistance":1,"seatingAvailable":1,"sensoryFriendly":1,"walkIn":1},{"name":"Farmington Walmart West Side ","locationId":50,"city":"Farmington","lat":36.73206361,"lng":-108.22798666,"startTime":"09:00:00","endTime":"18:00:00","date":"2021-07-23","address1":"1400 W Main St","zip":"87401","primaryAppointments":4,"primaryCap":16,"boosterAppointments":2,"boosterCap":16,"brands":[2],"driveThrough":0,"wheelchairAccessible":1,"mobilityHelp":0,"deafAccommodations":0,"blindAccommodations":0,"paperworkAssistance":1,"seatingAvailable":1,"sensoryFriendly":0,"walkIn":1},{"name":"WM RX-GALLUP, NM","locationId":51,"city":"Gallup","lat":35.52774518,"lng":-108.7694296,"startTime":"09:00:00","endTime":"19:30:00","date":"2021-07-23","address1":"1650 W Maloney Ave","zip":"87301-33","primaryAppointments":1,"primaryCap":51,"boosterAppointments":2,"boosterCap":52,"brands":[2],"driveThrough":0,"wheelchairAccessible":1,"mobilityHelp":1,"deafAccommodations":1,"blindAccommodations":1,"paperworkAssistance":1,"seatingAvailable":1,"sensoryFriendly":1,"walkIn":0},{"name":"Walmart Pharmacy Hobbs, NM","locationId":52,"city":"Hobbs","lat":32.74293834,"lng":-103.16149549,"startTime":"11:00:00","endTime":"17:00:00","date":"2021-07-23","address1":"3800 N Lovington Hwy","zip":"88240-10","primaryAppointments":3,"primaryCap":24,"boosterAppointments":0,"boosterCap":24,"brands":[2],"driveThrough":0,"wheelchairAccessible":1,"mobilityHelp":1,"deafAccommodations":1,"blindAccommodations":1,"paperworkAssistance":1,"seatingAvailable":1,"sensoryFriendly":1,"walkIn":1},{"name":"Sam's Club - Roswell","locationId":53,"city":"Roswell","lat":33.44777277,"lng":-104.52715705,"startTime":"10:00:00","endTime":"17:00:00","date":"2021-07-23","address1":"4400 N Main St","zip":"88201-03","primaryAppointments":3,"primaryCap":10,"boosterAppointments":4,"boosterCap":10,"brands":[2],"driveThrough":0,"wheelchairAccessible":null,"mobilityHelp":null,"deafAccommodations":null,"blindAccommodations":null,"paperworkAssistance":null,"seatingAvailable":null,"sensoryFriendly":null,"walkIn":1},{"name":"Sam's Club - Santa Fe Rodeo","locationId":54,"city":"Santa Fe","lat":35.6383503,"lng":-106.00867169,"startTime":"09:30:00","endTime":"16:30:00","date":"2021-07-23","address1":"4201 Rodeo Rd","zip":"87507-48","primaryAppointments":3,"primaryCap":6,"boosterAppointments":3,"boosterCap":6,"brands":[2],"driveThrough":0,"wheelchairAccessible":1,"mobilityHelp":0,"deafAccommodations":0,"blindAccommodations":1,"paperworkAssistance":0,"seatingAvailable":1,"sensoryFriendly":0,"walkIn":1},{"name":"Walmart - Wyoming/Menaul--5491","locationId":55,"city":"Albuquerque","lat":35.1058539,"lng":-106.54914912,"startTime":"10:00:00","endTime":"12:30:00","date":"2021-07-23","address1":"2266 Wyoming Blvd NE","zip":"87112-26","primaryAppointments":1,"primaryCap":1,"boosterAppointments":6,"boosterCap":10,"brands":[2],"driveThrough":0,"wheelchairAccessible":1,"mobilityHelp":1,"deafAccommodations":1,"blindAccommodations":1,"paperworkAssistance":0,"seatingAvailable":1,"sensoryFriendly":0,"walkIn":1},{"name":"PMS - Artesia Family Health Center","locationId":73,"city":"Artesia","lat":32.84706535,"lng":-104.41167213,"startTime":"13:00:00","endTime":"14:00:00","date":"2021-07-23","address1":"1105  Memorial Drive","zip":"88210","primaryAppointments":0,"primaryCap":6,"boosterAppointments":0,"boosterCap":6,"brands":[2],"driveThrough":0,"wheelchairAccessible":1,"mobilityHelp":1,"deafAccommodations":1,"blindAccommodations":1,"paperworkAssistance":1,"seatingAvailable":1,"sensoryFriendly":1,"walkIn":0},{"name":"PMS - Farmington Community Health Center","locationId":80,"city":"Farmington","lat":36.72693104,"lng":-108.22316192,"startTime":"09:00:00","endTime":"09:30:00","date":"2021-07-23","address1":"1001 West Broadway Ave","zip":"87401","primaryAppointments":0,"primaryCap":10,"boosterAppointments":1,"boosterCap":10,"brands":[2],"driveThrough":0,"wheelchairAccessible":1,"mobilityHelp":0,"deafAccommodations":0,"blindAccommodations":1,"paperworkAssistance":1,"seatingAvailable":1,"sensoryFriendly":1,"walkIn":1},{"name":"PMS - Grants Family Health Center","locationId":81,"city":"Grants","lat":35.16211359,"lng":-107.82960896,"startTime":"08:00:00","endTime":"10:00:00","date":"2021-07-23","address1":"1217 Bonita Street","zip":"87020-21","primaryAppointments":0,"primaryCap":40,"boosterAppointments":0,"boosterCap":40,"brands":[1],"driveThrough":0,"wheelchairAccessible":null,"mobilityHelp":null,"deafAccommodations":null,"blindAccommodations":null,"paperworkAssistance":null,"seatingAvailable":null,"sensoryFriendly":null,"walkIn":0},{"name":"PMS - Rio Rancho Family Health Center","locationId":87,"city":"Rio Rancho","lat":35.26099912,"lng":-106.69763369,"startTime":"10:00:00","endTime":"14:00:00","date":"2021-07-23","address1":"184 Unser Boulevard, NE","zip":"87124","primaryAppointments":1,"primaryCap":11,"boosterAppointments":0,"boosterCap":5,"brands":[2],"driveThrough":0,"wheelchairAccessible":null,"mobilityHelp":null,"deafAccommodations":null,"blindAccommodations":null,"paperworkAssistance":null,"seatingAvailable":null,"sensoryFriendly":null,"walkIn":0},{"name":"PMS - Socorro Community Health Center","locationId":89,"city":"Socorro","lat":34.03413276,"lng":-106.91675035,"startTime":"09:00:00","endTime":"10:30:00","date":"2021-07-23","address1":"1300 Enterprise Road","zip":"87801","primaryAppointments":7,"primaryCap":7,"boosterAppointments":5,"boosterCap":5,"brands":[1],"driveThrough":0,"wheelchairAccessible":null,"mobilityHelp":null,"deafAccommodations":null,"blindAccommodations":null,"paperworkAssistance":null,"seatingAvailable":null,"sensoryFriendly":null,"walkIn":1},{"name":"Vida Pharmacy ","locationId":96,"city":"Albuquerque","lat":35.17941181,"lng":-106.59218948,"startTime":"15:00:00","endTime":"17:00:00","date":"2021-07-23","address1":"8500 Jefferson St NE","zip":"87113","primaryAppointments":14,"primaryCap":20,"boosterAppointments":0,"boosterCap":0,"brands":[3],"driveThrough":0,"wheelchairAccessible":0,"mobilityHelp":0,"deafAccommodations":0,"blindAccommodations":0,"paperworkAssistance":1,"seatingAvailable":1,"sensoryFriendly":1,"walkIn":1},{"name":"Roswell Walmart Pharmacy","locationId":104,"city":"Roswell","lat":33.44928211,"lng":-104.52682147,"startTime":"09:30:00","endTime":"19:30:00","date":"2021-07-23","address1":"4500 N Main St","zip":"88201-03","primaryAppointments":2,"primaryCap":40,"boosterAppointments":0,"boosterCap":0,"brands":[2],"driveThrough":0,"wheelchairAccessible":1,"mobilityHelp":0,"deafAccommodations":1,"blindAccommodations":0,"paperworkAssistance":1,"seatingAvailable":1,"sensoryFriendly":0,"walkIn":0},{"name":"PMS Family Health Center","locationId":105,"city":"Rio Rancho","lat":35.21967421,"lng":-106.66382391,"startTime":"10:00:00","endTime":"14:00:00","date":"2021-07-23","address1":"2300 Grande Boulevard SE","zip":"87124","primaryAppointments":1,"primaryCap":10,"boosterAppointments":0,"boosterCap":10,"brands":[2],"driveThrough":0,"wheelchairAccessible":1,"mobilityHelp":1,"deafAccommodations":1,"blindAccommodations":0,"paperworkAssistance":1,"seatingAvailable":1,"sensoryFriendly":0,"walkIn":1},{"name":"Chaparral Family Health Center","locationId":106,"city":"Chaparral","lat":32.00877348,"lng":-106.34031534,"startTime":"13:00:00","endTime":"15:00:00","date":"2021-07-23","address1":"204 Angelina Boulevard","zip":"88081-75","primaryAppointments":0,"primaryCap":20,"boosterAppointments":0,"boosterCap":0,"brands":[2],"driveThrough":0,"wheelchairAccessible":1,"mobilityHelp":1,"deafAccommodations":1,"blindAccommodations":1,"paperworkAssistance":1,"seatingAvailable":1,"sensoryFriendly":1,"walkIn":1},{"name":"Roosevelt General Hospital ","locationId":116,"city":"Portales","lat":34.16841057,"lng":-103.3622094,"startTime":"09:00:00","endTime":"16:30:00","date":"2021-07-23","address1":"42121 US 70","zip":"88130","primaryAppointments":18,"primaryCap":19,"boosterAppointments":59,"boosterCap":61,"brands":[1],"driveThrough":0,"wheelchairAccessible":1,"mobilityHelp":1,"deafAccommodations":1,"blindAccommodations":1,"paperworkAssistance":1,"seatingAvailable":1,"sensoryFriendly":0,"walkIn":1},{"name":"First Choice Community Healthcare Inc South Valley Center","locationId":125,"city":"Albuquerque","lat":35.04543945,"lng":-106.68237827,"startTime":"10:30:00","endTime":"11:00:00","date":"2021-07-23","address1":"2001 North Centro Familiar SW","zip":"87105","primaryAppointments":5,"primaryCap":5,"boosterAppointments":0,"boosterCap":0,"brands":[1],"driveThrough":0,"wheelchairAccessible":null,"mobilityHelp":null,"deafAccommodations":null,"blindAccommodations":null,"paperworkAssistance":null,"seatingAvailable":null,"sensoryFriendly":null,"walkIn":1},{"name":"First Choice Community Healthcare Inc Los Lunas Center","locationId":130,"city":"Los Lunas","lat":34.81187504,"lng":-106.74188149,"startTime":"10:00:00","endTime":"12:00:00","date":"2021-07-23","address1":"145 Don Pasqual NW","zip":"87031","primaryAppointments":9,"primaryCap":9,"boosterAppointments":11,"boosterCap":15,"brands":[2],"driveThrough":0,"wheelchairAccessible":1,"mobilityHelp":1,"deafAccommodations":1,"blindAccommodations":1,"paperworkAssistance":1,"seatingAvailable":1,"sensoryFriendly":0,"walkIn":0},{"name":"Walmart - Academy/Wyoming-824","locationId":141,"city":"Albuquerque","lat":35.14433804,"lng":-106.55099885,"startTime":"09:00:00","endTime":"19:30:00","date":"2021-07-23","address1":"8000 Academy Rd NE","zip":"87111-11","primaryAppointments":16,"primaryCap":18,"boosterAppointments":11,"boosterCap":38,"brands":[1,2],"driveThrough":0,"wheelchairAccessible":1,"mobilityHelp":1,"deafAccommodations":1,"blindAccommodations":1,"paperworkAssistance":1,"seatingAvailable":1,"sensoryFriendly":0,"walkIn":1},{"name":"Sam's Club - Eubank","locationId":142,"city":"Albuquerque","lat":35.07687388,"lng":-106.53034406,"startTime":"09:30:00","endTime":"16:30:00","date":"2021-07-23","address1":"300 Eubank Blvd NE","zip":"87123-27","primaryAppointments":1,"primaryCap":20,"boosterAppointments":0,"boosterCap":0,"brands":[2],"driveThrough":0,"wheelchairAccessible":null,"mobilityHelp":null,"deafAccommodations":null,"blindAccommodations":null,"paperworkAssistance":null,"seatingAvailable":null,"sensoryFriendly":null,"walkIn":1},{"name":"Walmart - Cerrillos Road","locationId":143,"city":"Santa Fe","lat":35.65187605,"lng":-105.99928406,"startTime":"09:30:00","endTime":"20:00:00","date":"2021-07-23","address1":"3251 Cerrillos Rd","zip":"87507-29","primaryAppointments":3,"primaryCap":10,"boosterAppointments":2,"boosterCap":10,"brands":[2],"driveThrough":0,"wheelchairAccessible":1,"mobilityHelp":0,"deafAccommodations":0,"blindAccommodations":0,"paperworkAssistance":1,"seatingAvailable":1,"sensoryFriendly":0,"walkIn":1},{"name":"walmat - san mateo/zuni 831","locationId":144,"city":"Albuquerque","lat":35.0754004,"lng":-106.58801714,"startTime":"09:00:00","endTime":"15:30:00","date":"2021-07-23","address1":"301 San Mateo Blvd SE","zip":"87108-56","primaryAppointments":5,"primaryCap":6,"boosterAppointments":4,"boosterCap":13,"brands":[2],"driveThrough":0,"wheelchairAccessible":1,"mobilityHelp":0,"deafAccommodations":0,"blindAccommodations":0,"paperworkAssistance":1,"seatingAvailable":1,"sensoryFriendly":1,"walkIn":1},{"name":"walmart on eubank and I40","locationId":145,"city":"Albuquerque","lat":35.07843081,"lng":-106.52987822,"startTime":"09:30:00","endTime":"19:00:00","date":"2021-07-23","address1":"400 Eubank Blvd NE","zip":"87123-27","primaryAppointments":7,"primaryCap":17,"boosterAppointments":12,"boosterCap":20,"brands":[1],"driveThrough":0,"wheelchairAccessible":1,"mobilityHelp":0,"deafAccommodations":0,"blindAccommodations":0,"paperworkAssistance":1,"seatingAvailable":1,"sensoryFriendly":1,"walkIn":1},{"name":"Sam's Club","locationId":146,"city":"Albuquerque","lat":35.13794413,"lng":-106.61424657,"startTime":"09:30:00","endTime":"18:00:00","date":"2021-07-23","address1":"1421 N Renaissance Blvd NE","zip":"87107-70","primaryAppointments":8,"primaryCap":18,"boosterAppointments":4,"boosterCap":18,"brands":[1],"driveThrough":0,"wheelchairAccessible":1,"mobilityHelp":0,"deafAccommodations":0,"blindAccommodations":1,"paperworkAssistance":1,"seatingAvailable":1,"sensoryFriendly":0,"walkIn":1},{"name":"SAM'S CLUB-LAS CRUCES","locationId":147,"city":"Las Cruces","lat":32.34704741,"lng":-106.76708332,"startTime":"11:00:00","endTime":"11:30:00","date":"2021-07-23","address1":"2711 N Telshor Blvd","zip":"88011-82","primaryAppointments":0,"primaryCap":6,"boosterAppointments":0,"boosterCap":5,"brands":[2],"driveThrough":0,"wheelchairAccessible":1,"mobilityHelp":0,"deafAccommodations":0,"blindAccommodations":1,"paperworkAssistance":0,"seatingAvailable":1,"sensoryFriendly":0,"walkIn":1},{"name":"Walmart - Carlisle-850","locationId":148,"city":"Albuquerque","lat":35.1110806,"lng":-106.60858805,"startTime":"09:00:00","endTime":"12:00:00","date":"2021-07-23","address1":"2701 Carlisle Blvd NE","zip":"87110-28","primaryAppointments":1,"primaryCap":6,"boosterAppointments":2,"boosterCap":6,"brands":[2],"driveThrough":0,"wheelchairAccessible":1,"mobilityHelp":0,"deafAccommodations":0,"blindAccommodations":0,"paperworkAssistance":1,"seatingAvailable":1,"sensoryFriendly":1,"walkIn":1},{"name":"Las Cruces Walmart Pharmacy - Walton/Lohman","locationId":149,"city":"Las Cruces","lat":32.31453229,"lng":-106.75064357,"startTime":"09:00:00","endTime":"15:00:00","date":"2021-07-23","address1":"571 Walton Blvd","zip":"88001-84","primaryAppointments":5,"primaryCap":5,"boosterAppointments":18,"boosterCap":25,"brands":[2],"driveThrough":0,"wheelchairAccessible":1,"mobilityHelp":0,"deafAccommodations":1,"blindAccommodations":0,"paperworkAssistance":1,"seatingAvailable":1,"sensoryFriendly":0,"walkIn":0},{"name":"Taos Walmart Pharmacy","locationId":150,"city":"Taos","lat":36.38620309,"lng":-105.58775748,"startTime":"10:00:00","endTime":"16:00:00","date":"2021-07-23","address1":"926 Paseo Del Pueblo Sur","zip":"87571-59","primaryAppointments":3,"primaryCap":10,"boosterAppointments":1,"boosterCap":10,"brands":[2],"driveThrough":0,"wheelchairAccessible":1,"mobilityHelp":0,"deafAccommodations":0,"blindAccommodations":0,"paperworkAssistance":1,"seatingAvailable":1,"sensoryFriendly":0,"walkIn":1},{"name":"Ruidoso Walmart Pharmacy","locationId":151,"city":"Ruidoso Downs","lat":33.32416962,"lng":-105.61430792,"startTime":"09:30:00","endTime":"19:30:00","date":"2021-07-23","address1":"26180 Us Highway 70 E","zip":"88346-91","primaryAppointments":5,"primaryCap":34,"boosterAppointments":0,"boosterCap":0,"brands":[3],"driveThrough":0,"wheelchairAccessible":1,"mobilityHelp":0,"deafAccommodations":1,"blindAccommodations":0,"paperworkAssistance":1,"seatingAvailable":1,"sensoryFriendly":0,"walkIn":1},{"name":"Carlsbad Walmart Pharmacy","locationId":152,"city":"Carlsbad","lat":32.39350109,"lng":-104.22402995,"startTime":"10:00:00","endTime":"18:30:00","date":"2021-07-23","address1":"2401 S Canal St","zip":"88220-65","primaryAppointments":11,"primaryCap":11,"boosterAppointments":18,"boosterCap":20,"brands":[2],"driveThrough":0,"wheelchairAccessible":1,"mobilityHelp":0,"deafAccommodations":1,"blindAccommodations":0,"paperworkAssistance":1,"seatingAvailable":1,"sensoryFriendly":0,"walkIn":1},{"name":"Alamogordo Walmart Supercenter Pharmacy","locationId":153,"city":"Alamogordo","lat":32.887054,"lng":-105.95864706,"startTime":"09:00:00","endTime":"18:00:00","date":"2021-07-23","address1":"233 S New York Ave","zip":"88310","primaryAppointments":2,"primaryCap":26,"boosterAppointments":6,"boosterCap":13,"brands":[2],"driveThrough":0,"wheelchairAccessible":1,"mobilityHelp":0,"deafAccommodations":1,"blindAccommodations":1,"paperworkAssistance":1,"seatingAvailable":1,"sensoryFriendly":0,"walkIn":1},{"name":"Silver City Walmart Pharmacy","locationId":154,"city":"Silver City","lat":32.7888863,"lng":-108.24813216,"startTime":"08:30:00","endTime":"19:00:00","date":"2021-07-23","address1":"2501 Highway 180 E","zip":"88061","primaryAppointments":7,"primaryCap":27,"boosterAppointments":0,"boosterCap":9,"brands":[2],"driveThrough":0,"wheelchairAccessible":1,"mobilityHelp":0,"deafAccommodations":1,"blindAccommodations":1,"paperworkAssistance":1,"seatingAvailable":1,"sensoryFriendly":0,"walkIn":1},{"name":"Truth or Consequences Walmart Pharmacy","locationId":155,"city":"Truth or Consequences","lat":33.15238717,"lng":-107.25021373,"startTime":"09:30:00","endTime":"19:30:00","date":"2021-07-23","address1":"2001 HR Ashbaugh Dr","zip":"87901-37","primaryAppointments":3,"primaryCap":35,"boosterAppointments":1,"boosterCap":3,"brands":[2],"driveThrough":0,"wheelchairAccessible":1,"mobilityHelp":0,"deafAccommodations":1,"blindAccommodations":1,"paperworkAssistance":1,"seatingAvailable":1,"sensoryFriendly":0,"walkIn":1},{"name":"Las Cruces Walmart Pharmacy S. Valley Dr.","locationId":156,"city":"Las Cruces","lat":32.28808791,"lng":-106.78587356,"startTime":"09:00:00","endTime":"19:00:00","date":"2021-07-23","address1":"1550 S Valley Dr","zip":"88005-31","primaryAppointments":7,"primaryCap":7,"boosterAppointments":27,"boosterCap":28,"brands":[2],"driveThrough":0,"wheelchairAccessible":1,"mobilityHelp":0,"deafAccommodations":1,"blindAccommodations":0,"paperworkAssistance":1,"seatingAvailable":1,"sensoryFriendly":0,"walkIn":1},{"name":"Deming Walmart Pharmacy","locationId":157,"city":"Deming","lat":32.2700126,"lng":-107.7475195,"startTime":"09:30:00","endTime":"18:30:00","date":"2021-07-23","address1":"1021 E Pine St","zip":"88030-70","primaryAppointments":18,"primaryCap":28,"boosterAppointments":1,"boosterCap":4,"brands":[2],"driveThrough":0,"wheelchairAccessible":1,"mobilityHelp":0,"deafAccommodations":1,"blindAccommodations":0,"paperworkAssistance":1,"seatingAvailable":1,"sensoryFriendly":0,"walkIn":1},{"name":"Walmart - Neighborhood Market-Sonoma Ranch","locationId":158,"city":"Las Cruces","lat":32.32727632,"lng":-106.72326175,"startTime":"09:00:00","endTime":"11:30:00","date":"2021-07-23","address1":"150 N Sonoma Ranch Blvd","zip":"88001-16","primaryAppointments":6,"primaryCap":10,"boosterAppointments":1,"boosterCap":4,"brands":[2],"driveThrough":0,"wheelchairAccessible":null,"mobilityHelp":null,"deafAccommodations":null,"blindAccommodations":null,"paperworkAssistance":null,"seatingAvailable":null,"sensoryFriendly":null,"walkIn":1},{"name":"Walmart Neighborhood Market - Alamogordo Indian Wells","locationId":159,"city":"Alamogordo","lat":32.9159433,"lng":-105.931196,"startTime":"11:00:00","endTime":"13:30:00","date":"2021-07-23","address1":"2401 Indian Wells Rd.","zip":"88310-38","primaryAppointments":3,"primaryCap":5,"boosterAppointments":1,"boosterCap":5,"brands":[2],"driveThrough":0,"wheelchairAccessible":null,"mobilityHelp":null,"deafAccommodations":null,"blindAccommodations":null,"paperworkAssistance":null,"seatingAvailable":null,"sensoryFriendly":null,"walkIn":1},{"name":"Walmart Neighborhood Market 5675 Menaul and Juan Tabo","locationId":160,"city":"Albuquerque","lat":35.10877847,"lng":-106.51781654,"startTime":"09:00:00","endTime":"20:00:00","date":"2021-07-23","address1":"11001 Menaul Blvd","zip":"87112","primaryAppointments":2,"primaryCap":60,"boosterAppointments":4,"boosterCap":60,"brands":[2],"driveThrough":0,"wheelchairAccessible":1,"mobilityHelp":1,"deafAccommodations":1,"blindAccommodations":1,"paperworkAssistance":1,"seatingAvailable":1,"sensoryFriendly":0,"walkIn":1},{"name":"Walmart Clovis","locationId":161,"city":"Clovis","lat":34.43711823,"lng":-103.2006662,"startTime":"10:00:00","endTime":"18:30:00","date":"2021-07-23","address1":"3728 N Prince St","zip":"88101-97","primaryAppointments":6,"primaryCap":6,"boosterAppointments":8,"boosterCap":8,"brands":[2],"driveThrough":0,"wheelchairAccessible":1,"mobilityHelp":0,"deafAccommodations":0,"blindAccommodations":0,"paperworkAssistance":1,"seatingAvailable":1,"sensoryFriendly":0,"walkIn":1},{"name":"Walmart - Portales","locationId":162,"city":"Portales","lat":34.19790879,"lng":-103.31932888,"startTime":"09:30:00","endTime":"12:30:00","date":"2021-07-23","address1":"1604 E Spruce St","zip":"88130-94","primaryAppointments":3,"primaryCap":6,"boosterAppointments":1,"boosterCap":6,"brands":[2],"driveThrough":0,"wheelchairAccessible":null,"mobilityHelp":null,"deafAccommodations":null,"blindAccommodations":null,"paperworkAssistance":null,"seatingAvailable":null,"sensoryFriendly":null,"walkIn":1},{"name":"NHM Golf Course Moderna Walkin","locationId":163,"city":"Albuquerque","lat":35.17995036,"lng":-106.69015597,"startTime":"09:00:00","endTime":"17:30:00","date":"2021-07-23","address1":"8511 Golf Course Rd NW","zip":"87114-48","primaryAppointments":1,"primaryCap":11,"boosterAppointments":1,"boosterCap":11,"brands":[2],"driveThrough":0,"wheelchairAccessible":1,"mobilityHelp":1,"deafAccommodations":1,"blindAccommodations":0,"paperworkAssistance":1,"seatingAvailable":1,"sensoryFriendly":1,"walkIn":0},{"name":"Las Vegas Walmart Pharmacy","locationId":165,"city":"Las Vegas","lat":35.62001926,"lng":-105.22765362,"startTime":"10:00:00","endTime":"16:00:00","date":"2021-07-23","address1":"2609 7th St","zip":"87701-48","primaryAppointments":3,"primaryCap":10,"boosterAppointments":3,"boosterCap":10,"brands":[2],"driveThrough":0,"wheelchairAccessible":1,"mobilityHelp":0,"deafAccommodations":0,"blindAccommodations":0,"paperworkAssistance":1,"seatingAvailable":1,"sensoryFriendly":0,"walkIn":1},{"name":"Walmart-Belen-1414","locationId":166,"city":"Belen","lat":34.69695185,"lng":-106.76842281,"startTime":"09:30:00","endTime":"17:00:00","date":"2021-07-23","address1":"1 I 25 Bypass","zip":"87002-81","primaryAppointments":4,"primaryCap":16,"boosterAppointments":5,"boosterCap":12,"brands":[2],"driveThrough":0,"wheelchairAccessible":1,"mobilityHelp":0,"deafAccommodations":0,"blindAccommodations":0,"paperworkAssistance":1,"seatingAvailable":1,"sensoryFriendly":1,"walkIn":1},{"name":"Walmart- Grants","locationId":167,"city":"Grants","lat":35.12417855,"lng":-107.82621389,"startTime":"09:30:00","endTime":"16:30:00","date":"2021-07-23","address1":"1000 Robert Rd","zip":"87020-40","primaryAppointments":4,"primaryCap":10,"boosterAppointments":0,"boosterCap":10,"brands":[1],"driveThrough":0,"wheelchairAccessible":1,"mobilityHelp":0,"deafAccommodations":1,"blindAccommodations":0,"paperworkAssistance":1,"seatingAvailable":1,"sensoryFriendly":1,"walkIn":1},{"name":"Walmart - Coors I-40--2924","locationId":169,"city":"Albuquerque","lat":35.10998404,"lng":-106.7016564,"startTime":"11:00:00","endTime":"17:00:00","date":"2021-07-23","address1":"2550 Coors Blvd NW","zip":"87120","primaryAppointments":2,"primaryCap":10,"boosterAppointments":7,"boosterCap":18,"brands":[2],"driveThrough":0,"wheelchairAccessible":1,"mobilityHelp":0,"deafAccommodations":0,"blindAccommodations":0,"paperworkAssistance":0,"seatingAvailable":1,"sensoryFriendly":0,"walkIn":1},{"name":"Walmart - Santa Fe Herrera 3423","locationId":170,"city":"Santa Fe","lat":35.61961019,"lng":-106.03256585,"startTime":"09:30:00","endTime":"13:00:00","date":"2021-07-23","address1":"5701 Herrera Dr","zip":"87507-26","primaryAppointments":0,"primaryCap":0,"boosterAppointments":1,"boosterCap":14,"brands":[2],"driveThrough":0,"wheelchairAccessible":1,"mobilityHelp":0,"deafAccommodations":1,"blindAccommodations":1,"paperworkAssistance":1,"seatingAvailable":1,"sensoryFriendly":0,"walkIn":1},{"name":"Walmart Pharmacy Los Lunas Moderna Vaccine","locationId":171,"city":"Los Lunas","lat":34.81644691,"lng":-106.76370398,"startTime":"10:00:00","endTime":"13:00:00","date":"2021-07-23","address1":"2250 Main St NW","zip":"87031-48","primaryAppointments":8,"primaryCap":12,"boosterAppointments":1,"boosterCap":0,"brands":[2],"driveThrough":0,"wheelchairAccessible":1,"mobilityHelp":0,"deafAccommodations":0,"blindAccommodations":1,"paperworkAssistance":1,"seatingAvailable":1,"sensoryFriendly":0,"walkIn":1},{"name":"Walmart-Bernalillo 3731","locationId":172,"city":"Bernalillo","lat":35.3194959,"lng":-106.57174681,"startTime":"09:00:00","endTime":"16:00:00","date":"2021-07-23","address1":"460 Highway 528","zip":"87004-66","primaryAppointments":1,"primaryCap":11,"boosterAppointments":0,"boosterCap":11,"brands":[2],"driveThrough":0,"wheelchairAccessible":1,"mobilityHelp":0,"deafAccommodations":1,"blindAccommodations":1,"paperworkAssistance":1,"seatingAvailable":1,"sensoryFriendly":1,"walkIn":1},{"name":"Walmart Neighborhood Market Cutler Store 2451","locationId":173,"city":"Albuquerque","lat":35.10440027,"lng":-106.59275797,"startTime":"09:00:00","endTime":"17:30:00","date":"2021-07-23","address1":"4700 Cutler Ave NE","zip":"87110-40","primaryAppointments":8,"primaryCap":15,"boosterAppointments":2,"boosterCap":15,"brands":[1],"driveThrough":0,"wheelchairAccessible":1,"mobilityHelp":0,"deafAccommodations":0,"blindAccommodations":0,"paperworkAssistance":1,"seatingAvailable":1,"sensoryFriendly":1,"walkIn":1},{"name":"Walmart Neighborhood Market 3385 Sage & 98th","locationId":174,"city":"Albuquerque","lat":35.05426216,"lng":-106.73944857,"startTime":"10:00:00","endTime":"15:00:00","date":"2021-07-23","address1":"9600 Sage Rd SW","zip":"87121-68","primaryAppointments":8,"primaryCap":8,"boosterAppointments":6,"boosterCap":8,"brands":[2],"driveThrough":0,"wheelchairAccessible":1,"mobilityHelp":0,"deafAccommodations":1,"blindAccommodations":1,"paperworkAssistance":0,"seatingAvailable":1,"sensoryFriendly":1,"walkIn":1},{"name":"walmart 3512 montgomery","locationId":176,"city":"Albuquerque","lat":35.12951592,"lng":-106.51774302,"startTime":"09:00:00","endTime":"20:30:00","date":"2021-07-23","address1":"11018 Montgomery Blvd NE","zip":"87111-39","primaryAppointments":3,"primaryCap":31,"boosterAppointments":4,"boosterCap":20,"brands":[2],"driveThrough":0,"wheelchairAccessible":1,"mobilityHelp":0,"deafAccommodations":1,"blindAccommodations":1,"paperworkAssistance":0,"seatingAvailable":1,"sensoryFriendly":1,"walkIn":1},{"name":"Walmart Neighborhood Market 3517 Rio Rancho Hwy 528","locationId":177,"city":"Rio Rancho","lat":35.23902043,"lng":-106.65894473,"startTime":"10:00:00","endTime":"20:00:00","date":"2021-07-23","address1":"1115 NM Hwy 528 SE","zip":"87124-00","primaryAppointments":0,"primaryCap":4,"boosterAppointments":7,"boosterCap":16,"brands":[2],"driveThrough":0,"wheelchairAccessible":1,"mobilityHelp":0,"deafAccommodations":1,"blindAccommodations":1,"paperworkAssistance":0,"seatingAvailable":1,"sensoryFriendly":1,"walkIn":1},{"name":"Walmart Neighborhood Market- Unser/Ladera","locationId":178,"city":"Albuquerque","lat":35.10228264,"lng":-106.72844695,"startTime":"09:00:00","endTime":"20:00:00","date":"2021-07-23","address1":"1820 Unser Blvd NW","zip":"87120-39","primaryAppointments":4,"primaryCap":28,"boosterAppointments":0,"boosterCap":5,"brands":[2],"driveThrough":0,"wheelchairAccessible":1,"mobilityHelp":0,"deafAccommodations":0,"blindAccommodations":0,"paperworkAssistance":0,"seatingAvailable":1,"sensoryFriendly":1,"walkIn":1},{"name":"Walmart - Edgewood-4201","locationId":179,"city":"Edgewood","lat":35.07051708,"lng":-106.18902695,"startTime":"09:00:00","endTime":"15:00:00","date":"2021-07-23","address1":"66 State Road 344","zip":"87015-68","primaryAppointments":6,"primaryCap":6,"boosterAppointments":4,"boosterCap":5,"brands":[2],"driveThrough":0,"wheelchairAccessible":1,"mobilityHelp":0,"deafAccommodations":0,"blindAccommodations":0,"paperworkAssistance":1,"seatingAvailable":1,"sensoryFriendly":0,"walkIn":1},{"name":"Walmart - Rio Bravo & Coors- 5430","locationId":181,"city":"Albuquerque","lat":35.02566256,"lng":-106.71093118,"startTime":"09:30:00","endTime":"19:00:00","date":"2021-07-23","address1":"3500 Coors Blvd SW","zip":"87121-52","primaryAppointments":7,"primaryCap":32,"boosterAppointments":13,"boosterCap":16,"brands":[2],"driveThrough":0,"wheelchairAccessible":1,"mobilityHelp":0,"deafAccommodations":1,"blindAccommodations":1,"paperworkAssistance":1,"seatingAvailable":1,"sensoryFriendly":1,"walkIn":1},{"name":"El Centro Family Health - Rio Arriba Health Commons","locationId":185,"city":"Espanola","lat":36.00669009,"lng":-106.10699021,"startTime":"09:00:00","endTime":"11:00:00","date":"2021-07-23","address1":"2010 Industrial Park Road","zip":"87532","primaryAppointments":1,"primaryCap":17,"boosterAppointments":3,"boosterCap":3,"brands":[2],"driveThrough":0,"wheelchairAccessible":1,"mobilityHelp":1,"deafAccommodations":1,"blindAccommodations":1,"paperworkAssistance":1,"seatingAvailable":1,"sensoryFriendly":1,"walkIn":1},{"name":"El Centro Family Health - Taos Clinic","locationId":186,"city":"Taos","lat":36.37220781,"lng":-105.59077082,"startTime":"15:00:00","endTime":"15:30:00","date":"2021-07-23","address1":"1331 Gusdorf Road","zip":"87571","primaryAppointments":3,"primaryCap":5,"boosterAppointments":4,"boosterCap":5,"brands":[1],"driveThrough":0,"wheelchairAccessible":1,"mobilityHelp":1,"deafAccommodations":1,"blindAccommodations":0,"paperworkAssistance":1,"seatingAvailable":1,"sensoryFriendly":1,"walkIn":1},{"name":"El Centro Family Health Penasco","locationId":187,"city":"Penasco","lat":36.17141875,"lng":-105.68395897,"startTime":"15:30:00","endTime":"16:00:00","date":"2021-07-23","address1":"15136 State Hwy 75","zip":"87553","primaryAppointments":2,"primaryCap":2,"boosterAppointments":2,"boosterCap":2,"brands":[2],"driveThrough":1,"wheelchairAccessible":1,"mobilityHelp":1,"deafAccommodations":0,"blindAccommodations":0,"paperworkAssistance":1,"seatingAvailable":1,"sensoryFriendly":1,"walkIn":1},{"name":"El Centro - Embudo Clinic","locationId":188,"city":"Embudo","lat":36.2158638,"lng":-105.87933882,"startTime":"15:30:00","endTime":"16:30:00","date":"2021-07-23","address1":"2243 Highway 68","zip":"87531","primaryAppointments":0,"primaryCap":0,"boosterAppointments":4,"boosterCap":4,"brands":[2],"driveThrough":0,"wheelchairAccessible":null,"mobilityHelp":null,"deafAccommodations":null,"blindAccommodations":null,"paperworkAssistance":null,"seatingAvailable":null,"sensoryFriendly":null,"walkIn":1},{"name":"Walgrrens 4047","locationId":189,"city":"Albuquerque","lat":35.07943359,"lng":-106.71160109,"startTime":"10:00:00","endTime":"17:30:00","date":"2021-07-23","address1":"101 COORS BLVD NW","zip":"87121","primaryAppointments":8,"primaryCap":11,"boosterAppointments":6,"boosterCap":11,"brands":[1],"driveThrough":0,"wheelchairAccessible":1,"mobilityHelp":1,"deafAccommodations":1,"blindAccommodations":1,"paperworkAssistance":1,"seatingAvailable":1,"sensoryFriendly":0,"walkIn":1},{"name":"Walgreens #7930","locationId":190,"city":"CARLSBAD","lat":32.43484668,"lng":-104.24596306,"startTime":"09:00:00","endTime":"12:30:00","date":"2021-07-23","address1":"1401 W PIERCE ST","zip":"88220-40","primaryAppointments":5,"primaryCap":40,"boosterAppointments":13,"boosterCap":30,"brands":[2],"driveThrough":0,"wheelchairAccessible":null,"mobilityHelp":null,"deafAccommodations":null,"blindAccommodations":null,"paperworkAssistance":null,"seatingAvailable":null,"sensoryFriendly":null,"walkIn":1},{"name":"Walgreens #15607","locationId":191,"city":"GRANTS","lat":35.12910308,"lng":-107.8289911,"startTime":"10:30:00","endTime":"17:30:00","date":"2021-07-23","address1":"1509 E SANTA FE AVE","zip":"87020-40","primaryAppointments":8,"primaryCap":8,"boosterAppointments":4,"boosterCap":4,"brands":[1],"driveThrough":0,"wheelchairAccessible":null,"mobilityHelp":null,"deafAccommodations":null,"blindAccommodations":null,"paperworkAssistance":null,"seatingAvailable":null,"sensoryFriendly":null,"walkIn":1},{"name":"Walgreens #4421","locationId":192,"city":"LAS CRUCES","lat":32.34144666,"lng":-106.77439685,"startTime":"08:00:00","endTime":"08:30:00","date":"2021-07-23","address1":"3100 N MAIN ST","zip":"88001-11","primaryAppointments":1,"primaryCap":5,"boosterAppointments":0,"boosterCap":0,"brands":[1],"driveThrough":0,"wheelchairAccessible":1,"mobilityHelp":1,"deafAccommodations":1,"blindAccommodations":1,"paperworkAssistance":1,"seatingAvailable":1,"sensoryFriendly":1,"walkIn":1},{"name":"Walgreens #3934","locationId":193,"city":"Santa Fe","lat":34.80242656,"lng":-106.72971277,"startTime":"08:00:00","endTime":"17:30:00","date":"2021-07-23","address1":"3298 CERRILLOS RD","zip":"87507-29","primaryAppointments":11,"primaryCap":24,"boosterAppointments":7,"boosterCap":9,"brands":[1],"driveThrough":0,"wheelchairAccessible":1,"mobilityHelp":0,"deafAccommodations":0,"blindAccommodations":0,"paperworkAssistance":0,"seatingAvailable":1,"sensoryFriendly":0,"walkIn":0},{"name":"Walgreens #4510","locationId":195,"city":"FARMINGTON","lat":36.75919585,"lng":-108.15517533,"startTime":"14:30:00","endTime":"18:00:00","date":"2021-07-23","address1":"4221 E MAIN ST","zip":"87402-86","primaryAppointments":4,"primaryCap":4,"boosterAppointments":1,"boosterCap":2,"brands":[1],"driveThrough":0,"wheelchairAccessible":1,"mobilityHelp":0,"deafAccommodations":0,"blindAccommodations":1,"paperworkAssistance":0,"seatingAvailable":1,"sensoryFriendly":1,"walkIn":1},{"name":"Walgreens ","locationId":197,"city":"Albuquerque","lat":35.17318036,"lng":-106.54308337,"startTime":"10:00:00","endTime":"17:00:00","date":"2021-07-23","address1":"8011 VENTURA ST NE","zip":"87109-64","primaryAppointments":6,"primaryCap":8,"boosterAppointments":5,"boosterCap":8,"brands":[1],"driveThrough":0,"wheelchairAccessible":1,"mobilityHelp":0,"deafAccommodations":0,"blindAccommodations":0,"paperworkAssistance":1,"seatingAvailable":1,"sensoryFriendly":1,"walkIn":0},{"name":"Walgreens 8400 Wyoming blvd NE","locationId":198,"city":"Albuquerque","lat":35.1299638,"lng":-106.5509217,"startTime":"10:00:00","endTime":"16:00:00","date":"2021-07-23","address1":"8400 MONTGOMERY BLVD NE","zip":"87111","primaryAppointments":4,"primaryCap":6,"boosterAppointments":0,"boosterCap":6,"brands":[1],"driveThrough":0,"wheelchairAccessible":1,"mobilityHelp":0,"deafAccommodations":0,"blindAccommodations":0,"paperworkAssistance":0,"seatingAvailable":1,"sensoryFriendly":1,"walkIn":1},{"name":"Albertson's - HOBBS","locationId":236,"city":"HOBBS","lat":32.72689521,"lng":-103.14410582,"startTime":"11:00:00","endTime":"13:30:00","date":"2021-07-23","address1":"2402 N. GRIMES","zip":"88220","primaryAppointments":5,"primaryCap":10,"boosterAppointments":0,"boosterCap":0,"brands":[2],"driveThrough":0,"wheelchairAccessible":null,"mobilityHelp":null,"deafAccommodations":null,"blindAccommodations":null,"paperworkAssistance":null,"seatingAvailable":null,"sensoryFriendly":null,"walkIn":1},{"name":"Albertsons Market Pharmacy 682","locationId":238,"city":"RUIDOSO","lat":33.34738969,"lng":-105.67632819,"startTime":"10:30:00","endTime":"16:30:00","date":"2021-07-23","address1":"721 MECHEM DRIVE","zip":"88345","primaryAppointments":2,"primaryCap":12,"boosterAppointments":0,"boosterCap":12,"brands":[3],"driveThrough":0,"wheelchairAccessible":1,"mobilityHelp":1,"deafAccommodations":0,"blindAccommodations":0,"paperworkAssistance":1,"seatingAvailable":1,"sensoryFriendly":1,"walkIn":1},{"name":"Albertsons Pharmacy","locationId":239,"city":"ROSWELL","lat":33.38072826,"lng":-104.52503745,"startTime":"10:00:00","endTime":"16:00:00","date":"2021-07-23","address1":"1110 S. MAIN ST.","zip":"88203","primaryAppointments":3,"primaryCap":45,"boosterAppointments":0,"boosterCap":0,"brands":[3],"driveThrough":0,"wheelchairAccessible":1,"mobilityHelp":1,"deafAccommodations":0,"blindAccommodations":0,"paperworkAssistance":1,"seatingAvailable":1,"sensoryFriendly":1,"walkIn":1},{"name":"Albertson's - ABQ Montgomery","locationId":242,"city":"Albuquerque","lat":35.12904195,"lng":-106.58876811,"startTime":"12:00:00","endTime":"18:00:00","date":"2021-07-23","address1":"4950 MONTGOMERY BLVD NE","zip":"87109","primaryAppointments":8,"primaryCap":8,"boosterAppointments":7,"boosterCap":7,"brands":[1],"driveThrough":0,"wheelchairAccessible":1,"mobilityHelp":0,"deafAccommodations":1,"blindAccommodations":1,"paperworkAssistance":1,"seatingAvailable":1,"sensoryFriendly":0,"walkIn":1},{"name":"Albertson's - ABQ Juan Tabo","locationId":243,"city":"Albuquerque","lat":35.11458583,"lng":-106.51428335,"startTime":"12:00:00","endTime":"13:30:00","date":"2021-07-23","address1":"2910 JUAN TABO BLVD NE","zip":"87112","primaryAppointments":11,"primaryCap":11,"boosterAppointments":1,"boosterCap":1,"brands":[1],"driveThrough":0,"wheelchairAccessible":1,"mobilityHelp":0,"deafAccommodations":0,"blindAccommodations":0,"paperworkAssistance":0,"seatingAvailable":1,"sensoryFriendly":1,"walkIn":0},{"name":"Albertsons Eubank","locationId":244,"city":"Albuquerque","lat":35.11459085,"lng":-106.53575362,"startTime":"12:30:00","endTime":"15:30:00","date":"2021-07-23","address1":"2801 EUBANK BLVD NE STE A","zip":"87112","primaryAppointments":2,"primaryCap":2,"boosterAppointments":4,"boosterCap":4,"brands":[1],"driveThrough":0,"wheelchairAccessible":1,"mobilityHelp":0,"deafAccommodations":0,"blindAccommodations":1,"paperworkAssistance":0,"seatingAvailable":1,"sensoryFriendly":0,"walkIn":0},{"name":"Albertson's Coors and Montano","locationId":245,"city":"Albuquerque","lat":35.15165874,"lng":-106.68282515,"startTime":"10:30:00","endTime":"18:00:00","date":"2021-07-23","address1":"6200 COORS BLVD NW","zip":"87120","primaryAppointments":18,"primaryCap":20,"boosterAppointments":25,"boosterCap":25,"brands":[1],"driveThrough":0,"wheelchairAccessible":1,"mobilityHelp":0,"deafAccommodations":0,"blindAccommodations":0,"paperworkAssistance":0,"seatingAvailable":1,"sensoryFriendly":0,"walkIn":0},{"name":"Albertsons on Rio Bravo & Isleta","locationId":246,"city":"Albuquerque","lat":35.02797451,"lng":-106.68255503,"startTime":"12:30:00","endTime":"14:30:00","date":"2021-07-23","address1":"1625 RIO BRAVO BLVD SW","zip":"87105","primaryAppointments":11,"primaryCap":12,"boosterAppointments":12,"boosterCap":12,"brands":[1],"driveThrough":0,"wheelchairAccessible":1,"mobilityHelp":1,"deafAccommodations":1,"blindAccommodations":1,"paperworkAssistance":1,"seatingAvailable":1,"sensoryFriendly":1,"walkIn":1},{"name":"Albertsons Los Lunas","locationId":247,"city":"LOS LUNAS","lat":34.80334699,"lng":-106.70457543,"startTime":"10:30:00","endTime":"13:30:00","date":"2021-07-23","address1":"2351 MAIN STREET SE","zip":"87031","primaryAppointments":5,"primaryCap":6,"boosterAppointments":9,"boosterCap":11,"brands":[1],"driveThrough":0,"wheelchairAccessible":1,"mobilityHelp":0,"deafAccommodations":0,"blindAccommodations":0,"paperworkAssistance":1,"seatingAvailable":1,"sensoryFriendly":1,"walkIn":1},{"name":"Albertson's - TAOS","locationId":248,"city":"Taos","lat":36.39167359,"lng":-105.58310168,"startTime":"10:00:00","endTime":"15:30:00","date":"2021-07-23","address1":"710 PASEO DEL PUEBLO SUR STE A","zip":"87571","primaryAppointments":6,"primaryCap":10,"boosterAppointments":2,"boosterCap":2,"brands":[2],"driveThrough":0,"wheelchairAccessible":1,"mobilityHelp":1,"deafAccommodations":1,"blindAccommodations":0,"paperworkAssistance":1,"seatingAvailable":1,"sensoryFriendly":1,"walkIn":1},{"name":"Albertson's - RIO RANCHO Enchanted Hills","locationId":249,"city":"RIO RANCHO","lat":35.32304677,"lng":-106.57716273,"startTime":"10:00:00","endTime":"13:30:00","date":"2021-07-23","address1":"7800 ENCHANTED HILLS BLVD NE","zip":"87144","primaryAppointments":9,"primaryCap":9,"boosterAppointments":6,"boosterCap":6,"brands":[1],"driveThrough":0,"wheelchairAccessible":1,"mobilityHelp":0,"deafAccommodations":1,"blindAccommodations":1,"paperworkAssistance":1,"seatingAvailable":1,"sensoryFriendly":1,"walkIn":0},{"name":"Albertsons Pharmacy Ventura","locationId":250,"city":"Albuquerque","lat":35.17507376,"lng":-106.54095736,"startTime":"11:00:00","endTime":"16:30:00","date":"2021-07-23","address1":"8100 VENTURA ST NE","zip":"87122","primaryAppointments":5,"primaryCap":10,"boosterAppointments":1,"boosterCap":8,"brands":[1],"driveThrough":0,"wheelchairAccessible":1,"mobilityHelp":0,"deafAccommodations":0,"blindAccommodations":0,"paperworkAssistance":0,"seatingAvailable":1,"sensoryFriendly":0,"walkIn":1},{"name":"MarketStreet Pharmacy #927","locationId":251,"city":"Santa Fe","lat":35.6930939,"lng":-105.95171933,"startTime":"10:30:00","endTime":"15:00:00","date":"2021-07-23","address1":"600 N GUADALUPE ST","zip":"87501","primaryAppointments":7,"primaryCap":11,"boosterAppointments":14,"boosterCap":17,"brands":[1],"driveThrough":0,"wheelchairAccessible":1,"mobilityHelp":0,"deafAccommodations":0,"blindAccommodations":0,"paperworkAssistance":0,"seatingAvailable":1,"sensoryFriendly":0,"walkIn":1},{"name":"Albertson's on Lomas","locationId":252,"city":"Albuquerque","lat":35.08736141,"lng":-106.51649462,"startTime":"11:00:00","endTime":"15:00:00","date":"2021-07-23","address1":"11825 LOMAS BLVD NE","zip":"87122","primaryAppointments":6,"primaryCap":6,"boosterAppointments":5,"boosterCap":6,"brands":[1],"driveThrough":0,"wheelchairAccessible":1,"mobilityHelp":1,"deafAccommodations":1,"blindAccommodations":1,"paperworkAssistance":1,"seatingAvailable":1,"sensoryFriendly":0,"walkIn":1},{"name":"Albertson's - ABQ 10131 COORS ","locationId":253,"city":"Albuquerque","lat":35.19938695,"lng":-106.65168169,"startTime":"10:30:00","endTime":"17:00:00","date":"2021-07-23","address1":"10131 COORS BLVD NW","zip":"87114","primaryAppointments":9,"primaryCap":11,"boosterAppointments":5,"boosterCap":8,"brands":[1],"driveThrough":0,"wheelchairAccessible":1,"mobilityHelp":0,"deafAccommodations":1,"blindAccommodations":1,"paperworkAssistance":1,"seatingAvailable":1,"sensoryFriendly":1,"walkIn":1},{"name":"Albertson's - ABQ WYOMING","locationId":254,"city":"Albuquerque","lat":35.15999804,"lng":-106.56136197,"startTime":"10:00:00","endTime":"15:00:00","date":"2021-07-23","address1":"7101 WYOMING BLVD NE","zip":"87109","primaryAppointments":10,"primaryCap":10,"boosterAppointments":14,"boosterCap":20,"brands":[1],"driveThrough":0,"wheelchairAccessible":1,"mobilityHelp":1,"deafAccommodations":0,"blindAccommodations":0,"paperworkAssistance":1,"seatingAvailable":1,"sensoryFriendly":1,"walkIn":1},{"name":"El Centro Family Health - Las Vegas","locationId":274,"city":"Las Vegas","lat":35.60150832,"lng":-105.22352676,"startTime":"09:30:00","endTime":"14:30:00","date":"2021-07-23","address1":"1235 8th Street","zip":"87701","primaryAppointments":7,"primaryCap":9,"boosterAppointments":9,"boosterCap":21,"brands":[2],"driveThrough":1,"wheelchairAccessible":1,"mobilityHelp":1,"deafAccommodations":1,"blindAccommodations":1,"paperworkAssistance":1,"seatingAvailable":1,"sensoryFriendly":1,"walkIn":1},{"name":"Sam's Club","locationId":291,"city":"Albuquerque","lat":35.20942482,"lng":-106.65847003,"startTime":"10:00:00","endTime":"15:30:00","date":"2021-07-23","address1":"10600 Coors Bypass NW","zip":"87114","primaryAppointments":4,"primaryCap":16,"boosterAppointments":3,"boosterCap":16,"brands":[2],"driveThrough":0,"wheelchairAccessible":1,"mobilityHelp":1,"deafAccommodations":1,"blindAccommodations":1,"paperworkAssistance":1,"seatingAvailable":1,"sensoryFriendly":1,"walkIn":1},{"name":"Sam's Club - Farmington","locationId":292,"city":"Farmington","lat":36.7660891,"lng":-108.15399606,"startTime":"10:00:00","endTime":"16:30:00","date":"2021-07-23","address1":"4500 E Main St","zip":"87402","primaryAppointments":4,"primaryCap":4,"boosterAppointments":6,"boosterCap":6,"brands":[2],"driveThrough":0,"wheelchairAccessible":1,"mobilityHelp":1,"deafAccommodations":1,"blindAccommodations":1,"paperworkAssistance":1,"seatingAvailable":1,"sensoryFriendly":1,"walkIn":1},{"name":"Roden Smith Pharmacy","locationId":312,"city":"Clovis","lat":34.43330721,"lng":-103.20588339,"startTime":"10:00:00","endTime":"17:00:00","date":"2021-07-23","address1":"305 E. Llano Estacado","zip":"88101","primaryAppointments":5,"primaryCap":30,"boosterAppointments":19,"boosterCap":30,"brands":[2],"driveThrough":0,"wheelchairAccessible":1,"mobilityHelp":0,"deafAccommodations":1,"blindAccommodations":0,"paperworkAssistance":1,"seatingAvailable":1,"sensoryFriendly":1,"walkIn":1},{"name":"Duran Central Pharmacy","locationId":317,"city":"Albuquerque","lat":35.09241873,"lng":-106.66727573,"startTime":"08:30:00","endTime":"10:30:00","date":"2021-07-23","address1":"1815 Central Ave NW","zip":"87104","primaryAppointments":3,"primaryCap":4,"boosterAppointments":4,"boosterCap":7,"brands":[2],"driveThrough":0,"wheelchairAccessible":1,"mobilityHelp":0,"deafAccommodations":1,"blindAccommodations":0,"paperworkAssistance":1,"seatingAvailable":1,"sensoryFriendly":1,"walkIn":1},{"name":"Presbyterian COVID-19 Vaccination Albuquerque Ambulance Services","locationId":330,"city":"Albuquerque","lat":35.13310317,"lng":-106.62233805,"startTime":"08:00:00","endTime":"15:00:00","date":"2021-07-23","address1":"4500 Montbel Pl NE","zip":"87107","primaryAppointments":40,"primaryCap":176,"boosterAppointments":10,"boosterCap":125,"brands":[1],"driveThrough":1,"wheelchairAccessible":1,"mobilityHelp":1,"deafAccommodations":1,"blindAccommodations":0,"paperworkAssistance":1,"seatingAvailable":1,"sensoryFriendly":0,"walkIn":1},{"name":"Walgreens","locationId":358,"city":"ROSWELL","lat":33.37909231,"lng":-104.52337718,"startTime":"10:00:00","endTime":"12:30:00","date":"2021-07-23","address1":"1200 S MAIN ST","zip":"88203-55","primaryAppointments":4,"primaryCap":6,"boosterAppointments":2,"boosterCap":6,"brands":[2],"driveThrough":0,"wheelchairAccessible":1,"mobilityHelp":0,"deafAccommodations":0,"blindAccommodations":0,"paperworkAssistance":1,"seatingAvailable":1,"sensoryFriendly":0,"walkIn":1},{"name":"Walgreens","locationId":361,"city":"Albuquerque","lat":35.08772897,"lng":-106.60514157,"startTime":"11:00:00","endTime":"16:00:00","date":"2021-07-23","address1":"3501 LOMAS BLVD NE","zip":"87106-13","primaryAppointments":0,"primaryCap":0,"boosterAppointments":4,"boosterCap":24,"brands":[1],"driveThrough":0,"wheelchairAccessible":1,"mobilityHelp":1,"deafAccommodations":1,"blindAccommodations":1,"paperworkAssistance":1,"seatingAvailable":1,"sensoryFriendly":1,"walkIn":1},{"name":"Walgreens #2900","locationId":363,"city":"Santa Fe","lat":35.67513915,"lng":-105.95435362,"startTime":"10:00:00","endTime":"17:00:00","date":"2021-07-23","address1":"1096 S SAINT FRANCIS DR","zip":"87505-16","primaryAppointments":0,"primaryCap":0,"boosterAppointments":0,"boosterCap":20,"brands":[2],"driveThrough":0,"wheelchairAccessible":1,"mobilityHelp":0,"deafAccommodations":1,"blindAccommodations":1,"paperworkAssistance":0,"seatingAvailable":1,"sensoryFriendly":1,"walkIn":0},{"name":"Walgreens #5731 @ GOLF COURSE & PARADISE","locationId":365,"city":"Albuquerque","lat":35.18763823,"lng":-106.68417136,"startTime":"10:00:00","endTime":"17:00:00","date":"2021-07-23","address1":"9500 GOLF COURSE RD NW","zip":"87114-42","primaryAppointments":3,"primaryCap":3,"boosterAppointments":22,"boosterCap":22,"brands":[1],"driveThrough":0,"wheelchairAccessible":1,"mobilityHelp":0,"deafAccommodations":0,"blindAccommodations":0,"paperworkAssistance":0,"seatingAvailable":1,"sensoryFriendly":0,"walkIn":0},{"name":"Walgreens in Edgewood ","locationId":369,"city":"EDGEWOOD","lat":35.06048159,"lng":-106.19254119,"startTime":"10:00:00","endTime":"16:30:00","date":"2021-07-23","address1":"5 WALKER RD","zip":"87015-87","primaryAppointments":3,"primaryCap":10,"boosterAppointments":0,"boosterCap":0,"brands":[2],"driveThrough":0,"wheelchairAccessible":1,"mobilityHelp":0,"deafAccommodations":0,"blindAccommodations":1,"paperworkAssistance":1,"seatingAvailable":1,"sensoryFriendly":1,"walkIn":1},{"name":"Walgreens #11360","locationId":374,"city":"Albuquerque","lat":35.12940871,"lng":-106.51596991,"startTime":"10:00:00","endTime":"11:30:00","date":"2021-07-23","address1":"11200 MONTGOMERY BLVD NE","zip":"87111-","primaryAppointments":0,"primaryCap":0,"boosterAppointments":5,"boosterCap":6,"brands":[1],"driveThrough":0,"wheelchairAccessible":1,"mobilityHelp":0,"deafAccommodations":0,"blindAccommodations":1,"paperworkAssistance":0,"seatingAvailable":1,"sensoryFriendly":1,"walkIn":1},{"name":"Walgreens","locationId":376,"city":"Albuquerque","lat":35.10821758,"lng":-106.53322387,"startTime":"09:30:00","endTime":"17:00:00","date":"2021-07-23","address1":"9700 MENAUL BLVD NE","zip":"87112-23","primaryAppointments":9,"primaryCap":15,"boosterAppointments":14,"boosterCap":15,"brands":[1],"driveThrough":0,"wheelchairAccessible":1,"mobilityHelp":1,"deafAccommodations":1,"blindAccommodations":1,"paperworkAssistance":1,"seatingAvailable":1,"sensoryFriendly":1,"walkIn":1},{"name":"Walgreens Harper and Wyoming","locationId":378,"city":"Albuquerque","lat":35.15920189,"lng":-106.55912554,"startTime":"14:30:00","endTime":"17:00:00","date":"2021-07-23","address1":"8011 HARPER DR NE","zip":"87111-10","primaryAppointments":0,"primaryCap":0,"boosterAppointments":4,"boosterCap":6,"brands":[1],"driveThrough":0,"wheelchairAccessible":1,"mobilityHelp":0,"deafAccommodations":1,"blindAccommodations":1,"paperworkAssistance":1,"seatingAvailable":0,"sensoryFriendly":0,"walkIn":0},{"name":"Walgreens North","locationId":381,"city":"ROSWELL","lat":33.41501086,"lng":-104.52228783,"startTime":"09:00:00","endTime":"17:00:00","date":"2021-07-23","address1":"1835 N MAIN ST","zip":"88201-51","primaryAppointments":14,"primaryCap":32,"boosterAppointments":0,"boosterCap":32,"brands":[2],"driveThrough":0,"wheelchairAccessible":1,"mobilityHelp":1,"deafAccommodations":1,"blindAccommodations":1,"paperworkAssistance":1,"seatingAvailable":1,"sensoryFriendly":1,"walkIn":1},{"name":"Walgreens #9336","locationId":384,"city":"Albuquerque","lat":35.10766418,"lng":-106.66050315,"startTime":"10:00:00","endTime":"15:30:00","date":"2021-07-23","address1":"2011 12TH ST NW","zip":"87104-23","primaryAppointments":6,"primaryCap":6,"boosterAppointments":0,"boosterCap":0,"brands":[3],"driveThrough":0,"wheelchairAccessible":1,"mobilityHelp":0,"deafAccommodations":1,"blindAccommodations":0,"paperworkAssistance":1,"seatingAvailable":1,"sensoryFriendly":1,"walkIn":0},{"name":"Walgreens #11458","locationId":386,"city":"LAS CRUCES","lat":32.31881077,"lng":-106.73233718,"startTime":"09:30:00","endTime":"12:00:00","date":"2021-07-23","address1":"3990 E LOHMAN AVE","zip":"88011-82","primaryAppointments":7,"primaryCap":30,"boosterAppointments":0,"boosterCap":0,"brands":[3],"driveThrough":0,"wheelchairAccessible":1,"mobilityHelp":0,"deafAccommodations":1,"blindAccommodations":1,"paperworkAssistance":1,"seatingAvailable":1,"sensoryFriendly":1,"walkIn":1},{"name":"Walgreens Pharmacy Rinconada & Northrise","locationId":387,"city":"LAS CRUCES","lat":32.3621109,"lng":-106.74877326,"startTime":"13:30:00","endTime":"14:00:00","date":"2021-07-23","address1":"3375 RINCONADA BLVD","zip":"88011-72","primaryAppointments":1,"primaryCap":6,"boosterAppointments":0,"boosterCap":0,"brands":[3],"driveThrough":0,"wheelchairAccessible":1,"mobilityHelp":1,"deafAccommodations":1,"blindAccommodations":1,"paperworkAssistance":1,"seatingAvailable":1,"sensoryFriendly":1,"walkIn":1},{"name":"Walgreens Pharmacy","locationId":389,"city":"BERNALILLO","lat":35.31853747,"lng":-106.54429519,"startTime":"10:30:00","endTime":"11:30:00","date":"2021-07-23","address1":"100 E HIGHWAY 550","zip":"87004-59","primaryAppointments":0,"primaryCap":0,"boosterAppointments":0,"boosterCap":6,"brands":[1],"driveThrough":0,"wheelchairAccessible":1,"mobilityHelp":0,"deafAccommodations":0,"blindAccommodations":0,"paperworkAssistance":1,"seatingAvailable":1,"sensoryFriendly":1,"walkIn":0},{"name":"walgreens 15929","locationId":392,"city":"Albuquerque","lat":35.08076133,"lng":-106.63623342,"startTime":"10:00:00","endTime":"15:00:00","date":"2021-07-23","address1":"201 CEDAR ST SE","zip":"87106-49","primaryAppointments":5,"primaryCap":5,"boosterAppointments":0,"boosterCap":5,"brands":[3],"driveThrough":0,"wheelchairAccessible":1,"mobilityHelp":0,"deafAccommodations":0,"blindAccommodations":0,"paperworkAssistance":1,"seatingAvailable":1,"sensoryFriendly":1,"walkIn":1},{"name":"Walgreens #2053","locationId":395,"city":"Albuquerque","lat":35.19246704,"lng":-106.72754479,"startTime":"10:00:00","endTime":"12:30:00","date":"2021-07-23","address1":"6565 PARADISE BLVD NW","zip":"87114","primaryAppointments":2,"primaryCap":6,"boosterAppointments":0,"boosterCap":0,"brands":[2],"driveThrough":0,"wheelchairAccessible":1,"mobilityHelp":1,"deafAccommodations":1,"blindAccommodations":1,"paperworkAssistance":1,"seatingAvailable":1,"sensoryFriendly":1,"walkIn":1},{"name":"Walgreens #4950","locationId":398,"city":"Clovis","lat":34.41894818,"lng":-103.19766022,"startTime":"10:00:00","endTime":"16:00:00","date":"2021-07-23","address1":"700 E 21ST ST","zip":"88101","primaryAppointments":0,"primaryCap":12,"boosterAppointments":0,"boosterCap":12,"brands":[2],"driveThrough":0,"wheelchairAccessible":null,"mobilityHelp":null,"deafAccommodations":null,"blindAccommodations":null,"paperworkAssistance":null,"seatingAvailable":null,"sensoryFriendly":null,"walkIn":1},{"name":"Walgreens #11959","locationId":406,"city":"Albuquerque","lat":35.07777413,"lng":-106.58782285,"startTime":"10:00:00","endTime":"16:30:00","date":"2021-07-23","address1":"5201 CENTRAL AVE NE","zip":"87108","primaryAppointments":4,"primaryCap":10,"boosterAppointments":0,"boosterCap":0,"brands":[2],"driveThrough":0,"wheelchairAccessible":null,"mobilityHelp":null,"deafAccommodations":null,"blindAccommodations":null,"paperworkAssistance":null,"seatingAvailable":null,"sensoryFriendly":null,"walkIn":1},{"name":"Walgreens 4th and Griegos","locationId":409,"city":"Albuquerque","lat":35.12991653,"lng":-106.64227552,"startTime":"09:30:00","endTime":"13:00:00","date":"2021-07-23","address1":"4700 4TH ST NW","zip":"87107-39","primaryAppointments":10,"primaryCap":10,"boosterAppointments":10,"boosterCap":10,"brands":[2],"driveThrough":0,"wheelchairAccessible":1,"mobilityHelp":1,"deafAccommodations":1,"blindAccommodations":1,"paperworkAssistance":1,"seatingAvailable":1,"sensoryFriendly":1,"walkIn":1},{"name":"Walgreens in Taos","locationId":411,"city":"Taos","lat":36.38947014,"lng":-105.58257136,"startTime":"11:00:00","endTime":"15:30:00","date":"2021-07-23","address1":"811 PASEO DEL PUEBLO SUR","zip":"87571-63","primaryAppointments":5,"primaryCap":5,"boosterAppointments":1,"boosterCap":5,"brands":[1],"driveThrough":0,"wheelchairAccessible":1,"mobilityHelp":1,"deafAccommodations":1,"blindAccommodations":1,"paperworkAssistance":1,"seatingAvailable":1,"sensoryFriendly":1,"walkIn":1},{"name":"WALGREENS","locationId":412,"city":"BELEN","lat":34.66350523,"lng":-106.77680489,"startTime":"10:00:00","endTime":"10:30:00","date":"2021-07-23","address1":"315 N MAIN ST","zip":"87002-37","primaryAppointments":0,"primaryCap":0,"boosterAppointments":1,"boosterCap":2,"brands":[1],"driveThrough":0,"wheelchairAccessible":1,"mobilityHelp":0,"deafAccommodations":0,"blindAccommodations":0,"paperworkAssistance":1,"seatingAvailable":1,"sensoryFriendly":1,"walkIn":1},{"name":"Walgreens #9213 at Wyoming and Indian School","locationId":413,"city":"Albuquerque","lat":35.10214394,"lng":-106.55065116,"startTime":"10:00:00","endTime":"11:30:00","date":"2021-07-23","address1":"1900 WYOMING BLVD NE","zip":"87112-28","primaryAppointments":5,"primaryCap":6,"boosterAppointments":0,"boosterCap":0,"brands":[1],"driveThrough":0,"wheelchairAccessible":1,"mobilityHelp":0,"deafAccommodations":0,"blindAccommodations":0,"paperworkAssistance":1,"seatingAvailable":1,"sensoryFriendly":1,"walkIn":1},{"name":"Presbyterian COVID-19 Vaccination Hub at Plains Regional Medical","locationId":428,"city":"Clovis","lat":34.4196443,"lng":-103.23643898,"startTime":"08:30:00","endTime":"14:00:00","date":"2021-07-23","address1":"2200 W. 21st","zip":"88101","primaryAppointments":2,"primaryCap":55,"boosterAppointments":0,"boosterCap":0,"brands":[3],"driveThrough":0,"wheelchairAccessible":null,"mobilityHelp":null,"deafAccommodations":null,"blindAccommodations":null,"paperworkAssistance":null,"seatingAvailable":null,"sensoryFriendly":null,"walkIn":1},{"name":"BCA Medical Associates - Artesia","locationId":443,"city":"Artesia","lat":32.84796422,"lng":-104.39917361,"startTime":"08:30:00","endTime":"16:00:00","date":"2021-07-23","address1":"608 N. 1st Street","zip":"88210","primaryAppointments":3,"primaryCap":4,"boosterAppointments":6,"boosterCap":8,"brands":[2],"driveThrough":0,"wheelchairAccessible":1,"mobilityHelp":0,"deafAccommodations":0,"blindAccommodations":0,"paperworkAssistance":1,"seatingAvailable":1,"sensoryFriendly":1,"walkIn":1},{"name":"Nambe Drugs Santa Fe","locationId":450,"city":"Santa Fe","lat":35.68087345,"lng":-105.93768949,"startTime":"10:30:00","endTime":"12:30:00","date":"2021-07-23","address1":"501 Old Santa Fe Trail","zip":"87505-03","primaryAppointments":3,"primaryCap":9,"boosterAppointments":0,"boosterCap":11,"brands":[2],"driveThrough":0,"wheelchairAccessible":1,"mobilityHelp":0,"deafAccommodations":0,"blindAccommodations":0,"paperworkAssistance":1,"seatingAvailable":1,"sensoryFriendly":0,"walkIn":1},{"name":"NMSU Health and Wellness Center","locationId":502,"city":"Las Cruces","lat":32.27977498,"lng":-106.7495383,"startTime":"11:00:00","endTime":"16:00:00","date":"2021-07-23","address1":"3080 Breland Dr","zip":"88003-80","primaryAppointments":10,"primaryCap":24,"boosterAppointments":0,"boosterCap":18,"brands":[1],"driveThrough":0,"wheelchairAccessible":1,"mobilityHelp":0,"deafAccommodations":1,"blindAccommodations":0,"paperworkAssistance":1,"seatingAvailable":1,"sensoryFriendly":0,"walkIn":0},{"name":"Summits Healthcare","locationId":505,"city":"Deming","lat":32.26941702,"lng":-107.75268256,"startTime":"09:00:00","endTime":"12:30:00","date":"2021-07-23","address1":"111 N Pearl St","zip":"88030","primaryAppointments":4,"primaryCap":5,"boosterAppointments":3,"boosterCap":6,"brands":[2],"driveThrough":1,"wheelchairAccessible":1,"mobilityHelp":0,"deafAccommodations":0,"blindAccommodations":0,"paperworkAssistance":1,"seatingAvailable":1,"sensoryFriendly":1,"walkIn":0},{"name":"ACUTE CARE HOUSE CALLS LLC","locationId":522,"city":"Los Lunas","lat":34.81114218,"lng":-106.76663162,"startTime":"08:00:00","endTime":"12:00:00","date":"2021-07-23","address1":"2210 Sun Ranch Village Loop","zip":"87031","primaryAppointments":3,"primaryCap":72,"boosterAppointments":0,"boosterCap":8,"brands":[3],"driveThrough":1,"wheelchairAccessible":1,"mobilityHelp":1,"deafAccommodations":1,"blindAccommodations":1,"paperworkAssistance":1,"seatingAvailable":1,"sensoryFriendly":1,"walkIn":1},{"name":"Santa Teresa Children's Night Clinic","locationId":542,"city":"Santa Teresa","lat":31.846116,"lng":-106.621956,"startTime":"10:00:00","endTime":"13:30:00","date":"2021-07-23","address1":"1245 Country Club Rd.","zip":"88008","primaryAppointments":1,"primaryCap":28,"boosterAppointments":1,"boosterCap":28,"brands":[2],"driveThrough":0,"wheelchairAccessible":1,"mobilityHelp":1,"deafAccommodations":1,"blindAccommodations":1,"paperworkAssistance":1,"seatingAvailable":1,"sensoryFriendly":1,"walkIn":1},{"name":"pinon family pharmacy","locationId":565,"city":"Farmington","lat":36.75701007,"lng":-108.17725053,"startTime":"10:30:00","endTime":"11:00:00","date":"2021-07-23","address1":"2300 B East 30th Suite 101","zip":"87401","primaryAppointments":0,"primaryCap":1,"boosterAppointments":1,"boosterCap":2,"brands":[2],"driveThrough":0,"wheelchairAccessible":1,"mobilityHelp":1,"deafAccommodations":1,"blindAccommodations":1,"paperworkAssistance":1,"seatingAvailable":1,"sensoryFriendly":1,"walkIn":1},{"name":"Sierra Blanca Pharmacy","locationId":595,"city":"Ruidoso","lat":33.36838384,"lng":-105.66813088,"startTime":"09:00:00","endTime":"16:00:00","date":"2021-07-23","address1":"1206 Mechem Dr.","zip":"88345","primaryAppointments":19,"primaryCap":30,"boosterAppointments":6,"boosterCap":30,"brands":[2],"driveThrough":1,"wheelchairAccessible":1,"mobilityHelp":1,"deafAccommodations":0,"blindAccommodations":0,"paperworkAssistance":1,"seatingAvailable":1,"sensoryFriendly":1,"walkIn":1},{"name":"MANNM","locationId":623,"city":"Los Alamos","lat":35.88096546,"lng":-106.31851286,"startTime":"12:00:00","endTime":"13:00:00","date":"2021-07-23","address1":"3917 West Road Suite A","zip":"87544","primaryAppointments":0,"primaryCap":0,"boosterAppointments":0,"boosterCap":6,"brands":[2],"driveThrough":0,"wheelchairAccessible":1,"mobilityHelp":0,"deafAccommodations":0,"blindAccommodations":0,"paperworkAssistance":1,"seatingAvailable":1,"sensoryFriendly":1,"walkIn":1},{"name":"Advanced Allergy Associates of NM","locationId":646,"city":"Albuquerque","lat":35.12779643,"lng":-106.58502778,"startTime":"08:30:00","endTime":"11:30:00","date":"2021-07-23","address1":"5310 Homestead Rd NE Ste 201","zip":"87110","primaryAppointments":10,"primaryCap":14,"boosterAppointments":6,"boosterCap":8,"brands":[2],"driveThrough":0,"wheelchairAccessible":1,"mobilityHelp":1,"deafAccommodations":0,"blindAccommodations":0,"paperworkAssistance":1,"seatingAvailable":1,"sensoryFriendly":1,"walkIn":0},{"name":"One Care Pharmacy ","locationId":741,"city":"Gallup","lat":35.52384292,"lng":-108.75290155,"startTime":"13:00:00","endTime":"14:00:00","date":"2021-07-23","address1":"907 W Coal Ave","zip":"87301","primaryAppointments":4,"primaryCap":4,"boosterAppointments":1,"boosterCap":6,"brands":[2],"driveThrough":0,"wheelchairAccessible":1,"mobilityHelp":1,"deafAccommodations":1,"blindAccommodations":0,"paperworkAssistance":1,"seatingAvailable":1,"sensoryFriendly":1,"walkIn":1},{"name":"Mountainair Meds & More","locationId":756,"city":"Mountainair","lat":34.52044572,"lng":-106.24194273,"startTime":"13:00:00","endTime":"16:00:00","date":"2021-07-23","address1":"111 West Broadway","zip":"87036","primaryAppointments":0,"primaryCap":261108,"boosterAppointments":0,"boosterCap":261108,"brands":[2],"driveThrough":1,"wheelchairAccessible":1,"mobilityHelp":1,"deafAccommodations":1,"blindAccommodations":1,"paperworkAssistance":1,"seatingAvailable":1,"sensoryFriendly":1,"walkIn":1},{"name":"Pharmaca Integrative Pharmacy","locationId":764,"city":"Santa Fe","lat":35.67293583,"lng":-105.95353254,"startTime":"09:00:00","endTime":"17:30:00","date":"2021-07-23","address1":"530 W CORDOVA RD STE B","zip":"87505","primaryAppointments":1,"primaryCap":17,"boosterAppointments":2,"boosterCap":17,"brands":[2],"driveThrough":0,"wheelchairAccessible":1,"mobilityHelp":0,"deafAccommodations":0,"blindAccommodations":0,"paperworkAssistance":0,"seatingAvailable":1,"sensoryFriendly":1,"walkIn":1},{"name":"Michaels ","locationId":770,"city":"Lovington","lat":32.94659106,"lng":-103.35104961,"startTime":"10:00:00","endTime":"16:30:00","date":"2021-07-23","address1":"123 W AVENUE A","zip":"88260","primaryAppointments":2,"primaryCap":11,"boosterAppointments":3,"boosterCap":9,"brands":[2],"driveThrough":0,"wheelchairAccessible":1,"mobilityHelp":0,"deafAccommodations":0,"blindAccommodations":0,"paperworkAssistance":1,"seatingAvailable":1,"sensoryFriendly":0,"walkIn":1},{"name":"Michael's Prescription Corner - Hobbs","locationId":771,"city":"Hobbs","lat":32.72773985,"lng":-103.13625166,"startTime":"10:00:00","endTime":"12:30:00","date":"2021-07-23","address1":"2420 N FOWLER","zip":"88240","primaryAppointments":2,"primaryCap":10,"boosterAppointments":0,"boosterCap":10,"brands":[3],"driveThrough":0,"wheelchairAccessible":1,"mobilityHelp":0,"deafAccommodations":0,"blindAccommodations":0,"paperworkAssistance":1,"seatingAvailable":1,"sensoryFriendly":1,"walkIn":1},{"name":"Parkhurst Pharmacy","locationId":777,"city":"Grants","lat":35.1302281,"lng":-107.89010468,"startTime":"14:00:00","endTime":"17:30:00","date":"2021-07-23","address1":"1208 BONITA ST","zip":"87020","primaryAppointments":0,"primaryCap":7,"boosterAppointments":0,"boosterCap":0,"brands":[2],"driveThrough":0,"wheelchairAccessible":1,"mobilityHelp":1,"deafAccommodations":0,"blindAccommodations":0,"paperworkAssistance":1,"seatingAvailable":1,"sensoryFriendly":1,"walkIn":1},{"name":"El Centro Family Health - San Miguel Clinic","locationId":793,"city":"Ribera","lat":35.32178698,"lng":-105.41837006,"startTime":"09:00:00","endTime":"09:30:00","date":"2021-07-23","address1":"275 New Mexico 3, Bldg 2","zip":"87560","primaryAppointments":0,"primaryCap":3,"boosterAppointments":1,"boosterCap":3,"brands":[2],"driveThrough":1,"wheelchairAccessible":1,"mobilityHelp":1,"deafAccommodations":1,"blindAccommodations":1,"paperworkAssistance":1,"seatingAvailable":1,"sensoryFriendly":1,"walkIn":1},{"name":"John's Pharmacy","locationId":797,"city":"Albuquerque","lat":35.07283046,"lng":-106.54648146,"startTime":"10:00:00","endTime":"17:00:00","date":"2021-07-23","address1":"9134 CENTRAL AVE SE","zip":"87123","primaryAppointments":1,"primaryCap":70,"boosterAppointments":5,"boosterCap":70,"brands":[2],"driveThrough":0,"wheelchairAccessible":1,"mobilityHelp":1,"deafAccommodations":1,"blindAccommodations":0,"paperworkAssistance":1,"seatingAvailable":1,"sensoryFriendly":1,"walkIn":1},{"name":"Pfizer Walk-in","locationId":806,"city":"Albuquerque","lat":35.17989636,"lng":-106.69024829,"startTime":"08:00:00","endTime":"17:00:00","date":"2021-07-23","address1":"8511 Golf Course Rd NW","zip":"87114","primaryAppointments":9,"primaryCap":16,"boosterAppointments":11,"boosterCap":16,"brands":[1],"driveThrough":0,"wheelchairAccessible":1,"mobilityHelp":1,"deafAccommodations":0,"blindAccommodations":0,"paperworkAssistance":1,"seatingAvailable":1,"sensoryFriendly":0,"walkIn":1},{"name":"El Centro Family Health - La Loma Clinic","locationId":819,"city":"La Loma","lat":35.1983708,"lng":-105.12107594,"startTime":"09:00:00","endTime":"10:30:00","date":"2021-07-23","address1":"1044 La Loma","zip":"87711","primaryAppointments":5,"primaryCap":6,"boosterAppointments":10,"boosterCap":11,"brands":[1],"driveThrough":1,"wheelchairAccessible":1,"mobilityHelp":1,"deafAccommodations":1,"blindAccommodations":1,"paperworkAssistance":1,"seatingAvailable":1,"sensoryFriendly":1,"walkIn":1},{"name":"Ribera Healthcare","locationId":852,"city":"Albuquerque","lat":35.15697453,"lng":-106.68045369,"startTime":"09:00:00","endTime":"15:30:00","date":"2021-07-23","address1":"6271 Riverside Plaza Ln. NW, Suite D112B","zip":"87120","primaryAppointments":5,"primaryCap":120,"boosterAppointments":32,"boosterCap":80,"brands":[1],"driveThrough":0,"wheelchairAccessible":1,"mobilityHelp":1,"deafAccommodations":0,"blindAccommodations":0,"paperworkAssistance":1,"seatingAvailable":1,"sensoryFriendly":1,"walkIn":1},{"name":"Farmers Uptown Pharmacy","locationId":853,"city":"Roswell","lat":33.42897416,"lng":-104.52458711,"startTime":"10:00:00","endTime":"14:00:00","date":"2021-07-23","address1":"2810 N. Main","zip":"88201","primaryAppointments":8,"primaryCap":10,"boosterAppointments":0,"boosterCap":0,"brands":[3],"driveThrough":0,"wheelchairAccessible":1,"mobilityHelp":0,"deafAccommodations":0,"blindAccommodations":0,"paperworkAssistance":1,"seatingAvailable":1,"sensoryFriendly":1,"walkIn":1},{"name":"Safeway Pharmacy-Gallup","locationId":864,"city":"Gallup","lat":35.53414716,"lng":-108.75767801,"startTime":"09:30:00","endTime":"19:00:00","date":"2021-07-23","address1":"980 N US HWY 491","zip":"87301","primaryAppointments":4,"primaryCap":73,"boosterAppointments":0,"boosterCap":72,"brands":[1],"driveThrough":0,"wheelchairAccessible":1,"mobilityHelp":0,"deafAccommodations":0,"blindAccommodations":0,"paperworkAssistance":1,"seatingAvailable":1,"sensoryFriendly":1,"walkIn":1},{"name":"Albertsons","locationId":866,"city":"Silver City","lat":32.78632462,"lng":-108.25466432,"startTime":"09:30:00","endTime":"17:00:00","date":"2021-07-23","address1":"1956 Highway 180 East","zip":"88061","primaryAppointments":2,"primaryCap":8,"boosterAppointments":5,"boosterCap":14,"brands":[1],"driveThrough":0,"wheelchairAccessible":1,"mobilityHelp":1,"deafAccommodations":0,"blindAccommodations":0,"paperworkAssistance":1,"seatingAvailable":1,"sensoryFriendly":1,"walkIn":1},{"name":"Davis Fleck","locationId":871,"city":"Truth or Consequences","lat":33.12823694,"lng":-107.2566169,"startTime":"10:00:00","endTime":"15:30:00","date":"2021-07-23","address1":"500 N Broadway St.","zip":"87901","primaryAppointments":7,"primaryCap":44,"boosterAppointments":8,"boosterCap":44,"brands":[2],"driveThrough":0,"wheelchairAccessible":1,"mobilityHelp":1,"deafAccommodations":1,"blindAccommodations":1,"paperworkAssistance":1,"seatingAvailable":1,"sensoryFriendly":1,"walkIn":1},{"name":"Costco Pharmacy #116","locationId":874,"city":"Albuquerque","lat":35.13559248,"lng":-106.61392212,"startTime":"10:00:00","endTime":"14:30:00","date":"2021-07-23","address1":"1420 Renaissance Blvd","zip":"87107","primaryAppointments":11,"primaryCap":28,"boosterAppointments":8,"boosterCap":20,"brands":[1],"driveThrough":0,"wheelchairAccessible":1,"mobilityHelp":0,"deafAccommodations":1,"blindAccommodations":1,"paperworkAssistance":1,"seatingAvailable":1,"sensoryFriendly":1,"walkIn":1},{"name":"costco west side ","locationId":875,"city":"Albuquerque","lat":35.19454649,"lng":-106.66175417,"startTime":"09:30:00","endTime":"15:00:00","date":"2021-07-23","address1":"9955 Coors Bypass NW","zip":"87114","primaryAppointments":10,"primaryCap":13,"boosterAppointments":12,"boosterCap":15,"brands":[1],"driveThrough":0,"wheelchairAccessible":1,"mobilityHelp":0,"deafAccommodations":1,"blindAccommodations":1,"paperworkAssistance":1,"seatingAvailable":1,"sensoryFriendly":0,"walkIn":1},{"name":"Smith's Food & Drug","locationId":878,"city":"RIO RANCHO","lat":35.26509837,"lng":-106.62845855,"startTime":"12:00:00","endTime":"16:30:00","date":"2021-07-23","address1":"1000 RIO RANCHO DR","zip":"87124","primaryAppointments":4,"primaryCap":10,"boosterAppointments":0,"boosterCap":0,"brands":[2],"driveThrough":0,"wheelchairAccessible":1,"mobilityHelp":0,"deafAccommodations":0,"blindAccommodations":0,"paperworkAssistance":0,"seatingAvailable":1,"sensoryFriendly":0,"walkIn":0},{"name":"SMITHS PHARMACY #424 (NM-344, Edgewood, NM)","locationId":881,"city":"EDGEWOOD","lat":35.06082657,"lng":-106.19059088,"startTime":"09:00:00","endTime":"19:00:00","date":"2021-07-23","address1":"02B HWY 344","zip":"87015","primaryAppointments":2,"primaryCap":4,"boosterAppointments":0,"boosterCap":8,"brands":[2],"driveThrough":0,"wheelchairAccessible":1,"mobilityHelp":0,"deafAccommodations":1,"blindAccommodations":1,"paperworkAssistance":1,"seatingAvailable":1,"sensoryFriendly":1,"walkIn":1},{"name":"Smith's Pharmacy Taos","locationId":882,"city":"TAOS","lat":36.40381131,"lng":-105.57576488,"startTime":"10:30:00","endTime":"17:30:00","date":"2021-07-23","address1":"224 PASEO PUEBLO SUR","zip":"87571","primaryAppointments":8,"primaryCap":22,"boosterAppointments":1,"boosterCap":18,"brands":[2],"driveThrough":0,"wheelchairAccessible":1,"mobilityHelp":0,"deafAccommodations":0,"blindAccommodations":0,"paperworkAssistance":0,"seatingAvailable":1,"sensoryFriendly":0,"walkIn":1},{"name":"Smith's Pharmacy #448","locationId":887,"city":"ALBUQUERQUE","lat":35.17859332,"lng":-106.69021692,"startTime":"09:00:00","endTime":"10:30:00","date":"2021-07-23","address1":"8301 GOLF COURSE RD","zip":"87120","primaryAppointments":2,"primaryCap":2,"boosterAppointments":2,"boosterCap":2,"brands":[2],"driveThrough":0,"wheelchairAccessible":1,"mobilityHelp":0,"deafAccommodations":0,"blindAccommodations":0,"paperworkAssistance":1,"seatingAvailable":1,"sensoryFriendly":1,"walkIn":1},{"name":"Del Norte Pharmacy of El Dorado","locationId":919,"city":"Santa Fe","lat":35.53594602,"lng":-105.8906687,"startTime":"14:00:00","endTime":"15:00:00","date":"2021-07-23","address1":"7 Caliente Rd","zip":"87507","primaryAppointments":1,"primaryCap":2,"boosterAppointments":0,"boosterCap":2,"brands":[3],"driveThrough":1,"wheelchairAccessible":1,"mobilityHelp":1,"deafAccommodations":1,"blindAccommodations":0,"paperworkAssistance":1,"seatingAvailable":1,"sensoryFriendly":1,"walkIn":1},{"name":"Del Norte Pharmacy: Las Vegas","locationId":921,"city":"Las Vegas","lat":35.610448,"lng":-105.21089933,"startTime":"10:00:00","endTime":"16:30:00","date":"2021-07-23","address1":"615 North Grand Avenue","zip":"87701","primaryAppointments":2,"primaryCap":6,"boosterAppointments":3,"boosterCap":6,"brands":[2],"driveThrough":1,"wheelchairAccessible":1,"mobilityHelp":1,"deafAccommodations":0,"blindAccommodations":1,"paperworkAssistance":1,"seatingAvailable":1,"sensoryFriendly":1,"walkIn":1},{"name":"Riogrande Care Pharmacy","locationId":946,"city":"Las Cruces","lat":32.3238166,"lng":-106.72697761,"startTime":"08:30:00","endTime":"18:00:00","date":"2021-07-23","address1":" 4371 E Lohman Ave","zip":"88011","primaryAppointments":2,"primaryCap":17,"boosterAppointments":0,"boosterCap":17,"brands":[2],"driveThrough":0,"wheelchairAccessible":1,"mobilityHelp":0,"deafAccommodations":0,"blindAccommodations":0,"paperworkAssistance":1,"seatingAvailable":1,"sensoryFriendly":1,"walkIn":1},{"name":"Safeway Pharmacy Farmington","locationId":954,"city":"Farmington","lat":36.75076225,"lng":-108.16125505,"startTime":"10:00:00","endTime":"16:00:00","date":"2021-07-23","address1":"3540 E Main St.","zip":"87402","primaryAppointments":0,"primaryCap":24,"boosterAppointments":0,"boosterCap":24,"brands":[1],"driveThrough":0,"wheelchairAccessible":1,"mobilityHelp":0,"deafAccommodations":0,"blindAccommodations":0,"paperworkAssistance":1,"seatingAvailable":1,"sensoryFriendly":1,"walkIn":1},{"name":"Del-Rey Pharmacy","locationId":969,"city":"Las Cruces","lat":32.35192765,"lng":-106.76836015,"startTime":"10:00:00","endTime":"17:00:00","date":"2021-07-23","address1":"3291 Del Rey Blvd #3","zip":"88012","primaryAppointments":0,"primaryCap":70,"boosterAppointments":0,"boosterCap":70,"brands":[3],"driveThrough":0,"wheelchairAccessible":1,"mobilityHelp":1,"deafAccommodations":0,"blindAccommodations":0,"paperworkAssistance":1,"seatingAvailable":1,"sensoryFriendly":1,"walkIn":1},{"name":"Christus St Vincent Outpatient Pharmacy","locationId":1019,"city":"Santa Fe","lat":35.65919172,"lng":-105.94784584,"startTime":"09:00:00","endTime":"16:00:00","date":"2021-07-23","address1":"465 St Michaels Drive, Suite 112","zip":"87505","primaryAppointments":14,"primaryCap":14,"boosterAppointments":0,"boosterCap":0,"brands":[3],"driveThrough":0,"wheelchairAccessible":1,"mobilityHelp":1,"deafAccommodations":1,"blindAccommodations":1,"paperworkAssistance":1,"seatingAvailable":1,"sensoryFriendly":1,"walkIn":1},{"name":"Walmart 3731-Bernalillo","locationId":1042,"city":"Bernalillo ","lat":35.31951183,"lng":-106.57261526,"startTime":"09:30:00","endTime":"20:00:00","date":"2021-07-23","address1":"460 NM HWY #528","zip":"87004","primaryAppointments":6,"primaryCap":18,"boosterAppointments":5,"boosterCap":18,"brands":[1],"driveThrough":0,"wheelchairAccessible":1,"mobilityHelp":0,"deafAccommodations":1,"blindAccommodations":1,"paperworkAssistance":1,"seatingAvailable":1,"sensoryFriendly":1,"walkIn":1},{"name":"HMS-SC: COVID-19 Community Clinic","locationId":1048,"city":"Silver City","lat":32.79373006,"lng":-108.26215209,"startTime":"09:00:00","endTime":"17:30:00","date":"2021-07-23","address1":"1304 E. 32nd St","zip":"88061","primaryAppointments":4,"primaryCap":15,"boosterAppointments":4,"boosterCap":15,"brands":[1,2,3],"driveThrough":1,"wheelchairAccessible":1,"mobilityHelp":1,"deafAccommodations":0,"blindAccommodations":0,"paperworkAssistance":1,"seatingAvailable":1,"sensoryFriendly":1,"walkIn":1},{"name":"HMS-LB: COVID-19 Community Clinic","locationId":1049,"city":"Lordsburg ","lat":32.33869519,"lng":-108.71526238,"startTime":"09:00:00","endTime":"18:00:00","date":"2021-07-23","address1":"109 Poplar St","zip":"88061","primaryAppointments":5,"primaryCap":30,"boosterAppointments":4,"boosterCap":30,"brands":[1],"driveThrough":1,"wheelchairAccessible":1,"mobilityHelp":1,"deafAccommodations":0,"blindAccommodations":0,"paperworkAssistance":1,"seatingAvailable":1,"sensoryFriendly":1,"walkIn":1},{"name":"Walmart Pharmacy on Carlisle","locationId":1061,"city":"Albuquerque","lat":35.11031931,"lng":-106.60821446,"startTime":"10:00:00","endTime":"12:30:00","date":"2021-07-23","address1":"2701 Carlisle BLVD NE","zip":"87110","primaryAppointments":4,"primaryCap":5,"boosterAppointments":2,"boosterCap":5,"brands":[1],"driveThrough":0,"wheelchairAccessible":1,"mobilityHelp":0,"deafAccommodations":1,"blindAccommodations":1,"paperworkAssistance":1,"seatingAvailable":1,"sensoryFriendly":1,"walkIn":1},{"name":"Walmart 3732 Rio Rancho Pfizer","locationId":1063,"city":"rio rancho","lat":35.24300137,"lng":-106.70109497,"startTime":"10:00:00","endTime":"15:30:00","date":"2021-07-23","address1":"901 unser blvd se","zip":"87124","primaryAppointments":1,"primaryCap":2,"boosterAppointments":6,"boosterCap":10,"brands":[1],"driveThrough":0,"wheelchairAccessible":1,"mobilityHelp":0,"deafAccommodations":0,"blindAccommodations":0,"paperworkAssistance":1,"seatingAvailable":1,"sensoryFriendly":0,"walkIn":1},{"name":"Socorro WM RX J&J Vaccine Socorro, NM","locationId":1068,"city":"Socorro","lat":34.07465975,"lng":-106.89266693,"startTime":"10:00:00","endTime":"12:30:00","date":"2021-07-23","address1":"700 6th St N","zip":"87801","primaryAppointments":2,"primaryCap":15,"boosterAppointments":0,"boosterCap":0,"brands":[3],"driveThrough":0,"wheelchairAccessible":1,"mobilityHelp":0,"deafAccommodations":1,"blindAccommodations":1,"paperworkAssistance":1,"seatingAvailable":1,"sensoryFriendly":1,"walkIn":1},{"name":"J&J vaccine WM RX-Gallup","locationId":1084,"city":"Gallup","lat":35.52766533,"lng":-108.77011738,"startTime":"10:00:00","endTime":"15:00:00","date":"2021-07-23","address1":"1650 West Maloney Ave","zip":"87301","primaryAppointments":0,"primaryCap":36,"boosterAppointments":0,"boosterCap":0,"brands":[3],"driveThrough":0,"wheelchairAccessible":1,"mobilityHelp":1,"deafAccommodations":1,"blindAccommodations":1,"paperworkAssistance":1,"seatingAvailable":1,"sensoryFriendly":1,"walkIn":1},{"name":"BCA Pediatrics ","locationId":1086,"city":"Carlsbad","lat":32.43456737,"lng":-104.2341895,"startTime":"10:00:00","endTime":"11:30:00","date":"2021-07-23","address1":"1034 Spring St. ","zip":"88220","primaryAppointments":3,"primaryCap":18,"boosterAppointments":0,"boosterCap":0,"brands":[1],"driveThrough":0,"wheelchairAccessible":1,"mobilityHelp":0,"deafAccommodations":0,"blindAccommodations":0,"paperworkAssistance":1,"seatingAvailable":1,"sensoryFriendly":1,"walkIn":0},{"name":"Dr Christopher Roveto Pediatric Office","locationId":1093,"city":"Albuquerque","lat":34.80276163,"lng":-106.72970893,"startTime":"14:30:00","endTime":"15:00:00","date":"2021-07-23","address1":"4201 Montgomery Blvd NE","zip":"87109","primaryAppointments":4,"primaryCap":6,"boosterAppointments":0,"boosterCap":0,"brands":[1],"driveThrough":0,"wheelchairAccessible":1,"mobilityHelp":1,"deafAccommodations":1,"blindAccommodations":1,"paperworkAssistance":1,"seatingAvailable":1,"sensoryFriendly":1,"walkIn":0},{"name":"Civic Plaza Juneteenth Event","locationId":1133,"city":"Albuquerque","lat":35.08745918,"lng":-106.65206963,"startTime":"15:00:00","endTime":"18:00:00","date":"2021-07-23","address1":"1 Civic Plaza","zip":"87102","primaryAppointments":7,"primaryCap":120,"boosterAppointments":12,"boosterCap":120,"brands":[1],"driveThrough":0,"wheelchairAccessible":1,"mobilityHelp":1,"deafAccommodations":1,"blindAccommodations":0,"paperworkAssistance":1,"seatingAvailable":1,"sensoryFriendly":1,"walkIn":1},{"name":"Belen, Walmart Pharmacy  Store 1414","locationId":1186,"city":"Belen","lat":34.69707015,"lng":-106.76885824,"startTime":"11:00:00","endTime":"14:00:00","date":"2021-07-23","address1":"1 I-25 Bypass","zip":"87002","primaryAppointments":1,"primaryCap":1,"boosterAppointments":5,"boosterCap":5,"brands":[1],"driveThrough":0,"wheelchairAccessible":1,"mobilityHelp":1,"deafAccommodations":1,"blindAccommodations":1,"paperworkAssistance":1,"seatingAvailable":1,"sensoryFriendly":1,"walkIn":1},{"name":"Walmart Neighborhood Market - Juan Tabo/Menual Pfizer","locationId":1187,"city":"Albuquerque","lat":35.1092259,"lng":-106.51811344,"startTime":"09:00:00","endTime":"20:00:00","date":"2021-07-23","address1":"11001 Menaul Blvd","zip":"87112","primaryAppointments":5,"primaryCap":60,"boosterAppointments":8,"boosterCap":60,"brands":[1],"driveThrough":0,"wheelchairAccessible":1,"mobilityHelp":1,"deafAccommodations":1,"blindAccommodations":1,"paperworkAssistance":1,"seatingAvailable":1,"sensoryFriendly":1,"walkIn":1},{"name":"Walmart Pharmacy","locationId":1189,"city":"Albuquerque","lat":35.11034324,"lng":-106.72895676,"startTime":"10:00:00","endTime":"15:30:00","date":"2021-07-23","address1":"1820 Unser Blvd NW","zip":"87120","primaryAppointments":3,"primaryCap":11,"boosterAppointments":1,"boosterCap":2,"brands":[1],"driveThrough":0,"wheelchairAccessible":1,"mobilityHelp":0,"deafAccommodations":1,"blindAccommodations":1,"paperworkAssistance":1,"seatingAvailable":1,"sensoryFriendly":1,"walkIn":1},{"name":"Walmart Pharmacy Los Lunas Pfizer","locationId":1190,"city":"Los Lunas","lat":34.81624277,"lng":-106.76375498,"startTime":"14:00:00","endTime":"17:00:00","date":"2021-07-23","address1":"2250 Main Steeet","zip":"87031","primaryAppointments":1,"primaryCap":1,"boosterAppointments":12,"boosterCap":12,"brands":[1],"driveThrough":0,"wheelchairAccessible":1,"mobilityHelp":1,"deafAccommodations":1,"blindAccommodations":1,"paperworkAssistance":1,"seatingAvailable":1,"sensoryFriendly":1,"walkIn":1},{"name":"Pfizer Walmart event","locationId":1192,"city":"Rio Rancho","lat":35.23948742,"lng":-106.6588789,"startTime":"09:30:00","endTime":"11:00:00","date":"2021-07-23","address1":"1115 NM-HWY 528 SE","zip":"87124","primaryAppointments":2,"primaryCap":2,"boosterAppointments":2,"boosterCap":4,"brands":[1],"driveThrough":0,"wheelchairAccessible":1,"mobilityHelp":0,"deafAccommodations":1,"blindAccommodations":1,"paperworkAssistance":0,"seatingAvailable":1,"sensoryFriendly":1,"walkIn":1},{"name":"walmart I40/Coors Pfizer","locationId":1265,"city":"Albuquerque","lat":35.109855,"lng":-106.70118594,"startTime":"15:00:00","endTime":"17:00:00","date":"2021-07-23","address1":"2550 Coors Blvd NW","zip":"87112","primaryAppointments":8,"primaryCap":8,"boosterAppointments":3,"boosterCap":4,"brands":[1],"driveThrough":0,"wheelchairAccessible":1,"mobilityHelp":1,"deafAccommodations":1,"blindAccommodations":1,"paperworkAssistance":1,"seatingAvailable":1,"sensoryFriendly":1,"walkIn":1},{"name":"Walmart Pharmacy","locationId":1267,"city":"ABQ","lat":35.02552902,"lng":-106.71135566,"startTime":"10:00:00","endTime":"19:00:00","date":"2021-07-23","address1":"3500 Coors blvd sw ","zip":"87105","primaryAppointments":7,"primaryCap":15,"boosterAppointments":0,"boosterCap":15,"brands":[1],"driveThrough":0,"wheelchairAccessible":1,"mobilityHelp":1,"deafAccommodations":1,"blindAccommodations":1,"paperworkAssistance":1,"seatingAvailable":1,"sensoryFriendly":1,"walkIn":1},{"name":"GH Dairy Farm","locationId":1269,"city":"Deming","lat":32.51845496,"lng":-107.39931504,"startTime":"09:00:00","endTime":"11:30:00","date":"2021-07-23","address1":"22220 Stetson Rd NE","zip":"88030","primaryAppointments":15,"primaryCap":25,"boosterAppointments":0,"boosterCap":9,"brands":[1],"driveThrough":0,"wheelchairAccessible":1,"mobilityHelp":1,"deafAccommodations":1,"blindAccommodations":1,"paperworkAssistance":1,"seatingAvailable":1,"sensoryFriendly":1,"walkIn":1},{"name":"Las Uvas Dairy","locationId":1270,"city":"Deming","lat":32.59570436,"lng":-107.28673254,"startTime":"13:00:00","endTime":"15:30:00","date":"2021-07-23","address1":"Uvas Dairy Rd","zip":"88030","primaryAppointments":2,"primaryCap":25,"boosterAppointments":0,"boosterCap":9,"brands":[1],"driveThrough":0,"wheelchairAccessible":1,"mobilityHelp":1,"deafAccommodations":1,"blindAccommodations":1,"paperworkAssistance":1,"seatingAvailable":1,"sensoryFriendly":1,"walkIn":1},{"name":"Santa Fe Employee Picnic","locationId":1284,"city":"Santa Fe","lat":35.6591068,"lng":-106.0262269,"startTime":"11:00:00","endTime":"16:00:00","date":"2021-07-23","address1":"2100 Caja Del Oro Grant Road Romero Park","zip":"87507","primaryAppointments":2,"primaryCap":50,"boosterAppointments":0,"boosterCap":50,"brands":[1],"driveThrough":0,"wheelchairAccessible":0,"mobilityHelp":1,"deafAccommodations":0,"blindAccommodations":0,"paperworkAssistance":1,"seatingAvailable":1,"sensoryFriendly":1,"walkIn":1},{"name":"Vaccinations at Shelter in ABQ","locationId":1292,"city":"Albuquerque ","lat":35.09585712,"lng":-106.6517178,"startTime":"10:00:00","endTime":"13:00:00","date":"2021-07-23","address1":"500 Mountain Rd NW","zip":"87102","primaryAppointments":11,"primaryCap":120,"boosterAppointments":0,"boosterCap":120,"brands":[3],"driveThrough":1,"wheelchairAccessible":1,"mobilityHelp":1,"deafAccommodations":1,"blindAccommodations":0,"paperworkAssistance":1,"seatingAvailable":1,"sensoryFriendly":1,"walkIn":1}]}