{"status":"ok","message":"","data":[{"name":"McKinley Public Health Office","locationId":6,"city":"Gallup","lat":35.50566382,"lng":-108.72899286,"startTime":"09:00:00","endTime":"16:30:00","date":"2021-08-17","address1":"1919 COLLEGE DRIVE","zip":"87301","primaryAppointments":1,"primaryCap":39,"boosterAppointments":6,"boosterCap":39,"brands":[1],"driveThrough":1,"wheelchairAccessible":1,"mobilityHelp":1,"deafAccommodations":0,"blindAccommodations":0,"paperworkAssistance":1,"seatingAvailable":1,"sensoryFriendly":1,"walkIn":1},{"name":"Quay County Public Health Office","locationId":16,"city":"Tucumcari","lat":35.17579567,"lng":-103.72676783,"startTime":"09:30:00","endTime":"10:00:00","date":"2021-08-17","address1":"310 S 2ND ST","zip":"88401","primaryAppointments":2,"primaryCap":5,"boosterAppointments":0,"boosterCap":0,"brands":[3],"driveThrough":0,"wheelchairAccessible":1,"mobilityHelp":0,"deafAccommodations":0,"blindAccommodations":0,"paperworkAssistance":1,"seatingAvailable":1,"sensoryFriendly":1,"walkIn":1},{"name":"Artesia Public Health Office","locationId":21,"city":"Artesia","lat":32.84757815,"lng":-104.40918527,"startTime":"08:00:00","endTime":"10:00:00","date":"2021-08-17","address1":"1001 MEMORIAL DR","zip":"88210","primaryAppointments":1,"primaryCap":40,"boosterAppointments":29,"boosterCap":40,"brands":[1],"driveThrough":1,"wheelchairAccessible":1,"mobilityHelp":1,"deafAccommodations":0,"blindAccommodations":0,"paperworkAssistance":1,"seatingAvailable":1,"sensoryFriendly":1,"walkIn":1},{"name":"DOH- Farmington Public Health Office ","locationId":23,"city":"Farmington","lat":36.72580022,"lng":-108.20351585,"startTime":"16:30:00","endTime":"17:30:00","date":"2021-08-17","address1":"355 S MILLER AVE","zip":"87401","primaryAppointments":0,"primaryCap":12,"boosterAppointments":10,"boosterCap":12,"brands":[1],"driveThrough":1,"wheelchairAccessible":0,"mobilityHelp":0,"deafAccommodations":0,"blindAccommodations":0,"paperworkAssistance":1,"seatingAvailable":1,"sensoryFriendly":1,"walkIn":1},{"name":"SUNLAND PARK PUBLIC HEALTH OFFICE","locationId":26,"city":"Sunland Park","lat":31.81377861,"lng":-106.59700617,"startTime":"08:00:00","endTime":"08:30:00","date":"2021-08-17","address1":"3807 MCNUTT RD","zip":"88063","primaryAppointments":0,"primaryCap":5,"boosterAppointments":7,"boosterCap":7,"brands":[1],"driveThrough":1,"wheelchairAccessible":1,"mobilityHelp":1,"deafAccommodations":1,"blindAccommodations":1,"paperworkAssistance":1,"seatingAvailable":1,"sensoryFriendly":1,"walkIn":1},{"name":"ANTHONY PUBLIC HEALTH OFFICE","locationId":31,"city":"Anthony","lat":32.00860773,"lng":-106.60781234,"startTime":"08:30:00","endTime":"09:00:00","date":"2021-08-17","address1":"865 N Anthony Dr.","zip":"88021","primaryAppointments":0,"primaryCap":0,"boosterAppointments":16,"boosterCap":16,"brands":[1],"driveThrough":0,"wheelchairAccessible":1,"mobilityHelp":1,"deafAccommodations":1,"blindAccommodations":1,"paperworkAssistance":1,"seatingAvailable":1,"sensoryFriendly":1,"walkIn":1},{"name":"Sierra County Public Health Office","locationId":33,"city":"Truth Or Consequences","lat":33.13312789,"lng":-107.2490547,"startTime":"10:30:00","endTime":"15:00:00","date":"2021-08-17","address1":"201 E 4TH AVENUE","zip":"87901","primaryAppointments":1,"primaryCap":18,"boosterAppointments":14,"boosterCap":18,"brands":[1,2,3],"driveThrough":0,"wheelchairAccessible":1,"mobilityHelp":1,"deafAccommodations":1,"blindAccommodations":1,"paperworkAssistance":1,"seatingAvailable":1,"sensoryFriendly":1,"walkIn":1},{"name":"Portales Public Health Office","locationId":35,"city":"Portales","lat":34.18576949,"lng":-103.35343307,"startTime":"09:30:00","endTime":"11:00:00","date":"2021-08-17","address1":"1513 W FIR ST","zip":"88130","primaryAppointments":0,"primaryCap":7,"boosterAppointments":3,"boosterCap":3,"brands":[2],"driveThrough":0,"wheelchairAccessible":1,"mobilityHelp":1,"deafAccommodations":0,"blindAccommodations":0,"paperworkAssistance":1,"seatingAvailable":1,"sensoryFriendly":1,"walkIn":1},{"name":"Albertson's on Ridgecrest in Rio Rancho","locationId":41,"city":"RIO RANCHO","lat":35.2528357,"lng":-106.65169765,"startTime":"13:00:00","endTime":"15:00:00","date":"2021-08-17","address1":"4300 RIDGECREST DR SE","zip":"87124","primaryAppointments":0,"primaryCap":0,"boosterAppointments":12,"boosterCap":12,"brands":[1],"driveThrough":0,"wheelchairAccessible":1,"mobilityHelp":1,"deafAccommodations":0,"blindAccommodations":1,"paperworkAssistance":1,"seatingAvailable":1,"sensoryFriendly":1,"walkIn":1},{"name":"Albertsons - ABQ Academy","locationId":43,"city":"Albuquerque","lat":35.15374679,"lng":-106.49926406,"startTime":"10:00:00","endTime":"13:30:00","date":"2021-08-17","address1":"12201 ACADEMY RD NE","zip":"87111","primaryAppointments":0,"primaryCap":9,"boosterAppointments":8,"boosterCap":12,"brands":[1],"driveThrough":0,"wheelchairAccessible":1,"mobilityHelp":1,"deafAccommodations":0,"blindAccommodations":0,"paperworkAssistance":1,"seatingAvailable":1,"sensoryFriendly":1,"walkIn":1},{"name":"ALBERTSON'S ","locationId":44,"city":"Santa Fe","lat":35.64479843,"lng":-105.95522073,"startTime":"11:30:00","endTime":"13:30:00","date":"2021-08-17","address1":"3001 S SAINT FRANCIS DR","zip":"87505","primaryAppointments":0,"primaryCap":23,"boosterAppointments":1,"boosterCap":1,"brands":[1],"driveThrough":0,"wheelchairAccessible":1,"mobilityHelp":0,"deafAccommodations":0,"blindAccommodations":1,"paperworkAssistance":0,"seatingAvailable":1,"sensoryFriendly":0,"walkIn":1},{"name":"Las Cruces Walmart Pharmacy - Rinconada Blvd","locationId":45,"city":"Las Cruces","lat":32.3596457,"lng":-106.74699073,"startTime":"10:00:00","endTime":"17:30:00","date":"2021-08-17","address1":"3331 Rinconada Blvd","zip":"88011-71","primaryAppointments":0,"primaryCap":30,"boosterAppointments":16,"boosterCap":30,"brands":[2],"driveThrough":0,"wheelchairAccessible":1,"mobilityHelp":0,"deafAccommodations":1,"blindAccommodations":0,"paperworkAssistance":1,"seatingAvailable":1,"sensoryFriendly":0,"walkIn":1},{"name":"Walmart - Coors Bypass-1397","locationId":47,"city":"Albuquerque","lat":35.20421306,"lng":-106.65693027,"startTime":"10:30:00","endTime":"16:30:00","date":"2021-08-17","address1":"10224 Coors Bypass NW","zip":"87114-43","primaryAppointments":0,"primaryCap":0,"boosterAppointments":5,"boosterCap":20,"brands":[2],"driveThrough":0,"wheelchairAccessible":1,"mobilityHelp":0,"deafAccommodations":1,"blindAccommodations":1,"paperworkAssistance":1,"seatingAvailable":1,"sensoryFriendly":1,"walkIn":1},{"name":"Espanola Walmart 2656 Moderna","locationId":48,"city":"Espanola","lat":36.01482649,"lng":-106.06850502,"startTime":"09:30:00","endTime":"20:30:00","date":"2021-08-17","address1":"1610 N Riverside Dr","zip":"87532-80","primaryAppointments":0,"primaryCap":22,"boosterAppointments":19,"boosterCap":22,"brands":[2],"driveThrough":0,"wheelchairAccessible":1,"mobilityHelp":0,"deafAccommodations":0,"blindAccommodations":0,"paperworkAssistance":1,"seatingAvailable":1,"sensoryFriendly":0,"walkIn":1},{"name":"Farmington Walmart West Side ","locationId":50,"city":"Farmington","lat":36.73206361,"lng":-108.22798666,"startTime":"09:30:00","endTime":"20:30:00","date":"2021-08-17","address1":"1400 W Main St","zip":"87401","primaryAppointments":0,"primaryCap":20,"boosterAppointments":2,"boosterCap":20,"brands":[2],"driveThrough":0,"wheelchairAccessible":1,"mobilityHelp":0,"deafAccommodations":0,"blindAccommodations":0,"paperworkAssistance":1,"seatingAvailable":1,"sensoryFriendly":0,"walkIn":1},{"name":"WM RX-GALLUP, NM","locationId":51,"city":"Gallup","lat":35.52774518,"lng":-108.7694296,"startTime":"09:00:00","endTime":"20:00:00","date":"2021-08-17","address1":"1650 W Maloney Ave","zip":"87301-33","primaryAppointments":0,"primaryCap":63,"boosterAppointments":6,"boosterCap":21,"brands":[2],"driveThrough":0,"wheelchairAccessible":1,"mobilityHelp":1,"deafAccommodations":1,"blindAccommodations":1,"paperworkAssistance":1,"seatingAvailable":1,"sensoryFriendly":1,"walkIn":0},{"name":"Walmart Pharmacy Hobbs, NM","locationId":52,"city":"Hobbs","lat":32.74293834,"lng":-103.16149549,"startTime":"10:00:00","endTime":"17:00:00","date":"2021-08-17","address1":"3800 N Lovington Hwy","zip":"88240-10","primaryAppointments":0,"primaryCap":28,"boosterAppointments":12,"boosterCap":28,"brands":[2],"driveThrough":0,"wheelchairAccessible":1,"mobilityHelp":1,"deafAccommodations":1,"blindAccommodations":1,"paperworkAssistance":1,"seatingAvailable":1,"sensoryFriendly":1,"walkIn":1},{"name":"Sam's Club - Roswell","locationId":53,"city":"Roswell","lat":33.44777277,"lng":-104.52715705,"startTime":"10:00:00","endTime":"12:30:00","date":"2021-08-17","address1":"4400 N Main St","zip":"88201-03","primaryAppointments":0,"primaryCap":10,"boosterAppointments":2,"boosterCap":10,"brands":[2],"driveThrough":0,"wheelchairAccessible":null,"mobilityHelp":null,"deafAccommodations":null,"blindAccommodations":null,"paperworkAssistance":null,"seatingAvailable":null,"sensoryFriendly":null,"walkIn":1},{"name":"Walmart - Wyoming/Menaul--5491","locationId":55,"city":"Albuquerque","lat":35.1058539,"lng":-106.54914912,"startTime":"10:00:00","endTime":"12:30:00","date":"2021-08-17","address1":"2266 Wyoming Blvd NE","zip":"87112-26","primaryAppointments":0,"primaryCap":0,"boosterAppointments":2,"boosterCap":10,"brands":[2],"driveThrough":0,"wheelchairAccessible":1,"mobilityHelp":1,"deafAccommodations":1,"blindAccommodations":1,"paperworkAssistance":0,"seatingAvailable":1,"sensoryFriendly":0,"walkIn":1},{"name":"PMS - Farmington Community Health Center","locationId":80,"city":"Farmington","lat":36.72693104,"lng":-108.22316192,"startTime":"09:00:00","endTime":"09:30:00","date":"2021-08-17","address1":"1001 West Broadway Ave","zip":"87401","primaryAppointments":0,"primaryCap":10,"boosterAppointments":0,"boosterCap":10,"brands":[2],"driveThrough":0,"wheelchairAccessible":1,"mobilityHelp":0,"deafAccommodations":0,"blindAccommodations":1,"paperworkAssistance":1,"seatingAvailable":1,"sensoryFriendly":1,"walkIn":1},{"name":"First Choice Community Healthcare Inc South Valley Center","locationId":125,"city":"Albuquerque","lat":35.04543945,"lng":-106.68237827,"startTime":"09:30:00","endTime":"14:30:00","date":"2021-08-17","address1":"2001 North Centro Familiar SW","zip":"87105","primaryAppointments":0,"primaryCap":0,"boosterAppointments":6,"boosterCap":60,"brands":[2],"driveThrough":0,"wheelchairAccessible":null,"mobilityHelp":null,"deafAccommodations":null,"blindAccommodations":null,"paperworkAssistance":null,"seatingAvailable":null,"sensoryFriendly":null,"walkIn":1},{"name":"La Clinica Del Pueblo De Rio Arriba","locationId":134,"city":"Tierra Amarilla","lat":36.71178247,"lng":-106.5623564,"startTime":"09:00:00","endTime":"09:30:00","date":"2021-08-17","address1":"US Hwy 84, Country road 0324 #14","zip":"87575","primaryAppointments":0,"primaryCap":1,"boosterAppointments":10,"boosterCap":10,"brands":[2],"driveThrough":1,"wheelchairAccessible":1,"mobilityHelp":1,"deafAccommodations":1,"blindAccommodations":1,"paperworkAssistance":1,"seatingAvailable":1,"sensoryFriendly":1,"walkIn":1},{"name":"Walmart - Academy/Wyoming-824","locationId":141,"city":"Albuquerque","lat":35.14433804,"lng":-106.55099885,"startTime":"09:00:00","endTime":"20:00:00","date":"2021-08-17","address1":"8000 Academy Rd NE","zip":"87111-11","primaryAppointments":1,"primaryCap":40,"boosterAppointments":11,"boosterCap":40,"brands":[1,2],"driveThrough":0,"wheelchairAccessible":1,"mobilityHelp":1,"deafAccommodations":1,"blindAccommodations":1,"paperworkAssistance":1,"seatingAvailable":1,"sensoryFriendly":0,"walkIn":1},{"name":"Walmart - Cerrillos Road","locationId":143,"city":"Santa Fe","lat":35.6522413,"lng":-106.00011826,"startTime":"09:00:00","endTime":"20:00:00","date":"2021-08-17","address1":"3251 Cerrillos Rd","zip":"87507-29","primaryAppointments":0,"primaryCap":20,"boosterAppointments":5,"boosterCap":20,"brands":[2],"driveThrough":0,"wheelchairAccessible":1,"mobilityHelp":0,"deafAccommodations":0,"blindAccommodations":0,"paperworkAssistance":1,"seatingAvailable":1,"sensoryFriendly":0,"walkIn":1},{"name":"walmat - san mateo/zuni 831","locationId":144,"city":"Albuquerque","lat":35.0754004,"lng":-106.58801714,"startTime":"09:30:00","endTime":"15:00:00","date":"2021-08-17","address1":"301 San Mateo Blvd SE","zip":"87108-56","primaryAppointments":1,"primaryCap":4,"boosterAppointments":13,"boosterCap":13,"brands":[2],"driveThrough":0,"wheelchairAccessible":1,"mobilityHelp":0,"deafAccommodations":0,"blindAccommodations":0,"paperworkAssistance":1,"seatingAvailable":1,"sensoryFriendly":1,"walkIn":1},{"name":"walmart on eubank and I40","locationId":145,"city":"Albuquerque","lat":35.07843081,"lng":-106.52987822,"startTime":"09:30:00","endTime":"18:00:00","date":"2021-08-17","address1":"400 Eubank Blvd NE","zip":"87123-27","primaryAppointments":0,"primaryCap":15,"boosterAppointments":15,"boosterCap":15,"brands":[1],"driveThrough":0,"wheelchairAccessible":1,"mobilityHelp":0,"deafAccommodations":0,"blindAccommodations":0,"paperworkAssistance":1,"seatingAvailable":1,"sensoryFriendly":1,"walkIn":1},{"name":"Sam's Club","locationId":146,"city":"Albuquerque","lat":35.13750282,"lng":-106.61434275,"startTime":"10:00:00","endTime":"16:30:00","date":"2021-08-17","address1":"1421 N Renaissance Blvd NE","zip":"87107-70","primaryAppointments":0,"primaryCap":10,"boosterAppointments":7,"boosterCap":12,"brands":[1],"driveThrough":0,"wheelchairAccessible":1,"mobilityHelp":0,"deafAccommodations":0,"blindAccommodations":1,"paperworkAssistance":1,"seatingAvailable":1,"sensoryFriendly":0,"walkIn":1},{"name":"SAM'S CLUB-LAS CRUCES","locationId":147,"city":"Las Cruces","lat":32.34704741,"lng":-106.76708332,"startTime":"11:00:00","endTime":"11:30:00","date":"2021-08-17","address1":"2711 N Telshor Blvd","zip":"88011-82","primaryAppointments":1,"primaryCap":15,"boosterAppointments":11,"boosterCap":15,"brands":[2],"driveThrough":0,"wheelchairAccessible":1,"mobilityHelp":0,"deafAccommodations":0,"blindAccommodations":1,"paperworkAssistance":0,"seatingAvailable":1,"sensoryFriendly":0,"walkIn":1},{"name":"Walmart - Carlisle-850","locationId":148,"city":"Albuquerque","lat":35.1110806,"lng":-106.60858805,"startTime":"10:00:00","endTime":"17:00:00","date":"2021-08-17","address1":"2701 Carlisle Blvd NE","zip":"87110-28","primaryAppointments":0,"primaryCap":11,"boosterAppointments":7,"boosterCap":11,"brands":[2],"driveThrough":0,"wheelchairAccessible":1,"mobilityHelp":0,"deafAccommodations":0,"blindAccommodations":0,"paperworkAssistance":1,"seatingAvailable":1,"sensoryFriendly":1,"walkIn":1},{"name":"Las Cruces Walmart Pharmacy - Walton/Lohman","locationId":149,"city":"Las Cruces","lat":32.31453229,"lng":-106.75064357,"startTime":"08:30:00","endTime":"18:30:00","date":"2021-08-17","address1":"571 Walton Blvd","zip":"88001-84","primaryAppointments":0,"primaryCap":0,"boosterAppointments":13,"boosterCap":36,"brands":[2],"driveThrough":0,"wheelchairAccessible":1,"mobilityHelp":0,"deafAccommodations":1,"blindAccommodations":0,"paperworkAssistance":1,"seatingAvailable":1,"sensoryFriendly":0,"walkIn":0},{"name":"Carlsbad Walmart Pharmacy","locationId":152,"city":"Carlsbad","lat":32.39322719,"lng":-104.22387586,"startTime":"10:00:00","endTime":"18:30:00","date":"2021-08-17","address1":"2401 S Canal St","zip":"88220-65","primaryAppointments":0,"primaryCap":28,"boosterAppointments":0,"boosterCap":0,"brands":[2],"driveThrough":0,"wheelchairAccessible":1,"mobilityHelp":0,"deafAccommodations":1,"blindAccommodations":0,"paperworkAssistance":1,"seatingAvailable":1,"sensoryFriendly":0,"walkIn":1},{"name":"Alamogordo Walmart Supercenter Pharmacy","locationId":153,"city":"Alamogordo","lat":32.88662248,"lng":-105.95782101,"startTime":"09:00:00","endTime":"18:00:00","date":"2021-08-17","address1":"233 S New York Ave","zip":"88310","primaryAppointments":0,"primaryCap":36,"boosterAppointments":1,"boosterCap":18,"brands":[2],"driveThrough":0,"wheelchairAccessible":1,"mobilityHelp":0,"deafAccommodations":1,"blindAccommodations":1,"paperworkAssistance":1,"seatingAvailable":1,"sensoryFriendly":0,"walkIn":1},{"name":"Silver City Walmart Pharmacy","locationId":154,"city":"Silver City","lat":32.7888863,"lng":-108.24813216,"startTime":"08:30:00","endTime":"18:30:00","date":"2021-08-17","address1":"2501 Highway 180 E","zip":"88061","primaryAppointments":0,"primaryCap":17,"boosterAppointments":4,"boosterCap":17,"brands":[2],"driveThrough":0,"wheelchairAccessible":1,"mobilityHelp":0,"deafAccommodations":1,"blindAccommodations":1,"paperworkAssistance":1,"seatingAvailable":1,"sensoryFriendly":0,"walkIn":1},{"name":"Truth or Consequences Walmart Pharmacy","locationId":155,"city":"Truth or Consequences","lat":33.15200396,"lng":-107.25029776,"startTime":"10:00:00","endTime":"14:30:00","date":"2021-08-17","address1":"2001 HR Ashbaugh Dr","zip":"87901-37","primaryAppointments":0,"primaryCap":2,"boosterAppointments":11,"boosterCap":12,"brands":[2],"driveThrough":0,"wheelchairAccessible":1,"mobilityHelp":0,"deafAccommodations":1,"blindAccommodations":1,"paperworkAssistance":1,"seatingAvailable":1,"sensoryFriendly":0,"walkIn":1},{"name":"Deming Walmart Pharmacy","locationId":157,"city":"Deming","lat":32.27038078,"lng":-107.74807321,"startTime":"09:30:00","endTime":"18:30:00","date":"2021-08-17","address1":"1021 E Pine St","zip":"88030-70","primaryAppointments":0,"primaryCap":36,"boosterAppointments":0,"boosterCap":0,"brands":[2],"driveThrough":0,"wheelchairAccessible":1,"mobilityHelp":0,"deafAccommodations":1,"blindAccommodations":0,"paperworkAssistance":1,"seatingAvailable":1,"sensoryFriendly":0,"walkIn":1},{"name":"Walmart Neighborhood Market - Alamogordo Indian Wells","locationId":159,"city":"Alamogordo","lat":32.9159433,"lng":-105.931196,"startTime":"11:00:00","endTime":"13:30:00","date":"2021-08-17","address1":"2401 Indian Wells Rd.","zip":"88310-38","primaryAppointments":0,"primaryCap":5,"boosterAppointments":5,"boosterCap":5,"brands":[2],"driveThrough":0,"wheelchairAccessible":null,"mobilityHelp":null,"deafAccommodations":null,"blindAccommodations":null,"paperworkAssistance":null,"seatingAvailable":null,"sensoryFriendly":null,"walkIn":1},{"name":"Walmart Neighborhood Market 5675 Menaul and Juan Tabo","locationId":160,"city":"Albuquerque","lat":35.10877847,"lng":-106.51781654,"startTime":"09:00:00","endTime":"20:00:00","date":"2021-08-17","address1":"11001 Menaul Blvd","zip":"87112","primaryAppointments":0,"primaryCap":40,"boosterAppointments":3,"boosterCap":40,"brands":[2],"driveThrough":0,"wheelchairAccessible":1,"mobilityHelp":1,"deafAccommodations":1,"blindAccommodations":1,"paperworkAssistance":1,"seatingAvailable":1,"sensoryFriendly":0,"walkIn":1},{"name":"Walmart Clovis","locationId":161,"city":"Clovis","lat":34.43711823,"lng":-103.2006662,"startTime":"10:00:00","endTime":"17:30:00","date":"2021-08-17","address1":"3728 N Prince St","zip":"88101-97","primaryAppointments":0,"primaryCap":8,"boosterAppointments":4,"boosterCap":6,"brands":[2],"driveThrough":0,"wheelchairAccessible":1,"mobilityHelp":0,"deafAccommodations":0,"blindAccommodations":0,"paperworkAssistance":1,"seatingAvailable":1,"sensoryFriendly":0,"walkIn":1},{"name":"Walmart - Portales","locationId":162,"city":"Portales","lat":34.19790879,"lng":-103.31932888,"startTime":"10:00:00","endTime":"13:00:00","date":"2021-08-17","address1":"1604 E Spruce St","zip":"88130-94","primaryAppointments":0,"primaryCap":6,"boosterAppointments":0,"boosterCap":6,"brands":[2],"driveThrough":0,"wheelchairAccessible":null,"mobilityHelp":null,"deafAccommodations":null,"blindAccommodations":null,"paperworkAssistance":null,"seatingAvailable":null,"sensoryFriendly":null,"walkIn":1},{"name":"Las Vegas Walmart Pharmacy","locationId":165,"city":"Las Vegas","lat":35.62001926,"lng":-105.22765362,"startTime":"10:00:00","endTime":"16:00:00","date":"2021-08-17","address1":"2609 7th St","zip":"87701-48","primaryAppointments":0,"primaryCap":12,"boosterAppointments":7,"boosterCap":12,"brands":[2],"driveThrough":0,"wheelchairAccessible":1,"mobilityHelp":0,"deafAccommodations":0,"blindAccommodations":0,"paperworkAssistance":1,"seatingAvailable":1,"sensoryFriendly":0,"walkIn":1},{"name":"Walmart-Belen-1414","locationId":166,"city":"Belen","lat":34.69695185,"lng":-106.76842281,"startTime":"09:30:00","endTime":"12:30:00","date":"2021-08-17","address1":"1 I 25 Bypass","zip":"87002-81","primaryAppointments":0,"primaryCap":10,"boosterAppointments":3,"boosterCap":4,"brands":[2],"driveThrough":0,"wheelchairAccessible":1,"mobilityHelp":0,"deafAccommodations":0,"blindAccommodations":0,"paperworkAssistance":1,"seatingAvailable":1,"sensoryFriendly":1,"walkIn":1},{"name":"Walmart- Grants","locationId":167,"city":"Grants","lat":35.12417855,"lng":-107.82621389,"startTime":"09:30:00","endTime":"19:00:00","date":"2021-08-17","address1":"1000 Robert Rd","zip":"87020-40","primaryAppointments":0,"primaryCap":16,"boosterAppointments":8,"boosterCap":16,"brands":[1],"driveThrough":0,"wheelchairAccessible":1,"mobilityHelp":0,"deafAccommodations":1,"blindAccommodations":0,"paperworkAssistance":1,"seatingAvailable":1,"sensoryFriendly":1,"walkIn":1},{"name":"Walmart - Coors I-40--2924","locationId":169,"city":"Albuquerque","lat":35.10998404,"lng":-106.7016564,"startTime":"11:00:00","endTime":"17:00:00","date":"2021-08-17","address1":"2550 Coors Blvd NW","zip":"87120","primaryAppointments":1,"primaryCap":4,"boosterAppointments":3,"boosterCap":10,"brands":[2],"driveThrough":0,"wheelchairAccessible":1,"mobilityHelp":0,"deafAccommodations":0,"blindAccommodations":0,"paperworkAssistance":0,"seatingAvailable":1,"sensoryFriendly":0,"walkIn":1},{"name":"Walmart","locationId":170,"city":"Santa Fe","lat":35.61904364,"lng":-106.03205431,"startTime":"09:30:00","endTime":"12:00:00","date":"2021-08-17","address1":"5701 Herrera Dr","zip":"87507-26","primaryAppointments":0,"primaryCap":0,"boosterAppointments":8,"boosterCap":10,"brands":[2],"driveThrough":0,"wheelchairAccessible":1,"mobilityHelp":0,"deafAccommodations":1,"blindAccommodations":1,"paperworkAssistance":1,"seatingAvailable":1,"sensoryFriendly":0,"walkIn":1},{"name":"Walmart Pharmacy Los Lunas Moderna Vaccine","locationId":171,"city":"Los Lunas","lat":34.81699682,"lng":-106.76388371,"startTime":"10:00:00","endTime":"12:30:00","date":"2021-08-17","address1":"2250 Main St NW","zip":"87031-48","primaryAppointments":0,"primaryCap":14,"boosterAppointments":0,"boosterCap":0,"brands":[2],"driveThrough":0,"wheelchairAccessible":1,"mobilityHelp":0,"deafAccommodations":0,"blindAccommodations":1,"paperworkAssistance":1,"seatingAvailable":1,"sensoryFriendly":0,"walkIn":1},{"name":"Walmart-Bernalillo 3731","locationId":172,"city":"Bernalillo","lat":35.3194959,"lng":-106.57174681,"startTime":"09:00:00","endTime":"16:00:00","date":"2021-08-17","address1":"460 Highway 528","zip":"87004-66","primaryAppointments":0,"primaryCap":11,"boosterAppointments":0,"boosterCap":11,"brands":[2],"driveThrough":0,"wheelchairAccessible":1,"mobilityHelp":0,"deafAccommodations":1,"blindAccommodations":1,"paperworkAssistance":1,"seatingAvailable":1,"sensoryFriendly":1,"walkIn":1},{"name":"Walmart Neighborhood Market Cutler Store 2451","locationId":173,"city":"Albuquerque","lat":35.10440027,"lng":-106.59275797,"startTime":"09:00:00","endTime":"17:30:00","date":"2021-08-17","address1":"4700 Cutler Ave NE","zip":"87110-40","primaryAppointments":0,"primaryCap":15,"boosterAppointments":8,"boosterCap":15,"brands":[2],"driveThrough":0,"wheelchairAccessible":1,"mobilityHelp":0,"deafAccommodations":0,"blindAccommodations":0,"paperworkAssistance":1,"seatingAvailable":1,"sensoryFriendly":1,"walkIn":1},{"name":"Walmart Neighborhood Market 3385 Sage & 98th","locationId":174,"city":"Albuquerque","lat":35.05426216,"lng":-106.73944857,"startTime":"10:00:00","endTime":"15:00:00","date":"2021-08-17","address1":"9600 Sage Rd SW","zip":"87121-68","primaryAppointments":0,"primaryCap":10,"boosterAppointments":3,"boosterCap":10,"brands":[2],"driveThrough":0,"wheelchairAccessible":1,"mobilityHelp":0,"deafAccommodations":1,"blindAccommodations":1,"paperworkAssistance":0,"seatingAvailable":1,"sensoryFriendly":1,"walkIn":1},{"name":"walmart 3512 montgomery","locationId":176,"city":"Albuquerque","lat":35.12951592,"lng":-106.51774302,"startTime":"09:00:00","endTime":"20:00:00","date":"2021-08-17","address1":"11018 Montgomery Blvd NE","zip":"87111-39","primaryAppointments":0,"primaryCap":30,"boosterAppointments":1,"boosterCap":16,"brands":[2],"driveThrough":0,"wheelchairAccessible":1,"mobilityHelp":0,"deafAccommodations":1,"blindAccommodations":1,"paperworkAssistance":0,"seatingAvailable":1,"sensoryFriendly":1,"walkIn":1},{"name":"Walmart Neighborhood Market 3517 Rio Rancho Hwy 528","locationId":177,"city":"Rio Rancho","lat":35.23902043,"lng":-106.65894473,"startTime":"09:30:00","endTime":"20:00:00","date":"2021-08-17","address1":"1115 NM Hwy 528 SE","zip":"87124-00","primaryAppointments":0,"primaryCap":7,"boosterAppointments":6,"boosterCap":18,"brands":[2],"driveThrough":0,"wheelchairAccessible":1,"mobilityHelp":0,"deafAccommodations":1,"blindAccommodations":1,"paperworkAssistance":0,"seatingAvailable":1,"sensoryFriendly":1,"walkIn":1},{"name":"Walmart Neighborhood Market- Unser/Ladera","locationId":178,"city":"Albuquerque","lat":35.10228264,"lng":-106.72844695,"startTime":"09:30:00","endTime":"18:30:00","date":"2021-08-17","address1":"1820 Unser Blvd NW","zip":"87120-39","primaryAppointments":0,"primaryCap":30,"boosterAppointments":0,"boosterCap":0,"brands":[2],"driveThrough":0,"wheelchairAccessible":1,"mobilityHelp":0,"deafAccommodations":0,"blindAccommodations":0,"paperworkAssistance":0,"seatingAvailable":1,"sensoryFriendly":1,"walkIn":1},{"name":"Walmart - Edgewood-4201","locationId":179,"city":"Edgewood","lat":35.07051708,"lng":-106.18902695,"startTime":"09:00:00","endTime":"15:00:00","date":"2021-08-17","address1":"66 State Road 344","zip":"87015-68","primaryAppointments":0,"primaryCap":0,"boosterAppointments":5,"boosterCap":10,"brands":[2],"driveThrough":0,"wheelchairAccessible":1,"mobilityHelp":0,"deafAccommodations":0,"blindAccommodations":0,"paperworkAssistance":1,"seatingAvailable":1,"sensoryFriendly":0,"walkIn":1},{"name":"Walmart Pharmacy","locationId":180,"city":"Socorro","lat":34.07547937,"lng":-106.89283501,"startTime":"09:30:00","endTime":"12:30:00","date":"2021-08-17","address1":"700 6th St N","zip":"87801-42","primaryAppointments":0,"primaryCap":12,"boosterAppointments":1,"boosterCap":18,"brands":[2],"driveThrough":0,"wheelchairAccessible":1,"mobilityHelp":1,"deafAccommodations":1,"blindAccommodations":0,"paperworkAssistance":1,"seatingAvailable":1,"sensoryFriendly":1,"walkIn":1},{"name":"Walmart - Rio Bravo & Coors- 5430","locationId":181,"city":"Albuquerque","lat":35.02566256,"lng":-106.71093118,"startTime":"09:30:00","endTime":"19:00:00","date":"2021-08-17","address1":"3500 Coors Blvd SW","zip":"87121-52","primaryAppointments":0,"primaryCap":32,"boosterAppointments":6,"boosterCap":16,"brands":[2],"driveThrough":0,"wheelchairAccessible":1,"mobilityHelp":0,"deafAccommodations":1,"blindAccommodations":1,"paperworkAssistance":1,"seatingAvailable":1,"sensoryFriendly":1,"walkIn":1},{"name":"El Centro Family Health - Rio Arriba Health Commons","locationId":185,"city":"Espanola","lat":36.00669009,"lng":-106.10699021,"startTime":"13:00:00","endTime":"14:00:00","date":"2021-08-17","address1":"2010 Industrial Park Road","zip":"87532","primaryAppointments":0,"primaryCap":5,"boosterAppointments":5,"boosterCap":5,"brands":[2],"driveThrough":0,"wheelchairAccessible":1,"mobilityHelp":1,"deafAccommodations":1,"blindAccommodations":1,"paperworkAssistance":1,"seatingAvailable":1,"sensoryFriendly":1,"walkIn":1},{"name":"Albertson's - HOBBS","locationId":236,"city":"HOBBS","lat":32.72689521,"lng":-103.14410582,"startTime":"11:00:00","endTime":"13:00:00","date":"2021-08-17","address1":"2402 N. GRIMES","zip":"88220","primaryAppointments":2,"primaryCap":3,"boosterAppointments":5,"boosterCap":7,"brands":[2],"driveThrough":0,"wheelchairAccessible":null,"mobilityHelp":null,"deafAccommodations":null,"blindAccommodations":null,"paperworkAssistance":null,"seatingAvailable":null,"sensoryFriendly":null,"walkIn":1},{"name":"Albertson's - ROSWELL WEST 2ND STREET","locationId":240,"city":"ROSWELL","lat":33.39268701,"lng":-104.53571982,"startTime":"10:00:00","endTime":"12:30:00","date":"2021-08-17","address1":"900 WEST 2ND STREET","zip":"88201","primaryAppointments":0,"primaryCap":4,"boosterAppointments":5,"boosterCap":6,"brands":[2],"driveThrough":0,"wheelchairAccessible":null,"mobilityHelp":null,"deafAccommodations":null,"blindAccommodations":null,"paperworkAssistance":null,"seatingAvailable":null,"sensoryFriendly":null,"walkIn":1},{"name":"Albertson's - ABQ Montgomery","locationId":242,"city":"Albuquerque","lat":35.12904195,"lng":-106.58876811,"startTime":"12:00:00","endTime":"17:30:00","date":"2021-08-17","address1":"4950 MONTGOMERY BLVD NE","zip":"87109","primaryAppointments":0,"primaryCap":0,"boosterAppointments":6,"boosterCap":9,"brands":[1],"driveThrough":0,"wheelchairAccessible":1,"mobilityHelp":0,"deafAccommodations":1,"blindAccommodations":1,"paperworkAssistance":1,"seatingAvailable":1,"sensoryFriendly":0,"walkIn":1},{"name":"Albertson's Coors and Montano","locationId":245,"city":"Albuquerque","lat":35.15165874,"lng":-106.68282515,"startTime":"11:00:00","endTime":"18:00:00","date":"2021-08-17","address1":"6200 COORS BLVD NW","zip":"87120","primaryAppointments":0,"primaryCap":16,"boosterAppointments":21,"boosterCap":21,"brands":[1],"driveThrough":0,"wheelchairAccessible":1,"mobilityHelp":0,"deafAccommodations":0,"blindAccommodations":0,"paperworkAssistance":0,"seatingAvailable":1,"sensoryFriendly":0,"walkIn":0},{"name":"Albertsons on Rio Bravo & Isleta","locationId":246,"city":"Albuquerque","lat":35.02797451,"lng":-106.68255503,"startTime":"13:00:00","endTime":"14:00:00","date":"2021-08-17","address1":"1625 RIO BRAVO BLVD SW","zip":"87105","primaryAppointments":0,"primaryCap":10,"boosterAppointments":10,"boosterCap":10,"brands":[1],"driveThrough":0,"wheelchairAccessible":1,"mobilityHelp":1,"deafAccommodations":1,"blindAccommodations":1,"paperworkAssistance":1,"seatingAvailable":1,"sensoryFriendly":1,"walkIn":1},{"name":"Albertsons Los Lunas","locationId":247,"city":"LOS LUNAS","lat":34.80334699,"lng":-106.70457543,"startTime":"10:30:00","endTime":"13:30:00","date":"2021-08-17","address1":"2351 MAIN STREET SE","zip":"87031","primaryAppointments":0,"primaryCap":0,"boosterAppointments":7,"boosterCap":12,"brands":[1],"driveThrough":0,"wheelchairAccessible":1,"mobilityHelp":0,"deafAccommodations":0,"blindAccommodations":0,"paperworkAssistance":1,"seatingAvailable":1,"sensoryFriendly":1,"walkIn":1},{"name":"Albertson's - RIO RANCHO Enchanted Hills","locationId":249,"city":"RIO RANCHO","lat":35.32304677,"lng":-106.57716273,"startTime":"10:00:00","endTime":"13:30:00","date":"2021-08-17","address1":"7800 ENCHANTED HILLS BLVD NE","zip":"87144","primaryAppointments":4,"primaryCap":6,"boosterAppointments":2,"boosterCap":6,"brands":[1],"driveThrough":0,"wheelchairAccessible":1,"mobilityHelp":0,"deafAccommodations":1,"blindAccommodations":1,"paperworkAssistance":1,"seatingAvailable":1,"sensoryFriendly":1,"walkIn":0},{"name":"Albertsons Pharmacy Ventura","locationId":250,"city":"Albuquerque","lat":35.17507376,"lng":-106.54095736,"startTime":"11:00:00","endTime":"16:30:00","date":"2021-08-17","address1":"8100 VENTURA ST NE","zip":"87122","primaryAppointments":1,"primaryCap":8,"boosterAppointments":5,"boosterCap":14,"brands":[1],"driveThrough":0,"wheelchairAccessible":1,"mobilityHelp":0,"deafAccommodations":0,"blindAccommodations":0,"paperworkAssistance":0,"seatingAvailable":1,"sensoryFriendly":0,"walkIn":1},{"name":"MarketStreet Pharmacy #927","locationId":251,"city":"Santa Fe","lat":35.6930939,"lng":-105.95171933,"startTime":"10:30:00","endTime":"12:00:00","date":"2021-08-17","address1":"600 N GUADALUPE ST","zip":"87501","primaryAppointments":0,"primaryCap":8,"boosterAppointments":0,"boosterCap":8,"brands":[2],"driveThrough":0,"wheelchairAccessible":1,"mobilityHelp":0,"deafAccommodations":0,"blindAccommodations":0,"paperworkAssistance":0,"seatingAvailable":1,"sensoryFriendly":0,"walkIn":1},{"name":"Albertson's on Lomas","locationId":252,"city":"Albuquerque","lat":35.08791352,"lng":-106.51666456,"startTime":"10:00:00","endTime":"16:30:00","date":"2021-08-17","address1":"11825 LOMAS BLVD NE","zip":"87122","primaryAppointments":0,"primaryCap":26,"boosterAppointments":5,"boosterCap":26,"brands":[1],"driveThrough":0,"wheelchairAccessible":1,"mobilityHelp":1,"deafAccommodations":1,"blindAccommodations":1,"paperworkAssistance":1,"seatingAvailable":1,"sensoryFriendly":0,"walkIn":1},{"name":"Albertson's - ABQ 10131 COORS ","locationId":253,"city":"Albuquerque","lat":35.19938695,"lng":-106.65168169,"startTime":"14:00:00","endTime":"15:00:00","date":"2021-08-17","address1":"10131 COORS BLVD NW","zip":"87114","primaryAppointments":0,"primaryCap":2,"boosterAppointments":1,"boosterCap":2,"brands":[1],"driveThrough":0,"wheelchairAccessible":1,"mobilityHelp":0,"deafAccommodations":1,"blindAccommodations":1,"paperworkAssistance":1,"seatingAvailable":1,"sensoryFriendly":1,"walkIn":1},{"name":"Albertson's - ABQ WYOMING","locationId":254,"city":"Albuquerque","lat":35.15999804,"lng":-106.56136197,"startTime":"10:00:00","endTime":"17:00:00","date":"2021-08-17","address1":"7101 WYOMING BLVD NE","zip":"87109","primaryAppointments":2,"primaryCap":14,"boosterAppointments":18,"boosterCap":28,"brands":[1],"driveThrough":0,"wheelchairAccessible":1,"mobilityHelp":1,"deafAccommodations":0,"blindAccommodations":0,"paperworkAssistance":1,"seatingAvailable":1,"sensoryFriendly":1,"walkIn":1},{"name":"Albertson's - SANTA FE ZAFARANO DR","locationId":256,"city":"Santa Fe","lat":35.64018594,"lng":-106.01374392,"startTime":"12:00:00","endTime":"15:30:00","date":"2021-08-17","address1":"3542 ZAFARANO DR","zip":"87507","primaryAppointments":3,"primaryCap":21,"boosterAppointments":18,"boosterCap":27,"brands":[1],"driveThrough":0,"wheelchairAccessible":1,"mobilityHelp":0,"deafAccommodations":1,"blindAccommodations":1,"paperworkAssistance":1,"seatingAvailable":1,"sensoryFriendly":1,"walkIn":1},{"name":"Los Lunas Fire Station 2","locationId":263,"city":"Los Lunas","lat":34.82090464,"lng":-106.77492311,"startTime":"11:30:00","endTime":"14:00:00","date":"2021-08-17","address1":"465 Sand Sage","zip":"87031","primaryAppointments":2,"primaryCap":52,"boosterAppointments":45,"boosterCap":50,"brands":[1],"driveThrough":1,"wheelchairAccessible":1,"mobilityHelp":1,"deafAccommodations":0,"blindAccommodations":0,"paperworkAssistance":1,"seatingAvailable":0,"sensoryFriendly":0,"walkIn":1},{"name":"Sam's Club","locationId":291,"city":"Albuquerque","lat":35.20942482,"lng":-106.65847003,"startTime":"10:00:00","endTime":"16:00:00","date":"2021-08-17","address1":"10600 Coors Bypass NW","zip":"87114","primaryAppointments":0,"primaryCap":9,"boosterAppointments":2,"boosterCap":9,"brands":[2],"driveThrough":0,"wheelchairAccessible":1,"mobilityHelp":1,"deafAccommodations":1,"blindAccommodations":1,"paperworkAssistance":1,"seatingAvailable":1,"sensoryFriendly":1,"walkIn":1},{"name":"Sam's Club - Farmington","locationId":292,"city":"Farmington","lat":36.7660891,"lng":-108.15399606,"startTime":"09:30:00","endTime":"17:00:00","date":"2021-08-17","address1":"4500 E Main St","zip":"87402","primaryAppointments":0,"primaryCap":25,"boosterAppointments":0,"boosterCap":5,"brands":[2],"driveThrough":0,"wheelchairAccessible":1,"mobilityHelp":1,"deafAccommodations":1,"blindAccommodations":1,"paperworkAssistance":1,"seatingAvailable":1,"sensoryFriendly":1,"walkIn":1},{"name":"Roden Smith Pharmacy","locationId":312,"city":"Clovis","lat":34.43330721,"lng":-103.20588339,"startTime":"10:00:00","endTime":"17:00:00","date":"2021-08-17","address1":"305 E. Llano Estacado","zip":"88101","primaryAppointments":0,"primaryCap":42,"boosterAppointments":0,"boosterCap":42,"brands":[3],"driveThrough":0,"wheelchairAccessible":1,"mobilityHelp":0,"deafAccommodations":1,"blindAccommodations":0,"paperworkAssistance":1,"seatingAvailable":1,"sensoryFriendly":1,"walkIn":1},{"name":"Walgreens #1279 ( Central and Girard)","locationId":357,"city":"Albuquerque","lat":35.07967923,"lng":-106.61302426,"startTime":"09:00:00","endTime":"11:30:00","date":"2021-08-17","address1":"2950 CENTRAL AVE SE","zip":"87106-22","primaryAppointments":0,"primaryCap":0,"boosterAppointments":6,"boosterCap":10,"brands":[2],"driveThrough":0,"wheelchairAccessible":1,"mobilityHelp":1,"deafAccommodations":1,"blindAccommodations":1,"paperworkAssistance":1,"seatingAvailable":1,"sensoryFriendly":1,"walkIn":0},{"name":"Walgreens #2900","locationId":363,"city":"Santa Fe","lat":35.67513915,"lng":-105.95435362,"startTime":"10:00:00","endTime":"16:00:00","date":"2021-08-17","address1":"1096 S SAINT FRANCIS DR","zip":"87505-16","primaryAppointments":0,"primaryCap":0,"boosterAppointments":1,"boosterCap":10,"brands":[2],"driveThrough":0,"wheelchairAccessible":1,"mobilityHelp":0,"deafAccommodations":1,"blindAccommodations":1,"paperworkAssistance":0,"seatingAvailable":1,"sensoryFriendly":1,"walkIn":0},{"name":"Walgreens #5731 @ GOLF COURSE & PARADISE","locationId":365,"city":"Albuquerque","lat":35.18767471,"lng":-106.68489677,"startTime":"10:00:00","endTime":"17:00:00","date":"2021-08-17","address1":"9500 GOLF COURSE RD NW","zip":"87114-42","primaryAppointments":0,"primaryCap":9,"boosterAppointments":9,"boosterCap":9,"brands":[1],"driveThrough":0,"wheelchairAccessible":1,"mobilityHelp":0,"deafAccommodations":0,"blindAccommodations":0,"paperworkAssistance":0,"seatingAvailable":1,"sensoryFriendly":0,"walkIn":0},{"name":"Walgreens located on 525 W. Zia Rd. ","locationId":367,"city":"Santa Fe","lat":35.64693786,"lng":-105.95598215,"startTime":"14:30:00","endTime":"16:00:00","date":"2021-08-17","address1":"525 W ZIA RD","zip":"87505-69","primaryAppointments":0,"primaryCap":6,"boosterAppointments":0,"boosterCap":0,"brands":[1],"driveThrough":0,"wheelchairAccessible":1,"mobilityHelp":0,"deafAccommodations":1,"blindAccommodations":1,"paperworkAssistance":1,"seatingAvailable":1,"sensoryFriendly":0,"walkIn":1},{"name":"Walgreens 9067  (20th/Butler)","locationId":371,"city":"FARMINGTON","lat":36.74680307,"lng":-108.19743708,"startTime":"14:00:00","endTime":"14:30:00","date":"2021-08-17","address1":"701 E 20TH ST","zip":"87401-42","primaryAppointments":0,"primaryCap":4,"boosterAppointments":2,"boosterCap":2,"brands":[1],"driveThrough":0,"wheelchairAccessible":1,"mobilityHelp":1,"deafAccommodations":0,"blindAccommodations":0,"paperworkAssistance":1,"seatingAvailable":1,"sensoryFriendly":1,"walkIn":1},{"name":"Walgreens #11360","locationId":374,"city":"Albuquerque","lat":35.12940871,"lng":-106.51596991,"startTime":"10:00:00","endTime":"11:30:00","date":"2021-08-17","address1":"11200 MONTGOMERY BLVD NE","zip":"87111-","primaryAppointments":1,"primaryCap":3,"boosterAppointments":1,"boosterCap":3,"brands":[1],"driveThrough":0,"wheelchairAccessible":1,"mobilityHelp":0,"deafAccommodations":0,"blindAccommodations":1,"paperworkAssistance":0,"seatingAvailable":1,"sensoryFriendly":1,"walkIn":1},{"name":"Walgreens","locationId":376,"city":"Albuquerque","lat":35.10821758,"lng":-106.53322387,"startTime":"10:00:00","endTime":"15:00:00","date":"2021-08-17","address1":"9700 MENAUL BLVD NE","zip":"87112-23","primaryAppointments":1,"primaryCap":10,"boosterAppointments":0,"boosterCap":10,"brands":[1],"driveThrough":0,"wheelchairAccessible":1,"mobilityHelp":1,"deafAccommodations":1,"blindAccommodations":1,"paperworkAssistance":1,"seatingAvailable":1,"sensoryFriendly":1,"walkIn":1},{"name":"Walgreens Harper and Wyoming","locationId":378,"city":"Albuquerque","lat":35.15858198,"lng":-106.55858957,"startTime":"14:30:00","endTime":"17:00:00","date":"2021-08-17","address1":"8011 HARPER DR NE","zip":"87111-10","primaryAppointments":0,"primaryCap":0,"boosterAppointments":5,"boosterCap":6,"brands":[1],"driveThrough":0,"wheelchairAccessible":1,"mobilityHelp":0,"deafAccommodations":1,"blindAccommodations":1,"paperworkAssistance":1,"seatingAvailable":0,"sensoryFriendly":0,"walkIn":0},{"name":"Walgreens #9336","locationId":384,"city":"Albuquerque","lat":35.10766418,"lng":-106.66050315,"startTime":"10:00:00","endTime":"16:30:00","date":"2021-08-17","address1":"2011 12TH ST NW","zip":"87104-23","primaryAppointments":0,"primaryCap":0,"boosterAppointments":12,"boosterCap":12,"brands":[1],"driveThrough":0,"wheelchairAccessible":1,"mobilityHelp":0,"deafAccommodations":1,"blindAccommodations":0,"paperworkAssistance":1,"seatingAvailable":1,"sensoryFriendly":1,"walkIn":0},{"name":"Walgreens #9007","locationId":388,"city":"Gallup","lat":35.52884057,"lng":-108.7153583,"startTime":"10:00:00","endTime":"17:30:00","date":"2021-08-17","address1":"1870 E HISTORIC HIGHWAY 66","zip":"87301-49","primaryAppointments":1,"primaryCap":12,"boosterAppointments":0,"boosterCap":0,"brands":[1],"driveThrough":0,"wheelchairAccessible":null,"mobilityHelp":null,"deafAccommodations":null,"blindAccommodations":null,"paperworkAssistance":null,"seatingAvailable":null,"sensoryFriendly":null,"walkIn":1},{"name":"Walgreens 4th and Griegos","locationId":409,"city":"Albuquerque","lat":35.12991653,"lng":-106.64227552,"startTime":"10:00:00","endTime":"12:00:00","date":"2021-08-17","address1":"4700 4TH ST NW","zip":"87107-39","primaryAppointments":0,"primaryCap":8,"boosterAppointments":6,"boosterCap":8,"brands":[2],"driveThrough":0,"wheelchairAccessible":1,"mobilityHelp":1,"deafAccommodations":1,"blindAccommodations":1,"paperworkAssistance":1,"seatingAvailable":1,"sensoryFriendly":1,"walkIn":1},{"name":"Walgreens #12407","locationId":415,"city":"Albuquerque","lat":35.21303541,"lng":-106.69806297,"startTime":"11:00:00","endTime":"17:30:00","date":"2021-08-17","address1":"10800 UNSER BLVD NW","zip":"87114-10","primaryAppointments":0,"primaryCap":10,"boosterAppointments":0,"boosterCap":10,"brands":[1],"driveThrough":0,"wheelchairAccessible":1,"mobilityHelp":0,"deafAccommodations":0,"blindAccommodations":1,"paperworkAssistance":0,"seatingAvailable":1,"sensoryFriendly":1,"walkIn":0},{"name":"LINCOLN COUNTY MEDICAL CENTER","locationId":429,"city":"Ruidoso","lat":33.32228246,"lng":-105.63150874,"startTime":"11:00:00","endTime":"14:00:00","date":"2021-08-17","address1":"211 Sudderth Drive","zip":"88345","primaryAppointments":9,"primaryCap":36,"boosterAppointments":48,"boosterCap":60,"brands":[1],"driveThrough":0,"wheelchairAccessible":1,"mobilityHelp":1,"deafAccommodations":0,"blindAccommodations":0,"paperworkAssistance":1,"seatingAvailable":1,"sensoryFriendly":0,"walkIn":1},{"name":"Nambe Drugs Santa Fe","locationId":450,"city":"Santa Fe","lat":35.68104125,"lng":-105.93807183,"startTime":"10:30:00","endTime":"13:00:00","date":"2021-08-17","address1":"501 Old Santa Fe Trail","zip":"87505-03","primaryAppointments":0,"primaryCap":8,"boosterAppointments":2,"boosterCap":12,"brands":[2],"driveThrough":0,"wheelchairAccessible":1,"mobilityHelp":0,"deafAccommodations":0,"blindAccommodations":0,"paperworkAssistance":1,"seatingAvailable":1,"sensoryFriendly":0,"walkIn":1},{"name":"Nambe Drugs- Los Alamos","locationId":451,"city":"Los Alamos","lat":35.88143588,"lng":-106.30061247,"startTime":"10:30:00","endTime":"14:30:00","date":"2021-08-17","address1":"111 Central Park Square","zip":"87544","primaryAppointments":0,"primaryCap":10,"boosterAppointments":2,"boosterCap":10,"brands":[2],"driveThrough":0,"wheelchairAccessible":null,"mobilityHelp":null,"deafAccommodations":null,"blindAccommodations":null,"paperworkAssistance":null,"seatingAvailable":null,"sensoryFriendly":null,"walkIn":1},{"name":"pinon family pharmacy","locationId":565,"city":"Farmington","lat":36.75712234,"lng":-108.17683652,"startTime":"10:00:00","endTime":"14:30:00","date":"2021-08-17","address1":"2300 B East 30th Suite 101","zip":"87401","primaryAppointments":0,"primaryCap":9,"boosterAppointments":0,"boosterCap":18,"brands":[1,2,3],"driveThrough":0,"wheelchairAccessible":1,"mobilityHelp":1,"deafAccommodations":1,"blindAccommodations":1,"paperworkAssistance":1,"seatingAvailable":1,"sensoryFriendly":1,"walkIn":1},{"name":"Sierra Blanca Pharmacy","locationId":595,"city":"Ruidoso","lat":33.36838384,"lng":-105.66813088,"startTime":"09:00:00","endTime":"16:00:00","date":"2021-08-17","address1":"1206 Mechem Dr.","zip":"88345","primaryAppointments":4,"primaryCap":30,"boosterAppointments":0,"boosterCap":30,"brands":[1],"driveThrough":1,"wheelchairAccessible":1,"mobilityHelp":1,"deafAccommodations":0,"blindAccommodations":0,"paperworkAssistance":1,"seatingAvailable":1,"sensoryFriendly":1,"walkIn":1},{"name":"United Drug Superstore","locationId":635,"city":"Hatch","lat":32.66429406,"lng":-107.15506168,"startTime":"14:00:00","endTime":"16:30:00","date":"2021-08-17","address1":"221 W. Hall Street","zip":"87937","primaryAppointments":0,"primaryCap":3,"boosterAppointments":6,"boosterCap":6,"brands":[1],"driveThrough":1,"wheelchairAccessible":1,"mobilityHelp":1,"deafAccommodations":1,"blindAccommodations":1,"paperworkAssistance":1,"seatingAvailable":1,"sensoryFriendly":1,"walkIn":1},{"name":"Las Cruces Walmart Pfizer Clinic - S. Valley Drive","locationId":746,"city":"Las Cruces","lat":32.28747833,"lng":-106.78564404,"startTime":"14:00:00","endTime":"16:00:00","date":"2021-08-17","address1":"1550 S. Valley Drive","zip":"88005-31","primaryAppointments":0,"primaryCap":0,"boosterAppointments":10,"boosterCap":12,"brands":[1],"driveThrough":0,"wheelchairAccessible":1,"mobilityHelp":0,"deafAccommodations":1,"blindAccommodations":1,"paperworkAssistance":1,"seatingAvailable":1,"sensoryFriendly":0,"walkIn":1},{"name":"BESTCARE PHARMACY TUCUMCARI LL","locationId":762,"city":"Tucumcari","lat":35.17339235,"lng":-103.7268842,"startTime":"15:00:00","endTime":"16:30:00","date":"2021-08-17","address1":"511 S 2ND ST","zip":"88401","primaryAppointments":0,"primaryCap":0,"boosterAppointments":2,"boosterCap":2,"brands":[2],"driveThrough":0,"wheelchairAccessible":1,"mobilityHelp":1,"deafAccommodations":0,"blindAccommodations":0,"paperworkAssistance":1,"seatingAvailable":1,"sensoryFriendly":1,"walkIn":0},{"name":"Pharmaca Integrative Pharmacy","locationId":764,"city":"Santa Fe","lat":35.67293583,"lng":-105.95353254,"startTime":"09:00:00","endTime":"17:30:00","date":"2021-08-17","address1":"530 W CORDOVA RD STE B","zip":"87505","primaryAppointments":0,"primaryCap":17,"boosterAppointments":4,"boosterCap":17,"brands":[2],"driveThrough":0,"wheelchairAccessible":1,"mobilityHelp":0,"deafAccommodations":0,"blindAccommodations":0,"paperworkAssistance":0,"seatingAvailable":1,"sensoryFriendly":1,"walkIn":1},{"name":"Highland Pharmacy","locationId":765,"city":"ALBUQUERQUE","lat":35.088672,"lng":-106.6319821,"startTime":"09:30:00","endTime":"10:00:00","date":"2021-08-17","address1":"717 ENCINO PLACE NE STE 1","zip":"87102","primaryAppointments":0,"primaryCap":6,"boosterAppointments":5,"boosterCap":5,"brands":[1],"driveThrough":0,"wheelchairAccessible":null,"mobilityHelp":null,"deafAccommodations":null,"blindAccommodations":null,"paperworkAssistance":null,"seatingAvailable":null,"sensoryFriendly":null,"walkIn":0},{"name":"John's Pharmacy","locationId":797,"city":"Albuquerque","lat":35.07283046,"lng":-106.54648146,"startTime":"10:00:00","endTime":"17:00:00","date":"2021-08-17","address1":"9134 CENTRAL AVE SE","zip":"87123","primaryAppointments":0,"primaryCap":70,"boosterAppointments":0,"boosterCap":70,"brands":[2],"driveThrough":0,"wheelchairAccessible":1,"mobilityHelp":1,"deafAccommodations":1,"blindAccommodations":0,"paperworkAssistance":1,"seatingAvailable":1,"sensoryFriendly":1,"walkIn":1},{"name":"Pfizer Walk-in","locationId":806,"city":"Albuquerque","lat":35.17989636,"lng":-106.69024829,"startTime":"09:00:00","endTime":"19:30:00","date":"2021-08-17","address1":"8511 Golf Course Rd NW","zip":"87114","primaryAppointments":0,"primaryCap":11,"boosterAppointments":10,"boosterCap":13,"brands":[1],"driveThrough":0,"wheelchairAccessible":1,"mobilityHelp":1,"deafAccommodations":0,"blindAccommodations":0,"paperworkAssistance":1,"seatingAvailable":1,"sensoryFriendly":0,"walkIn":1},{"name":"Ribera Healthcare","locationId":852,"city":"Albuquerque","lat":35.15604147,"lng":-106.68120261,"startTime":"09:00:00","endTime":"15:30:00","date":"2021-08-17","address1":"6271 Riverside Plaza Ln. NW, Suite D112B","zip":"87120","primaryAppointments":0,"primaryCap":100,"boosterAppointments":8,"boosterCap":100,"brands":[1],"driveThrough":0,"wheelchairAccessible":1,"mobilityHelp":1,"deafAccommodations":0,"blindAccommodations":0,"paperworkAssistance":1,"seatingAvailable":1,"sensoryFriendly":1,"walkIn":1},{"name":"Safeway Pharmacy-Gallup","locationId":864,"city":"Gallup","lat":35.53473937,"lng":-108.75682044,"startTime":"10:00:00","endTime":"19:00:00","date":"2021-08-17","address1":"980 N US HWY 491","zip":"87301","primaryAppointments":0,"primaryCap":72,"boosterAppointments":7,"boosterCap":72,"brands":[1],"driveThrough":0,"wheelchairAccessible":1,"mobilityHelp":0,"deafAccommodations":0,"blindAccommodations":0,"paperworkAssistance":1,"seatingAvailable":1,"sensoryFriendly":1,"walkIn":1},{"name":"Albertsons","locationId":866,"city":"Silver City","lat":32.78564487,"lng":-108.25417182,"startTime":"10:00:00","endTime":"17:00:00","date":"2021-08-17","address1":"1956 Highway 180 East","zip":"88061","primaryAppointments":0,"primaryCap":12,"boosterAppointments":1,"boosterCap":24,"brands":[2],"driveThrough":0,"wheelchairAccessible":1,"mobilityHelp":1,"deafAccommodations":0,"blindAccommodations":0,"paperworkAssistance":1,"seatingAvailable":1,"sensoryFriendly":1,"walkIn":1},{"name":"costco west side ","locationId":875,"city":"Albuquerque","lat":35.19454649,"lng":-106.66175417,"startTime":"10:30:00","endTime":"15:00:00","date":"2021-08-17","address1":"9955 Coors Bypass NW","zip":"87114","primaryAppointments":1,"primaryCap":28,"boosterAppointments":8,"boosterCap":28,"brands":[1],"driveThrough":0,"wheelchairAccessible":1,"mobilityHelp":0,"deafAccommodations":1,"blindAccommodations":1,"paperworkAssistance":1,"seatingAvailable":1,"sensoryFriendly":0,"walkIn":1},{"name":"SMITHS WHITE ROCK","locationId":884,"city":"White Rock","lat":35.82556536,"lng":-106.21142964,"startTime":"10:00:00","endTime":"12:30:00","date":"2021-08-17","address1":"31 SHERWOOD BLVD","zip":"87547","primaryAppointments":0,"primaryCap":0,"boosterAppointments":6,"boosterCap":6,"brands":[1],"driveThrough":0,"wheelchairAccessible":1,"mobilityHelp":0,"deafAccommodations":0,"blindAccommodations":0,"paperworkAssistance":1,"seatingAvailable":1,"sensoryFriendly":0,"walkIn":1},{"name":"Del Norte Pharmacy of El Dorado","locationId":919,"city":"Santa Fe","lat":35.53594602,"lng":-105.8906687,"startTime":"10:00:00","endTime":"15:30:00","date":"2021-08-17","address1":"7 Caliente Rd","zip":"87507","primaryAppointments":0,"primaryCap":4,"boosterAppointments":0,"boosterCap":4,"brands":[2],"driveThrough":1,"wheelchairAccessible":1,"mobilityHelp":1,"deafAccommodations":1,"blindAccommodations":0,"paperworkAssistance":1,"seatingAvailable":1,"sensoryFriendly":1,"walkIn":1},{"name":"Del Norte Pharmacy: Las Vegas","locationId":921,"city":"Las Vegas","lat":35.610448,"lng":-105.21089933,"startTime":"10:00:00","endTime":"17:00:00","date":"2021-08-17","address1":"615 North Grand Avenue","zip":"87701","primaryAppointments":0,"primaryCap":6,"boosterAppointments":0,"boosterCap":6,"brands":[2],"driveThrough":1,"wheelchairAccessible":1,"mobilityHelp":1,"deafAccommodations":0,"blindAccommodations":1,"paperworkAssistance":1,"seatingAvailable":1,"sensoryFriendly":1,"walkIn":1},{"name":"RioGrande Care Pharmacy","locationId":946,"city":"Las Cruces","lat":32.324347,"lng":-106.72654976,"startTime":"08:30:00","endTime":"18:00:00","date":"2021-08-17","address1":" 4371 E Lohman Ave","zip":"88011","primaryAppointments":0,"primaryCap":17,"boosterAppointments":4,"boosterCap":17,"brands":[2],"driveThrough":0,"wheelchairAccessible":1,"mobilityHelp":0,"deafAccommodations":0,"blindAccommodations":0,"paperworkAssistance":1,"seatingAvailable":1,"sensoryFriendly":1,"walkIn":1},{"name":"Del-Rey Pharmacy","locationId":969,"city":"Las Cruces","lat":32.35192765,"lng":-106.76836015,"startTime":"10:00:00","endTime":"17:00:00","date":"2021-08-17","address1":"3291 Del Rey Blvd #3","zip":"88012","primaryAppointments":0,"primaryCap":70,"boosterAppointments":0,"boosterCap":70,"brands":[3],"driveThrough":0,"wheelchairAccessible":1,"mobilityHelp":1,"deafAccommodations":0,"blindAccommodations":0,"paperworkAssistance":1,"seatingAvailable":1,"sensoryFriendly":1,"walkIn":1},{"name":"Walmart 3731-Bernalillo","locationId":1042,"city":"Bernalillo ","lat":35.31951183,"lng":-106.57261526,"startTime":"09:00:00","endTime":"20:00:00","date":"2021-08-17","address1":"460 NM HWY #528","zip":"87004","primaryAppointments":0,"primaryCap":19,"boosterAppointments":7,"boosterCap":19,"brands":[1],"driveThrough":0,"wheelchairAccessible":1,"mobilityHelp":0,"deafAccommodations":1,"blindAccommodations":1,"paperworkAssistance":1,"seatingAvailable":1,"sensoryFriendly":1,"walkIn":1},{"name":"HMS-SC: COVID-19 Community Clinic","locationId":1048,"city":"Silver City","lat":32.79373006,"lng":-108.26215209,"startTime":"09:00:00","endTime":"17:30:00","date":"2021-08-17","address1":"1304 E. 32nd St","zip":"88061","primaryAppointments":0,"primaryCap":15,"boosterAppointments":0,"boosterCap":15,"brands":[1],"driveThrough":1,"wheelchairAccessible":1,"mobilityHelp":1,"deafAccommodations":0,"blindAccommodations":0,"paperworkAssistance":1,"seatingAvailable":1,"sensoryFriendly":1,"walkIn":1},{"name":"HMS-LB: COVID-19 Community Clinic","locationId":1049,"city":"Lordsburg ","lat":32.33869519,"lng":-108.71526238,"startTime":"09:00:00","endTime":"18:00:00","date":"2021-08-17","address1":"109 Poplar St","zip":"88061","primaryAppointments":0,"primaryCap":32,"boosterAppointments":1,"boosterCap":32,"brands":[1],"driveThrough":1,"wheelchairAccessible":1,"mobilityHelp":1,"deafAccommodations":0,"blindAccommodations":0,"paperworkAssistance":1,"seatingAvailable":1,"sensoryFriendly":1,"walkIn":1},{"name":"Walmart Pharmacy on Carlisle","locationId":1061,"city":"Albuquerque","lat":35.11031931,"lng":-106.60821446,"startTime":"10:00:00","endTime":"16:00:00","date":"2021-08-17","address1":"2701 Carlisle BLVD NE","zip":"87110","primaryAppointments":0,"primaryCap":8,"boosterAppointments":8,"boosterCap":8,"brands":[1],"driveThrough":0,"wheelchairAccessible":1,"mobilityHelp":0,"deafAccommodations":1,"blindAccommodations":1,"paperworkAssistance":1,"seatingAvailable":1,"sensoryFriendly":1,"walkIn":1},{"name":"Walmart 3732 Rio Rancho Pfizer","locationId":1063,"city":"rio rancho","lat":35.24300137,"lng":-106.70109497,"startTime":"09:30:00","endTime":"12:00:00","date":"2021-08-17","address1":"901 unser blvd se","zip":"87124","primaryAppointments":0,"primaryCap":0,"boosterAppointments":10,"boosterCap":10,"brands":[1],"driveThrough":0,"wheelchairAccessible":1,"mobilityHelp":0,"deafAccommodations":0,"blindAccommodations":0,"paperworkAssistance":1,"seatingAvailable":1,"sensoryFriendly":0,"walkIn":1},{"name":"J&J vaccine WM RX-Gallup","locationId":1084,"city":"Gallup","lat":35.52766533,"lng":-108.77011738,"startTime":"10:00:00","endTime":"15:30:00","date":"2021-08-17","address1":"1650 West Maloney Ave","zip":"87301","primaryAppointments":0,"primaryCap":40,"boosterAppointments":0,"boosterCap":0,"brands":[3],"driveThrough":0,"wheelchairAccessible":1,"mobilityHelp":1,"deafAccommodations":1,"blindAccommodations":1,"paperworkAssistance":1,"seatingAvailable":1,"sensoryFriendly":1,"walkIn":1},{"name":"Sandoval Health Commons 1500 Idalia Rd Bldg B Bernalillo, NM","locationId":1097,"city":"Bernalillo","lat":35.30863271,"lng":-106.58563451,"startTime":"08:00:00","endTime":"11:00:00","date":"2021-08-17","address1":"1500 Idalia Road Building B","zip":"87004","primaryAppointments":0,"primaryCap":15,"boosterAppointments":0,"boosterCap":3,"brands":[1],"driveThrough":1,"wheelchairAccessible":1,"mobilityHelp":0,"deafAccommodations":0,"blindAccommodations":0,"paperworkAssistance":1,"seatingAvailable":1,"sensoryFriendly":1,"walkIn":1},{"name":"Sandoval Health Commons 1500 Idalia Rd Bldg B Bernalillo, NM","locationId":1103,"city":"Bernalillo","lat":35.30910562,"lng":-106.58518981,"startTime":"08:00:00","endTime":"10:00:00","date":"2021-08-17","address1":"1500 Idalia Road Building B","zip":"87004","primaryAppointments":5,"primaryCap":5,"boosterAppointments":0,"boosterCap":0,"brands":[3],"driveThrough":1,"wheelchairAccessible":1,"mobilityHelp":0,"deafAccommodations":0,"blindAccommodations":0,"paperworkAssistance":1,"seatingAvailable":1,"sensoryFriendly":1,"walkIn":1},{"name":"Belen, Walmart Pharmacy  Store 1414","locationId":1186,"city":"Belen","lat":34.69707015,"lng":-106.76885824,"startTime":"11:30:00","endTime":"13:00:00","date":"2021-08-17","address1":"1 I-25 Bypass","zip":"87002","primaryAppointments":3,"primaryCap":3,"boosterAppointments":3,"boosterCap":3,"brands":[1],"driveThrough":0,"wheelchairAccessible":1,"mobilityHelp":1,"deafAccommodations":1,"blindAccommodations":1,"paperworkAssistance":1,"seatingAvailable":1,"sensoryFriendly":1,"walkIn":1},{"name":"Walmart Neighborhood Market - Juan Tabo/Menual Pfizer","locationId":1187,"city":"Albuquerque","lat":35.1092259,"lng":-106.51811344,"startTime":"09:00:00","endTime":"20:00:00","date":"2021-08-17","address1":"11001 Menaul Blvd","zip":"87112","primaryAppointments":0,"primaryCap":40,"boosterAppointments":7,"boosterCap":40,"brands":[1],"driveThrough":0,"wheelchairAccessible":1,"mobilityHelp":1,"deafAccommodations":1,"blindAccommodations":1,"paperworkAssistance":1,"seatingAvailable":1,"sensoryFriendly":1,"walkIn":1},{"name":"Walmart Pharmacy","locationId":1189,"city":"Albuquerque","lat":35.11034324,"lng":-106.72895676,"startTime":"09:30:00","endTime":"12:30:00","date":"2021-08-17","address1":"1820 Unser Blvd NW","zip":"87120","primaryAppointments":0,"primaryCap":6,"boosterAppointments":6,"boosterCap":6,"brands":[1],"driveThrough":0,"wheelchairAccessible":1,"mobilityHelp":0,"deafAccommodations":1,"blindAccommodations":1,"paperworkAssistance":1,"seatingAvailable":1,"sensoryFriendly":1,"walkIn":1},{"name":"Walmart Pharmacy Los Lunas Pfizer","locationId":1190,"city":"Los Lunas","lat":34.8165634,"lng":-106.76319543,"startTime":"14:00:00","endTime":"17:00:00","date":"2021-08-17","address1":"2250 Main Steeet","zip":"87031","primaryAppointments":0,"primaryCap":0,"boosterAppointments":12,"boosterCap":12,"brands":[1],"driveThrough":0,"wheelchairAccessible":1,"mobilityHelp":1,"deafAccommodations":1,"blindAccommodations":1,"paperworkAssistance":1,"seatingAvailable":1,"sensoryFriendly":1,"walkIn":1},{"name":"Pfizer Walmart event","locationId":1192,"city":"Rio Rancho","lat":35.23948742,"lng":-106.6588789,"startTime":"10:00:00","endTime":"12:30:00","date":"2021-08-17","address1":"1115 NM-HWY 528 SE","zip":"87124","primaryAppointments":0,"primaryCap":0,"boosterAppointments":9,"boosterCap":10,"brands":[1],"driveThrough":0,"wheelchairAccessible":1,"mobilityHelp":0,"deafAccommodations":1,"blindAccommodations":1,"paperworkAssistance":0,"seatingAvailable":1,"sensoryFriendly":1,"walkIn":1},{"name":"Walmart Farmington East Pfizer","locationId":1225,"city":"Farmington","lat":36.76703444,"lng":-108.15244454,"startTime":"09:00:00","endTime":"19:00:00","date":"2021-08-17","address1":"4600 E Main St ","zip":"87401","primaryAppointments":0,"primaryCap":36,"boosterAppointments":19,"boosterCap":36,"brands":[1],"driveThrough":0,"wheelchairAccessible":1,"mobilityHelp":0,"deafAccommodations":0,"blindAccommodations":0,"paperworkAssistance":1,"seatingAvailable":1,"sensoryFriendly":1,"walkIn":1},{"name":"Lea County Detention Center ","locationId":1244,"city":"Lovington","lat":32.93410937,"lng":-103.33959421,"startTime":"08:00:00","endTime":"09:00:00","date":"2021-08-17","address1":"1401 S Commercial St","zip":"88260","primaryAppointments":0,"primaryCap":30,"boosterAppointments":0,"boosterCap":0,"brands":[3],"driveThrough":0,"wheelchairAccessible":1,"mobilityHelp":0,"deafAccommodations":0,"blindAccommodations":1,"paperworkAssistance":1,"seatingAvailable":1,"sensoryFriendly":1,"walkIn":1},{"name":"University of New Mexico Student Union Building","locationId":1262,"city":"Albuquerque","lat":35.08146241,"lng":-106.6204064,"startTime":"10:00:00","endTime":"14:00:00","date":"2021-08-17","address1":"398 Cornell Dr NE","zip":"87131","primaryAppointments":0,"primaryCap":400,"boosterAppointments":1,"boosterCap":400,"brands":[1],"driveThrough":0,"wheelchairAccessible":1,"mobilityHelp":0,"deafAccommodations":0,"blindAccommodations":0,"paperworkAssistance":1,"seatingAvailable":1,"sensoryFriendly":0,"walkIn":1},{"name":"On site Vaccination ","locationId":1263,"city":"Belen","lat":34.59448808,"lng":-106.73224249,"startTime":"07:00:00","endTime":"17:00:00","date":"2021-08-17","address1":"101 Christine Dr, Belen","zip":"87002","primaryAppointments":1,"primaryCap":500,"boosterAppointments":19,"boosterCap":500,"brands":[1],"driveThrough":0,"wheelchairAccessible":1,"mobilityHelp":1,"deafAccommodations":1,"blindAccommodations":1,"paperworkAssistance":1,"seatingAvailable":1,"sensoryFriendly":1,"walkIn":1},{"name":"walmart I40/Coors Pfizer","locationId":1265,"city":"Albuquerque","lat":35.109855,"lng":-106.70118594,"startTime":"14:30:00","endTime":"17:30:00","date":"2021-08-17","address1":"2550 Coors Blvd NW","zip":"87112","primaryAppointments":1,"primaryCap":4,"boosterAppointments":8,"boosterCap":8,"brands":[1],"driveThrough":0,"wheelchairAccessible":1,"mobilityHelp":1,"deafAccommodations":1,"blindAccommodations":1,"paperworkAssistance":1,"seatingAvailable":1,"sensoryFriendly":1,"walkIn":1},{"name":"Pfizer - Socorro Walmart Pharmacy","locationId":1272,"city":"Socorro","lat":34.07483084,"lng":-106.89255114,"startTime":"14:30:00","endTime":"16:00:00","date":"2021-08-17","address1":"700 North 6th Street","zip":"87801","primaryAppointments":0,"primaryCap":3,"boosterAppointments":3,"boosterCap":3,"brands":[1],"driveThrough":0,"wheelchairAccessible":1,"mobilityHelp":1,"deafAccommodations":1,"blindAccommodations":1,"paperworkAssistance":1,"seatingAvailable":1,"sensoryFriendly":1,"walkIn":1},{"name":"Pojoaque High School","locationId":1335,"city":"Santa Fe","lat":35.87715881,"lng":-106.06551602,"startTime":"10:00:00","endTime":"15:00:00","date":"2021-08-17","address1":"1574 State Road 502 W","zip":"87506","primaryAppointments":4,"primaryCap":50,"boosterAppointments":0,"boosterCap":50,"brands":[1],"driveThrough":1,"wheelchairAccessible":1,"mobilityHelp":1,"deafAccommodations":1,"blindAccommodations":1,"paperworkAssistance":1,"seatingAvailable":1,"sensoryFriendly":1,"walkIn":1}]}