{"id": "6e41ddef-dfad-eb11-a812-001dd8028973", "title": "CHEATHAM COUNTY FIRST DOSE VACCINATION POD", "lat": 36.26515, "long": -87.0427, "address": {"lines": ["870 Fairgrounds Rd"], "city": "Ashland City", "state": "TN", "zip": "37015"}, "phone": "615-792-4318"}
{"id": "a100a1b6-e0ad-eb11-a812-001dd80289c4", "title": "Cheatham County First Dose Pfizer POD", "lat": 36.26931, "long": -87.05221, "address": {"lines": ["162 John Mayfield Drive"], "city": "Ashland City", "state": "TN", "zip": "37015"}, "phone": null}
{"id": "0048c3cd-cd76-eb11-a812-001dd801407a", "title": "Cheatham County Second Dose Moderna POD", "lat": 36.28854, "long": -87.05221, "address": {"lines": ["162 John Mayfield Drive"], "city": "Ashland City", "state": "TN", "zip": "37015"}, "phone": "866-442-5301"}
{"id": "9242ebfd-cd76-eb11-a812-001dd801e91f", "title": "Cheatham County First Dose Vaccination POD", "lat": 36.28854, "long": -87.05221, "address": {"lines": ["162 John Mayfield Drive"], "city": "Ashland City", "state": "TN", "zip": "37015"}, "phone": "866-442-5301"}
{"id": "6a33b70b-e1ad-eb11-a812-001dd80287b8", "title": "Cheatham County Second Dose Pfizer POD", "lat": 36.28854, "long": -87.05221, "address": {"lines": ["162 John Mayfield Drive"], "city": "Ashland City", "state": "TN", "zip": "37015"}, "phone": null}
{"id": "69a02870-e0ad-eb11-a812-001dd80287d9", "title": "Cheatham County First Dose Moderna POD", "lat": 36.28854, "long": -87.05221, "address": {"lines": ["162 John Mayfield Drive"], "city": "Ashland City", "state": "TN", "zip": "37015"}, "phone": null}
{"id": "ff03874f-f66a-eb11-a812-001dd800ac9e", "title": "Williamson County Ag Park - First Dose", "lat": 35.86465, "long": -86.82605, "address": {"lines": ["4215 Long Lane"], "city": "Franklin", "state": "TN", "zip": "37064"}, "phone": "866-442-5301"}
{"id": "e818447a-f66a-eb11-a812-001dd800ac9e", "title": "Williamson County Ag Park - Pfizer 2nd Dose", "lat": 35.86465, "long": -86.82605, "address": {"lines": ["4215 Long Lane"], "city": "Franklin", "state": "TN", "zip": "37064"}, "phone": "866-442-5301"}
{"id": "ab956621-f86a-eb11-a812-001dd800ac9e", "title": "Volunteer State Com. College - Pfizer 2nd Dose", "lat": 36.36108, "long": -86.49695, "address": {"lines": ["1480 Nashville Pike"], "city": "Gallatin", "state": "TN", "zip": "37066"}, "phone": "866-442-5301"}
{"id": "127ddcc3-f76a-eb11-a812-001dd800ae51", "title": "Volunteer State Com. College - First Dose", "lat": 36.36108, "long": -86.49695, "address": {"lines": ["1480 Nashville Pike"], "city": "Gallatin", "state": "TN", "zip": "37066"}, "phone": "866-442-5301"}
{"id": "d182f716-78ae-eb11-a812-001dd802881f", "title": "Volunteer State Com. College - First Dose Pfizer POD", "lat": 36.36108, "long": -86.49695, "address": {"lines": ["1480 Nashville Pike"], "city": "Gallatin", "state": "TN", "zip": "37066"}, "phone": null}
{"id": "05e52487-cc76-eb11-a812-001dd801e866", "title": "Robertson County First Dose Vaccination POD", "lat": 36.47509, "long": -86.88127, "address": {"lines": ["150 Laureate Ave"], "city": "Springfield", "state": "TN", "zip": "37172"}, "phone": "866-442-5301"}
{"id": "7bdcce69-cc76-eb11-a812-001dd801e91f", "title": "Robertson County Second Dose Pfizer", "lat": 36.47509, "long": -86.88127, "address": {"lines": ["150 Laureate Ave"], "city": "Springfield", "state": "TN", "zip": "37172"}, "phone": "866-442-5301"}
{"id": "3f56291b-74ae-eb11-a812-001dd8028219", "title": "Robertson County First Dose Pfizer POD", "lat": 36.47509, "long": -86.88127, "address": {"lines": ["150 Laureate Ave"], "city": "Springfield", "state": "TN", "zip": "37172"}, "phone": null}
{"id": "16de12b0-516a-eb11-a812-001dd800ae51", "title": "College Hills Church of Christ - First Dose", "lat": 36.19816, "long": -86.32165, "address": {"lines": ["1401 Leeville Pike"], "city": "Lebanon", "state": "TN", "zip": "37090"}, "phone": "866-442-5301"}
{"id": "4fa84e65-526a-eb11-a812-001dd800ae51", "title": "College Hills Church of Christ - Pfizer 2nd Dose", "lat": 36.19816, "long": -86.32165, "address": {"lines": ["1401 Leeville Pike"], "city": "Lebanon", "state": "TN", "zip": "37090"}, "phone": "866-442-5301"}
{"id": "35098d9b-7fae-eb11-a812-001dd8028732", "title": "Wilson County Second Dose Pfizer POD", "lat": 36.19816, "long": -86.32165, "address": {"lines": ["1401 Leeville Pike"], "city": "Lebanon", "state": "TN", "zip": "37090"}, "phone": null}
{"id": "35dde949-7fae-eb11-a812-001dd802896e", "title": "Wilson County First Dose Pfizer POD", "lat": 36.19816, "long": -86.32165, "address": {"lines": ["1401 Leeville Pike"], "city": "Lebanon", "state": "TN", "zip": "37090"}, "phone": null}
{"id": "19095317-f76a-eb11-a812-001dd800ac9e", "title": "State Farm Operation Center - First Dose", "lat": 35.89216, "long": -86.37993, "address": {"lines": ["2500 Memorial Blvd"], "city": "Murfreesboro", "state": "TN", "zip": "37130"}, "phone": "866-442-5301"}
{"id": "43d0a030-f76a-eb11-a812-001dd800ac9e", "title": "State Farm Operation Center - Pfizer 2nd Dose", "lat": 35.89216, "long": -86.37993, "address": {"lines": ["2500 Memorial Blvd"], "city": "Murfreesboro", "state": "TN", "zip": "37130"}, "phone": "866-442-5301"}
{"id": "033ca184-76ae-eb11-a812-001dd802851e", "title": "Rutherford County Second Dose Pfizer POD", "lat": 35.89216, "long": -86.37993, "address": {"lines": ["2500 Memorial Blvd"], "city": "Murfreesboro", "state": "TN", "zip": "37130"}, "phone": null}
{"id": "a3d3da3f-76ae-eb11-a812-001dd802899a", "title": "Rutherford County First Dose Pfizer POD", "lat": 35.89216, "long": -86.37993, "address": {"lines": ["2500 Memorial Blvd"], "city": "Murfreesboro", "state": "TN", "zip": "37130"}, "phone": null}
{"id": "da947aa3-cd76-eb11-a812-001dd8011447", "title": "Dickson County First Dose Vaccination POD", "lat": 36.06584, "long": -87.37467, "address": {"lines": ["1053 Hwy 47"], "city": "Dickson", "state": "TN", "zip": "37055"}, "phone": "866-442-5301"}
{"id": "ab993463-e1ad-eb11-a812-001dd80287a9", "title": "Dickson County First Dose Pfizer POD", "lat": 36.06584, "long": -87.37467, "address": {"lines": ["1053 Hwy 47"], "city": "Dickson", "state": "TN", "zip": "37055"}, "phone": null}
{"id": "e9e55dd4-d28b-eb11-a812-001dd802d34b", "title": "Dickson County Second Dose Pfizer POD", "lat": 36.06584, "long": -87.37467, "address": {"lines": ["1053 Hwy 47", "Gate #3 Entrance"], "city": "Dickson", "state": "TN", "zip": "37055"}, "phone": "866-442-5301"}
{"id": "c2c8d717-7bae-eb11-a812-001dd80289a2", "title": "Trousdale County Second Dose Pfizer POD", "lat": 36.38707, "long": -86.16548, "address": {"lines": ["270 Marlene St, Hartsville, TN 37074", "270 Marlene St"], "city": "Hartsville", "state": "TN", "zip": "37074"}, "phone": null}
{"id": "b1f3a3d2-7aae-eb11-a812-001dd80289c4", "title": "Trousdale County First Dose Pfizer POD", "lat": 36.38707, "long": -86.16548, "address": {"lines": ["270 Marlene St, Hartsville, TN 37074", "270 Marlene St"], "city": "Hartsville", "state": "TN", "zip": "37074"}, "phone": null}
{"id": "537d6860-d38b-eb11-a812-001dd802d336", "title": "Trousdale County First Dose POD", "lat": 36.38707, "long": -86.16548, "address": {"lines": ["270 Marlene Street"], "city": "Hartsville", "state": "TN", "zip": "37074"}, "phone": "866-442-5301"}
{"id": "f2f47bd2-d38b-eb11-a812-001dd802f1f6", "title": "Trousdale County Second Dose Moderna POD", "lat": 36.38707, "long": -86.16548, "address": {"lines": ["270 Marlene Street"], "city": "Hartsville", "state": "TN", "zip": "37074"}, "phone": "866-422-5301"}
{"id": "35498de8-cc76-eb11-a812-001dd8011447", "title": "Montgomery County Second Dose Pfizer POD", "lat": 36.58673, "long": -87.28898, "address": {"lines": ["2801 Wilma Rudolph Blvd"], "city": "Clarksville", "state": "TN", "zip": "37040"}, "phone": "866-442-5301"}
{"id": "cdd6fd05-cd76-eb11-a812-001dd801e91f", "title": "Montgomery County First Dose Vaccination POD", "lat": 36.58673, "long": -87.28898, "address": {"lines": ["2801 Wilma Rudolph Blvd"], "city": "Clarksville", "state": "TN", "zip": "37040"}, "phone": "866-442-5301"}
{"id": "c1bef52d-70ae-eb11-a812-001dd80289c8", "title": "Montgomery County First Dose Pfizer POD", "lat": 36.58673, "long": -87.28898, "address": {"lines": ["2801 Wilma Rudolph Blvd"], "city": "Clarksville", "state": "TN", "zip": "37040"}, "phone": null}
{"id": "a68c3c3e-f36a-eb11-a812-001dd800ae51", "title": "Governor's Square Mall (former Sears Auto Center) - Moderna 2nd Dose", "lat": 36.58835, "long": -87.28725, "address": {"lines": ["2801 Wilma Rudolph Blvd"], "city": "Clarksville", "state": "TN", "zip": "37040"}, "phone": "866-442-5301"}
{"id": "7982b69c-9e7a-eb11-a812-001dd80281f6", "title": "Columbia State Comm College - Moderna 2nd Dose", "lat": 35.61728, "long": -87.10333, "address": {"lines": ["1665 Hampshire Pike"], "city": "Columbia", "state": "TN", "zip": "38401"}, "phone": null}
{"id": "98048852-a67a-eb11-a812-001dd80281f7", "title": "Columbia State Comm College - First Dose", "lat": 35.61728, "long": -87.10333, "address": {"lines": ["1665 Hampshire Pike"], "city": "Columbia", "state": "TN", "zip": "38401"}, "phone": null}
{"id": "cc3c7669-a67a-eb11-a812-001dd8028216", "title": "Columbia State Comm College - Pfizer 2nd Dose", "lat": 35.61728, "long": -87.10333, "address": {"lines": ["1665 Hampshire Pike"], "city": "Columbia", "state": "TN", "zip": "38401"}, "phone": null}
{"id": "fe28fa48-26ac-eb11-a812-001dd80284d5", "title": "Columbia State Comm College - Moderna 1st Dose", "lat": 35.61728, "long": -87.10333, "address": {"lines": ["1665 Hampshire Pike;"], "city": "Columbia", "state": "TN", "zip": "38401"}, "phone": null}
{"id": "80328df6-25ac-eb11-a812-001dd80288a7", "title": "Columbia State Comm College - Pfizer 1st Dose", "lat": 35.61728, "long": -87.10333, "address": {"lines": ["1665 Hampshire Pike"], "city": "Columbia", "state": "TN", "zip": "38401"}, "phone": null}
{"id": "9f6a69df-9682-eb11-a812-001dd802d0d2", "title": "Dekalb County Fairgrounds - Moderna 2nd Dose", "lat": 36.08079, "long": -86.03378, "address": {"lines": ["102 Fairgrounds Rd"], "city": "Alexandria", "state": "TN", "zip": "37012"}, "phone": "866-442-5301"}
{"id": "17cf0d80-9682-eb11-a812-001dd802d315", "title": "Dekalb County Fairgrounds - First Dose", "lat": 36.08062, "long": -86.03369, "address": {"lines": ["102 Fairgrounds Rd"], "city": "Alexandria", "state": "TN", "zip": "37012"}, "phone": "866-442-5301"}
{"id": "4270bf0c-93ae-eb11-a812-001dd8028255", "title": "Maury County Health Department - Pfizer 2nd Dose", "lat": 35.61501, "long": -87.12131, "address": {"lines": ["1909 Hampshire Pike"], "city": "Columbia", "state": "TN", "zip": "38401"}, "phone": null}
{"id": "1fb1f311-93ae-eb11-a812-001dd80285df", "title": "Maury County Health Department - Moderna 1st Dose", "lat": 35.61501, "long": -87.12131, "address": {"lines": ["1909 Hampshire Pike"], "city": "Columbia", "state": "TN", "zip": "38401"}, "phone": null}
{"id": "4e565206-93ae-eb11-a812-001dd802894b", "title": "Maury County Health Department - Moderna 2nd Dose", "lat": 35.61501, "long": -87.12131, "address": {"lines": ["1909 Hampshire Pike"], "city": "Columbia", "state": "TN", "zip": "38401"}, "phone": null}
{"id": "81b5e210-93ae-eb11-a812-001dd80289ea", "title": "Maury County Health Department - Pfizer 1st Dose", "lat": 35.61501, "long": -87.12131, "address": {"lines": ["1909 Hampshire Pike"], "city": "Columbia", "state": "TN", "zip": "38401"}, "phone": null}
{"id": "d928a82d-f86a-eb11-a812-001dd800ac9e", "title": "Smith County Health Department - First Dose", "lat": 36.25761, "long": -85.97037, "address": {"lines": ["251 Joy Alford Way"], "city": "Carthage", "state": "TN", "zip": "37030"}, "phone": "866-442-5301"}
{"id": "d6f31f40-f86a-eb11-a812-001dd800ac9e", "title": "Smith County Health Department - Moderna 2nd Dose", "lat": 36.25761, "long": -85.97037, "address": {"lines": ["251 Joy Alford Way"], "city": "Carthage", "state": "TN", "zip": "37030"}, "phone": "866-442-5301"}
{"id": "e847ea83-acae-eb11-a812-001dd80285df", "title": "Smith County Health Department - Pfizer 1st Dose", "lat": 36.25761, "long": -85.97037, "address": {"lines": ["251 Joy Alford Way"], "city": "Carthage", "state": "TN", "zip": "37030"}, "phone": "866-442-5301"}
{"id": "54254997-acae-eb11-a812-001dd802871a", "title": "Smith County Health Department - Pfizer 2nd Dose", "lat": 36.25761, "long": -85.97037, "address": {"lines": ["251 Joy Alford Way"], "city": "Carthage", "state": "TN", "zip": "37030"}, "phone": "866-442-5301"}
{"id": "a1e6c074-acae-eb11-a812-001dd80288a5", "title": "Smith County Health Department - Moderna 1st Dose", "lat": 36.25761, "long": -85.97037, "address": {"lines": ["251 Joy Alford Way"], "city": "Carthage", "state": "TN", "zip": "37030"}, "phone": "866-442-5301"}
{"id": "3e792331-f66a-eb11-a812-001dd800ac9e", "title": "Cannon County Health Department  - First Dose", "lat": 35.8314, "long": -86.07145, "address": {"lines": ["106 Alexander Drive"], "city": "Woodbury", "state": "TN", "zip": "37190"}, "phone": "866-442-5301"}
{"id": "20f60e31-f66a-eb11-a812-001dd800ae51", "title": "Cannon County Health Department - Moderna 2nd Dose", "lat": 35.8314, "long": -86.07145, "address": {"lines": ["106 Alexander Drive"], "city": "Woodbury", "state": "TN", "zip": "37190"}, "phone": "866-442-5301"}
{"id": "11433db5-a3ae-eb11-a812-001dd80280ce", "title": "Cannon County Health Department - Pfizer 1st Dose", "lat": 35.8314, "long": -86.07145, "address": {"lines": ["106 Alexander Drive"], "city": "Woodbury", "state": "TN", "zip": "37190"}, "phone": "866-442-5301"}
{"id": "ca39aac9-a3ae-eb11-a812-001dd802881f", "title": "Cannon County Health Department - Pfizer 2nd Dose", "lat": 35.8314, "long": -86.07145, "address": {"lines": ["106 Alexander Drive"], "city": "Woodbury", "state": "TN", "zip": "37190"}, "phone": "866-442-5301"}
{"id": "17627e99-a3ae-eb11-a812-001dd80289c4", "title": "Cannon County Health Department - Moderna 1st Dose", "lat": 35.8314, "long": -86.07145, "address": {"lines": ["106 Alexander Drive"], "city": "Woodbury", "state": "TN", "zip": "37190"}, "phone": "866-442-5301"}
{"id": "3af3d77e-666d-eb11-a812-001dd800323b", "title": "Hickman County Health Department - First Dose", "lat": 35.77983, "long": -87.4637, "address": {"lines": ["111 Murphree Avenue"], "city": "Centerville", "state": "TN", "zip": "37033"}, "phone": null}
{"id": "87cdd4f6-666d-eb11-a812-001dd8009e3d", "title": "Hickman County Health Department - Pfizer 2nd Dose", "lat": 35.77983, "long": -87.4637, "address": {"lines": ["111 Murphree Avenue"], "city": "Centerville", "state": "TN", "zip": "37033"}, "phone": null}
{"id": "e41c7eb4-666d-eb11-a812-001dd800a4ee", "title": "Hickman County Health Department - Moderna 2nd Dose", "lat": 35.77983, "long": -87.4637, "address": {"lines": ["111 Murphree Avenue"], "city": "Centerville", "state": "TN", "zip": "37033"}, "phone": null}
{"id": "2b6fc8ec-1cac-eb11-a812-001dd80281c8", "title": "Hickman County Health Department - Moderna 1st Dose", "lat": 35.77983, "long": -87.4637, "address": {"lines": ["111 Murphree Avenue"], "city": "Centerville", "state": "TN", "zip": "37033"}, "phone": null}
{"id": "3740cdf3-1bac-eb11-a812-001dd8028896", "title": "Hickman County Health Department - Pfizer 1st Dose", "lat": 35.77983, "long": -87.4637, "address": {"lines": ["111 Murphree Avenue"], "city": "Centerville", "state": "TN", "zip": "37033"}, "phone": null}
{"id": "57e4ad85-466d-eb11-a812-001dd800ae76", "title": "Macon County Fairgrounds", "lat": 36.51515, "long": -86.06608, "address": {"lines": ["231 Russell Drive"], "city": "Lafayette", "state": "TN", "zip": "37083"}, "phone": "866-442-5301"}
{"id": "d23011bd-777b-eb11-a812-001dd8028230", "title": "Macon County Fairgrounds - Moderna 2nd Dose", "lat": 36.51515, "long": -86.06608, "address": {"lines": ["231 Russell Drive"], "city": "Lafayette", "state": "TN", "zip": "37083"}, "phone": "866-442-5301"}
{"id": "b39d4f6e-aaae-eb11-a812-001dd8028771", "title": "Macon County Fairgrounds - Moderna 1st Dose", "lat": 36.51515, "long": -86.06608, "address": {"lines": ["231 Russell Drive"], "city": "Lafayette", "state": "TN", "zip": "37083"}, "phone": "866-442-5301"}
{"id": "d565ea92-aaae-eb11-a812-001dd80287b4", "title": "Macon County Fairgrounds - Pfizer 2nd Dose", "lat": 36.51515, "long": -86.06608, "address": {"lines": ["231 Russell Drive"], "city": "Lafayette", "state": "TN", "zip": "37083"}, "phone": "866-442-5301"}
{"id": "d648c382-aaae-eb11-a812-001dd802894b", "title": "Macon County Fairgrounds - Pfizer 1st Dose", "lat": 36.51515, "long": -86.06608, "address": {"lines": ["231 Russell Drive"], "city": "Lafayette", "state": "TN", "zip": "37083"}, "phone": "866-442-5301"}
{"id": "5cc18ba3-5b6a-eb11-a812-001dd800ac9e", "title": "Bedford County Agripark - Moderna 2nd Dose", "lat": 35.51858, "long": -86.4596, "address": {"lines": ["2119 Midland Road"], "city": "Shelbyville", "state": "TN", "zip": "37160"}, "phone": "866-442-5301"}
{"id": "08db15cf-5b6a-eb11-a812-001dd800ac9e", "title": "Bedford County Agripark - Pfizer 2nd Dose", "lat": 35.51858, "long": -86.4596, "address": {"lines": ["2119 Midland Road"], "city": "Shelbyville", "state": "TN", "zip": "37160"}, "phone": "866-442-5301"}
{"id": "d177c299-5b6a-eb11-a812-001dd800ae51", "title": "Bedford County Agripark - First Dose", "lat": 35.51858, "long": -86.4596, "address": {"lines": ["2119 Midland Road"], "city": "Shelbyville", "state": "TN", "zip": "37160"}, "phone": "866-442-5301"}
{"id": "0a192365-efa9-eb11-a812-001dd802f8b1", "title": "Bedford County Agripark - Moderna 1st Dose", "lat": 35.51858, "long": -86.4596, "address": {"lines": ["2119 Midland Road"], "city": "Shelbyville", "state": "TN", "zip": "37160"}, "phone": null}
{"id": "1970aec4-eea9-eb11-a812-001dd802fae9", "title": "Bedford County Agripark - Pfizer 1st Dose", "lat": 35.51858, "long": -86.4596, "address": {"lines": ["2119 Midland Road"], "city": "Shelbyville", "state": "TN", "zip": "37160"}, "phone": null}
{"id": "d4701e10-7fae-eb11-a812-001dd802821e", "title": "Williamson County Ag Park First Dose Pfizer POD", "lat": 36.86465, "long": -86.82605, "address": {"lines": ["4215 Long Lane"], "city": "Franklin", "state": "TN", "zip": "37064"}, "phone": null}
{"id": "e2f87e1b-07ad-eb11-a812-001dd80282b9", "title": "Marshall County Health Department - Pfizer 1st Dose", "lat": 35.44951, "long": -86.78286, "address": {"lines": ["206 Legion Ave"], "city": "Lewisburg", "state": "TN", "zip": "37091"}, "phone": null}
{"id": "8c12a36d-07ad-eb11-a812-001dd80284d5", "title": "Marshall County Health Department - Moderna 1st Dose", "lat": 35.44951, "long": -86.78286, "address": {"lines": ["206 Legion Ave"], "city": "Lewisburg", "state": "TN", "zip": "37091"}, "phone": null}
{"id": "8e43b812-15a2-eb11-a812-001dd802f426", "title": "Marshall County Health Department - Moderna 2nd Dose", "lat": 35.44951, "long": -86.78286, "address": {"lines": ["206 Legion Ave"], "city": "Lewisburg", "state": "TN", "zip": "37091"}, "phone": null}
{"id": "c4de6ce0-14a2-eb11-a812-001dd802f6e2", "title": "Marshall County Health Department - First Dose", "lat": 35.44951, "long": -86.78286, "address": {"lines": ["206 Legion Ave"], "city": "Lewisburg", "state": "TN", "zip": "37091"}, "phone": null}
{"id": "2910114e-15a2-eb11-a812-001dd802f902", "title": "Marshall County Health Department - Pfizer 2nd Dose", "lat": 35.44951, "long": -86.78286, "address": {"lines": ["206 Legion Ave"], "city": "Lewisburg", "state": "TN", "zip": "37091"}, "phone": null}
{"id": "e894b868-3e6d-eb11-a812-001dd800a5fa", "title": "Bedford County Health Department - Moderna 2nd Dose", "lat": 35.49187, "long": -86.47205, "address": {"lines": ["140 Dover Street"], "city": "Shelbyville", "state": "TN", "zip": "37160"}, "phone": null}
{"id": "115ddec7-3e6d-eb11-a812-001dd800ae16", "title": "Bedford County Health Department - Pfizer 2nd Dose", "lat": 35.49187, "long": -86.47205, "address": {"lines": ["140 Dover Street"], "city": "Shelbyville", "state": "TN", "zip": "37160"}, "phone": null}
{"id": "4a6907e3-3d6d-eb11-a812-001dd800af2e", "title": "Bedford County Health Department - First Dose", "lat": 35.49187, "long": -86.47205, "address": {"lines": ["140 Dover Street"], "city": "Shelbyville", "state": "TN", "zip": "37160"}, "phone": null}
{"id": "b35bbee8-efa9-eb11-a812-001dd802f98a", "title": "Bedford County Health Department - Pfizer 1st Dose", "lat": 35.49187, "long": -86.47205, "address": {"lines": ["140 Dover Street"], "city": "Shelbyville", "state": "TN", "zip": "37160"}, "phone": null}
{"id": "ef2b043e-f0a9-eb11-a812-001dd802fb57", "title": "Bedford County Health Department - Moderna 1st Dose", "lat": 35.49187, "long": -86.47205, "address": {"lines": ["140 Dover Street"], "city": "Shelbyville", "state": "TN", "zip": "37160"}, "phone": null}
{"id": "34e65851-6eae-eb11-a812-001dd802871a", "title": "Houston County Second Dose Pfizer POD", "lat": 36.32063, "long": -87.68556, "address": {"lines": ["5200 E Main St"], "city": "Erin", "state": "TN", "zip": "37061"}, "phone": null}
{"id": "8dc20f19-6eae-eb11-a812-001dd802894b", "title": "Houston County First Dose Pfizer POD", "lat": 36.32063, "long": -87.68556, "address": {"lines": ["5200 E Main St"], "city": "Erin", "state": "TN", "zip": "37061"}, "phone": null}
{"id": "7a604fd3-6dae-eb11-a812-001dd802898b", "title": "Houston County First Dose Moderna POD", "lat": 36.32063, "long": -87.68556, "address": {"lines": ["5200 E Main St"], "city": "Erin", "state": "TN", "zip": "37061"}, "phone": null}
{"id": "7fd403eb-e097-eb11-a812-001dd802d2bc", "title": "Houston County Second Dose Moderna POD", "lat": 36.32063, "long": -87.68556, "address": {"lines": ["5200 E Main St"], "city": "Erin", "state": "TN", "zip": "37061"}, "phone": "866-442-5301"}
{"id": "dc4a2b6b-e097-eb11-a812-001dd802d2d4", "title": "Houston County First Dose Vaccination POD", "lat": 36.32063, "long": -87.68556, "address": {"lines": ["5200 E Main St"], "city": "Erin", "state": "TN", "zip": "37061"}, "phone": "866-442-5301"}
{"id": "ff8cbeb9-17ac-eb11-a812-001dd80283a6", "title": "Dekalb County Health Department - First Dose", "lat": 35.97169, "long": -85.85408, "address": {"lines": ["254 Tiger Dr"], "city": "Smithville", "state": "TN", "zip": "37166"}, "phone": "866-442-5301"}
{"id": "60000cfa-a8ae-eb11-a812-001dd802851e", "title": "Dekalb County Health Department - Moderna 1st Dose", "lat": 35.97169, "long": -85.85408, "address": {"lines": ["254 Tiger Dr"], "city": "Smithville", "state": "TN", "zip": "37166"}, "phone": "866-442-5301"}
{"id": "70dfe00d-a9ae-eb11-a812-001dd802851e", "title": "Dekalb County Health Department - Pfizer 2nd Dose", "lat": 35.97169, "long": -85.85408, "address": {"lines": ["254 Tiger Dr"], "city": "Smithville", "state": "TN", "zip": "37166"}, "phone": "866-442-5301"}
{"id": "59a765a3-17ac-eb11-a812-001dd802871a", "title": "Dekalb County Health Department - Moderna 2nd Dose", "lat": 35.97169, "long": -85.85408, "address": {"lines": ["254 Tiger Dr"], "city": "Smithville", "state": "TN", "zip": "37166"}, "phone": "866-442-5301"}
{"id": "a14b8c02-a9ae-eb11-a812-001dd8028976", "title": "Dekalb County Health Department - Pfizer 1st Dose", "lat": 35.97169, "long": -85.85408, "address": {"lines": ["254 Tiger Dr"], "city": "Smithville", "state": "TN", "zip": "37166"}, "phone": "866-442-5301"}
{"id": "465c361a-516a-eb11-a812-001dd800ac9e", "title": "Humphreys County Health Department - First Dose", "lat": 36.08465, "long": -87.82362, "address": {"lines": ["725 Holly Lane"], "city": "Waverly", "state": "TN", "zip": "37185"}, "phone": "866-442-5301"}
{"id": "0c03c040-516a-eb11-a812-001dd800ac9e", "title": "Humphreys County Health Department - Moderna 2nd Dose", "lat": 36.08465, "long": -87.82362, "address": {"lines": ["725 Holly Lane"], "city": "Waverly", "state": "TN", "zip": "37185"}, "phone": "866-442-5301"}
{"id": "d70489f8-6eae-eb11-a812-001dd802825c", "title": "Humphreys County First Dose Pfizer POD", "lat": 36.08465, "long": -87.82362, "address": {"lines": ["725 Holly Lane"], "city": "Waverly", "state": "TN", "zip": "37185"}, "phone": null}
{"id": "40d0b8ae-6eae-eb11-a812-001dd80287b4", "title": "Humphreys County First Dose Moderna POD", "lat": 36.08465, "long": -87.82362, "address": {"lines": ["725 Holly Lane"], "city": "Waverly", "state": "TN", "zip": "37185"}, "phone": null}
{"id": "caf1fd44-6fae-eb11-a812-001dd80287b8", "title": "Humphreys County Second Dose Pfizer POD", "lat": 36.08465, "long": -87.82362, "address": {"lines": ["725 Holly Lane"], "city": "Waverly", "state": "TN", "zip": "37185"}, "phone": null}
{"id": "6718dd4b-77ae-eb11-a812-001dd80286e3", "title": "Stewart County Second Dose Pfizer POD", "lat": 36.56087, "long": -87.72389, "address": {"lines": ["2343 Hwy 79"], "city": "Big Rock", "state": "TN", "zip": "37023"}, "phone": null}
{"id": "13ca89c9-76ae-eb11-a812-001dd80287b4", "title": "Stewart County First Dose Moderna POD", "lat": 36.56087, "long": -87.72389, "address": {"lines": ["2343 Hwy 79"], "city": "Big Rock", "state": "TN", "zip": "37023"}, "phone": null}
{"id": "d6437d08-77ae-eb11-a812-001dd80287b8", "title": "Stewart County First Dose Pfizer POD", "lat": 36.56087, "long": -87.72389, "address": {"lines": ["2343 Hwy 79"], "city": "Big Rock", "state": "TN", "zip": "37023"}, "phone": null}
{"id": "200cd76e-f76a-eb11-a812-001dd800ac9e", "title": "Stewart County Fire Dept. - First Dose", "lat": 36.56101, "long": -87.72389, "address": {"lines": ["2343 US Highway 79"], "city": "Dover", "state": "TN", "zip": "37058"}, "phone": "866-442-5301"}
{"id": "290cd76e-f76a-eb11-a812-001dd800ac9e", "title": "Stewart County Fire Dept. - Moderna 2nd Dose", "lat": 36.56101, "long": -87.72389, "address": {"lines": ["2343 US Highway 79"], "city": "Dover", "state": "TN", "zip": "37058"}, "phone": "866-442-5301"}
{"id": "99b17dd6-656d-eb11-a812-001dd800ac9e", "title": "Lewis County Health Department - First Dose", "lat": 35.55126, "long": -87.55228, "address": {"lines": ["51 Smith Avenue"], "city": "Hohenwald", "state": "TN", "zip": "38462"}, "phone": null}
{"id": "8721590e-666d-eb11-a812-001dd800ad2c", "title": "Lewis County Health Department - Moderna 2nd Dose", "lat": 35.55126, "long": -87.55228, "address": {"lines": ["51 Smith Avenue"], "city": "Hohenwald", "state": "TN", "zip": "38462"}, "phone": null}
{"id": "7140b041-666d-eb11-a812-001dd800ad2c", "title": "Lewis County Health Department - Pfizer 2nd Dose", "lat": 35.55126, "long": -87.55228, "address": {"lines": ["51 Smith Avenue"], "city": "Hohenwald", "state": "TN", "zip": "38462"}, "phone": null}
{"id": "f7b3349a-1fac-eb11-a812-001dd80284d5", "title": "Lewis County Health Department - Moderna 1st Dose", "lat": 35.55126, "long": -87.55228, "address": {"lines": ["51 Smith Avenue"], "city": "Hohenwald", "state": "TN", "zip": "38462"}, "phone": null}
{"id": "0895dee7-1eac-eb11-a812-001dd802851e", "title": "Lewis County Health Department - Pfizer 1st Dose", "lat": 35.55126, "long": -87.55228, "address": {"lines": ["51 Smith Avenue"], "city": "Hohenwald", "state": "TN", "zip": "38462"}, "phone": null}
{"id": "0d218a5c-62a4-eb11-a812-001dd802f630", "title": "Coffee County Manchester Health Department - First Dose", "lat": 35.46925, "long": -86.08288, "address": {"lines": ["800 Parks St"], "city": "Manchester", "state": "TN", "zip": "37355"}, "phone": null}
{"id": "458234ae-62a4-eb11-a812-001dd802f7d7", "title": "Coffee County Manchester Health Department - 2nd Dose Moderna", "lat": 35.46925, "long": -86.08288, "address": {"lines": ["800 Parks St"], "city": "Manchester", "state": "TN", "zip": "37355"}, "phone": null}
{"id": "d2b1335d-f1a9-eb11-a812-001dd802f9a2", "title": "Coffee County Manchester Health Department - Moderna 1st Dose", "lat": 35.46925, "long": -86.08288, "address": {"lines": ["800 Parks St"], "city": "Manchester", "state": "TN", "zip": "37355"}, "phone": null}
{"id": "1b2800ed-f0a9-eb11-a812-001dd802fad0", "title": "Coffee County Manchester Health Department - Pfizer 1st Dose", "lat": 35.46925, "long": -86.08288, "address": {"lines": ["800 Parks St;"], "city": "Manchester", "state": "TN", "zip": "37355"}, "phone": null}
{"id": "3e76361e-63a4-eb11-a812-001dd802fb01", "title": "Coffee County Manchester Health Department - 2nd Dose Pfizer", "lat": 35.46925, "long": -86.08288, "address": {"lines": ["800 Parks St"], "city": "Manchester", "state": "TN", "zip": "37355"}, "phone": null}
{"id": "3d33d0cd-d0a9-eb11-a812-001dd802f3dc", "title": "Coffee County Administrative Plaza - Moderna 2nd Dose", "lat": 35.4603, "long": -86.08804, "address": {"lines": ["1329 McArthur Street"], "city": "Manchester", "state": "TN", "zip": "37355"}, "phone": null}
{"id": "55a00dc6-d0a9-eb11-a812-001dd802f400", "title": "Coffee County Administrative Plaza - Pfizer 2nd Dose", "lat": 35.4603, "long": -86.08804, "address": {"lines": ["1329 McArthur Street"], "city": "Manchester", "state": "TN", "zip": "37355"}, "phone": null}
{"id": "8147fcc5-d0a9-eb11-a812-001dd802fb2e", "title": "Coffee County Administrative Plaza - 1st Dose", "lat": 35.4603, "long": -86.08804, "address": {"lines": ["1329 McArthur Street"], "city": "Manchester", "state": "TN", "zip": "37355"}, "phone": null}
{"id": "0800a626-f2a9-eb11-a812-001dd802f630", "title": "Coffee County Tullahoma Department - Moderna 1st Dose", "lat": 35.36505, "long": -86.22454, "address": {"lines": ["615 Wilson Ave"], "city": "Tullahoma", "state": "TN", "zip": "37388"}, "phone": null}
{"id": "b31ec774-61a4-eb11-a812-001dd802f902", "title": "Coffee County Tullahoma Health Department - 2nd Dose Moderna", "lat": 35.36505, "long": -86.22454, "address": {"lines": ["615 Wilson Ave"], "city": "Tullahoma", "state": "TN", "zip": "37388"}, "phone": null}
{"id": "9459451b-61a4-eb11-a812-001dd802fb2e", "title": "Coffee County Tullahoma Health Department - First Dose", "lat": 35.36505, "long": -86.22454, "address": {"lines": ["615 Wilson Ave"], "city": "Tullahoma", "state": "TN", "zip": "37388"}, "phone": null}
{"id": "b5ce37b2-f1a9-eb11-a812-001dd802fb2e", "title": "Coffee County Tullahoma Health Department - Pfizer 1st Dose", "lat": 35.36505, "long": -86.22454, "address": {"lines": ["615 Wilson Ave"], "city": "Tullahoma", "state": "TN", "zip": "37388"}, "phone": null}
{"id": "8fa7e3d4-61a4-eb11-a812-001dd802fb57", "title": "Coffee County Tullahoma Health Department - 2nd Dose Pfizer", "lat": 35.36505, "long": -86.22454, "address": {"lines": ["615 Wilson Ave"], "city": "Tullahoma", "state": "TN", "zip": "37388"}, "phone": null}
{"id": "f418447a-f66a-eb11-a812-001dd800ac9e", "title": "Jackson County Health Department - First Dose", "lat": 36.3669, "long": -85.65426, "address": {"lines": ["600 North Murray Street"], "city": "Gainesboro", "state": "TN", "zip": "38562"}, "phone": "866-442-5301"}
{"id": "de2d7380-f66a-eb11-a812-001dd800ac9e", "title": "Jackson County Health Department - Moderna 2nd Dose", "lat": 36.3669, "long": -85.65426, "address": {"lines": ["600 North Murray Street"], "city": "Gainesboro", "state": "TN", "zip": "38562"}, "phone": "866-442-5301"}
{"id": "57711dce-a9ae-eb11-a812-001dd8028275", "title": "Jackson County Health Department - Moderna 1st Dose", "lat": 36.3669, "long": -85.65426, "address": {"lines": ["600 North Murray Street"], "city": "Gainesboro", "state": "TN", "zip": "38562"}, "phone": "866-442-5301"}
{"id": "c89120a1-a9ae-eb11-a812-001dd80287c7", "title": "Jackson County Health Department - Pfizer 2nd Dose", "lat": 36.3669, "long": -85.65426, "address": {"lines": ["600 North Murray Street"], "city": "Gainesboro", "state": "TN", "zip": "38562"}, "phone": "866-442-5301"}
{"id": "2d2145b0-a9ae-eb11-a812-001dd8028896", "title": "Jackson County Health Department - Pfizer 1st Dose", "lat": 36.3669, "long": -85.65426, "address": {"lines": ["600 North Murray Street"], "city": "Gainesboro", "state": "TN", "zip": "38562"}, "phone": "866-442-5301"}
{"id": "aa1d4703-27ac-eb11-a812-001dd80281c8", "title": "Moore County Health Department - Moderna 1st Dose", "lat": 35.28345, "long": -86.37479, "address": {"lines": ["12 MAGNOLIA DRIVE"], "city": "Lynchburg", "state": "TN", "zip": "37352"}, "phone": null}
{"id": "2c049ab2-26ac-eb11-a812-001dd80288a7", "title": "Moore County Health Department - Pfizer 1st Dose", "lat": 35.28345, "long": -86.37479, "address": {"lines": ["12 Magnolia Drive"], "city": "Lynchburg", "state": "TN", "zip": "37352"}, "phone": null}
{"id": "2673cc81-2d81-eb11-a812-001dd802d195", "title": "Moore County Health Department - 2nd Dose Pfizer", "lat": 35.28345, "long": -86.37479, "address": {"lines": ["12 Magnolia Drive"], "city": "Lynchburg", "state": "TN", "zip": "37352"}, "phone": null}
{"id": "56919a30-2d81-eb11-a812-001dd802d2c6", "title": "Moore County Health Department - 2nd Dose Moderna", "lat": 35.28345, "long": -86.37479, "address": {"lines": ["12 Magnolia Drive"], "city": "Lynchburg", "state": "TN", "zip": "37352"}, "phone": null}
{"id": "49c391ec-2c81-eb11-a812-001dd802d36b", "title": "Moore County Health Department - First Dose", "lat": 35.28345, "long": -86.37479, "address": {"lines": ["12 Magnolia Drive"], "city": "Lynchburg", "state": "TN", "zip": "37352"}, "phone": null}
{"id": "c73719cd-f86a-eb11-a812-001dd800ac9e", "title": "Warren County Health Department - First Dose", "lat": 35.69584, "long": -85.7504, "address": {"lines": ["1401 Sparta Street"], "city": "McMinnville", "state": "TN", "zip": "37110"}, "phone": "866-442-5301"}
{"id": "22917bd2-f86a-eb11-a812-001dd800ae51", "title": "Warren County Health Department - Moderna 2nd Dose", "lat": 35.69584, "long": -85.7504, "address": {"lines": ["1401 Sparta Street"], "city": "McMinnville", "state": "TN", "zip": "37110"}, "phone": "866-442-5301"}
{"id": "344357f9-adae-eb11-a812-001dd802851e", "title": "Warren County Health Department - Pfizer 1st Dose", "lat": 35.69584, "long": -85.7504, "address": {"lines": ["1401 Sparta Street"], "city": "McMinnville", "state": "TN", "zip": "37110"}, "phone": "866-442-5301"}
{"id": "2ef5fae7-adae-eb11-a812-001dd80287c8", "title": "Warren County Health Department - Moderna 1st Dose", "lat": 35.69584, "long": -85.7504, "address": {"lines": ["1401 Sparta Street"], "city": "McMinnville", "state": "TN", "zip": "37110"}, "phone": "866-442-5301"}
{"id": "1d630b11-aeae-eb11-a812-001dd8028839", "title": "Warren County Health Department - Pfizer 2nd Dose", "lat": 35.69584, "long": -85.7504, "address": {"lines": ["1401 Sparta Street"], "city": "McMinnville", "state": "TN", "zip": "37110"}, "phone": "866-442-5301"}
{"id": "1c46ee33-c56c-eb11-a812-001dd800a140", "title": "Giles County Health Department - Moderna 2nd Dose", "lat": 35.19586, "long": -87.02076, "address": {"lines": ["209 S. Cedar Lane"], "city": "Pulaski", "state": "TN", "zip": "38478"}, "phone": null}
{"id": "489ed49a-a66c-eb11-a812-001dd800a915", "title": "Giles County Health Department", "lat": 35.19586, "long": -87.02076, "address": {"lines": ["209 S. Cedar Lane"], "city": "Pulaski", "state": "TN", "zip": "38478"}, "phone": null}
{"id": "3c9deb72-c56c-eb11-a812-001dd800ae16", "title": "Giles County Health Department - Pfizer 2nd Dose", "lat": 35.19586, "long": -87.02076, "address": {"lines": ["209 S. Cedar Lane"], "city": "Pulaski", "state": "TN", "zip": "38478"}, "phone": null}
{"id": "bf78f1b2-18ac-eb11-a812-001dd80287c8", "title": "Giles County Health Department - Moderna 1st Dose", "lat": 35.19586, "long": -87.02076, "address": {"lines": ["209 S. Cedar Lane"], "city": "Pulaski", "state": "TN", "zip": "38478"}, "phone": null}
{"id": "6a8c7876-1bac-eb11-a812-001dd802881f", "title": "Giles County Health Department - Pfizer 1st Dose", "lat": 35.19586, "long": -87.02076, "address": {"lines": ["209 S. Cedar Lane"], "city": "Pulaski", "state": "TN", "zip": "38478"}, "phone": null}
{"id": "d2c2944a-5c6a-eb11-a812-001dd800ac9e", "title": "Elliott Popham Bldg - First Dose", "lat": 35.19108, "long": -87.00571, "address": {"lines": ["1255 East College Street"], "city": "Pulaski", "state": "TN", "zip": "38478"}, "phone": "866-442-5301"}
{"id": "8605a149-5c6a-eb11-a812-001dd800ae51", "title": "Elliott Popham Bldg - Moderna 2nd Dose", "lat": 35.19108, "long": -87.00571, "address": {"lines": ["1255 East College Street"], "city": "Pulaski", "state": "TN", "zip": "38478"}, "phone": "866-442-5301"}
{"id": "c2f6c84f-5c6a-eb11-a812-001dd800ae51", "title": "Elliott Popham Bldg - Pfizer 2nd Dose", "lat": 35.19108, "long": -87.00571, "address": {"lines": ["1255 East College Street"], "city": "Pulaski", "state": "TN", "zip": "38478"}, "phone": "866-442-5301"}
{"id": "34bf944c-c46c-eb11-a812-001dd800a268", "title": "Lawrence County Health Department - Pfizer 2nd Dose", "lat": 35.27314, "long": -87.34139, "address": {"lines": ["2379 Buffalo Road"], "city": "Lawrenceburg", "state": "TN", "zip": "38464"}, "phone": null}
{"id": "03085ce4-c26c-eb11-a812-001dd800a5fa", "title": "Lawrence County Health Department - Moderna 2nd Dose", "lat": 35.27314, "long": -87.34139, "address": {"lines": ["2379 Buffalo Road"], "city": "Lawrenceburg", "state": "TN", "zip": "38464"}, "phone": null}
{"id": "68b52c12-a66c-eb11-a812-001dd800a915", "title": "Lawrence County Health Department", "lat": 35.27314, "long": -87.34139, "address": {"lines": ["2379 Buffalo Road"], "city": "Lawrenceburg", "state": "TN", "zip": "38464"}, "phone": null}
{"id": "52cb5fba-1dac-eb11-a812-001dd80287c8", "title": "Lawrence County Health Department - Pfizer 1st Dose", "lat": 35.27314, "long": -87.34139, "address": {"lines": ["2379 Buffalo Road"], "city": "Lawrenceburg", "state": "TN", "zip": "38464"}, "phone": null}
{"id": "9684fe67-1eac-eb11-a812-001dd80289c4", "title": "Lawrence County Health Department - Moderna 1st Dose", "lat": 35.27314, "long": -87.34139, "address": {"lines": ["2379 Buffalo Road"], "city": "Lawrenceburg", "state": "TN", "zip": "38464"}, "phone": null}
{"id": "18815d5b-656d-eb11-a812-001dd800a268", "title": "Perry County Health Department - Moderna 2nd Dose", "lat": 35.61402, "long": -87.83977, "address": {"lines": ["31 Medical Drive"], "city": "Linden", "state": "TN", "zip": "37096"}, "phone": null}
{"id": "e71aca96-656d-eb11-a812-001dd800aa47", "title": "Perry County Health Department - Pfizer 2nd Dose", "lat": 35.61402, "long": -87.83977, "address": {"lines": ["31 Medical Drive"], "city": "Linden", "state": "TN", "zip": "37096"}, "phone": null}
{"id": "abf8a911-656d-eb11-a812-001dd800ab2b", "title": "Perry County Health Department - First Dose", "lat": 35.61402, "long": -87.83977, "address": {"lines": ["31 Medical Drive"], "city": "Linden", "state": "TN", "zip": "37096"}, "phone": null}
{"id": "f8dfda16-28ac-eb11-a812-001dd80287b4", "title": "Perry County Health Department - Moderna 1st Dose", "lat": 35.61402, "long": -87.83977, "address": {"lines": ["31 Medical Drive"], "city": "Linden", "state": "TN", "zip": "37096"}, "phone": null}
{"id": "0841b5b3-27ac-eb11-a812-001dd8028839", "title": "Perry County Health Department - Pfizer 1st Dose", "lat": 35.61402, "long": -87.83977, "address": {"lines": ["31 Medical Drive"], "city": "Linden", "state": "TN", "zip": "37096"}, "phone": null}
{"id": "b9534f92-23ac-eb11-a812-001dd802880a", "title": "Lincoln County Health Department - Pfizer 1st Dose", "lat": 35.15529, "long": -86.58344, "address": {"lines": ["1000 Washington St W, Suite A"], "city": "Fayetteville", "state": "TN", "zip": "37334"}, "phone": null}
{"id": "4ad3f0da-23ac-eb11-a812-001dd8028856", "title": "Lincoln County Health Department - Moderna 1st Dose", "lat": 35.15529, "long": -86.58344, "address": {"lines": ["1000 Washington St W, Suite A"], "city": "Fayetteville", "state": "TN", "zip": "37334"}, "phone": null}
{"id": "8c4f294f-64a4-eb11-a812-001dd802f51a", "title": "Lincoln County Health Department - 2nd Dose Moderna", "lat": 35.15529, "long": -86.58344, "address": {"lines": ["1000 Washington St W, Suite A"], "city": "Fayetteville", "state": "TN", "zip": "37334"}, "phone": null}
{"id": "04a11954-64a4-eb11-a812-001dd802f9f6", "title": "Lincoln County Health Department - 2nd Dose Pfizer", "lat": 35.15529, "long": -86.58344, "address": {"lines": ["1000 Washington St W, Suite A"], "city": "Fayetteville", "state": "TN", "zip": "37334"}, "phone": null}
{"id": "eeafdbb3-63a4-eb11-a812-001dd802faca", "title": "Lincoln County Health Department - First Dose", "lat": 35.15529, "long": -86.58344, "address": {"lines": ["1000 Washington St W, Suite A"], "city": "Fayetteville", "state": "TN", "zip": "37334"}, "phone": null}
{"id": "09dfa5e5-827b-eb11-a812-001dd8028192", "title": "Putnam County Fairgrounds - First Dose", "lat": 36.14437, "long": -85.50534, "address": {"lines": ["155 Fairground Street"], "city": "Cookeville", "state": "TN", "zip": "38501"}, "phone": "866-442-5301"}
{"id": "966c8d96-8b7b-eb11-a812-001dd8028192", "title": "Putnam County Fairgrounds - Moderna 2nd Dose", "lat": 36.14437, "long": -85.50534, "address": {"lines": ["155 Fairground Street"], "city": "Cookeville", "state": "TN", "zip": "38501"}, "phone": "866-442-5301"}
{"id": "5642078a-abae-eb11-a812-001dd8028771", "title": "Putnam County Fairgrounds - Pfizer 1st Dose", "lat": 36.14437, "long": -85.50534, "address": {"lines": ["155 Fairground Street"], "city": "Cookeville", "state": "TN", "zip": "38501"}, "phone": "866-442-5301"}
{"id": "27d08928-abae-eb11-a812-001dd802894b", "title": "Putnam County Fairgrounds - Moderna 1st Dose", "lat": 36.14437, "long": -85.50534, "address": {"lines": ["155 Fairground Street"], "city": "Cookeville", "state": "TN", "zip": "38501"}, "phone": "866-442-5301"}
{"id": "26ecacbb-0781-eb11-a812-001dd802f30f", "title": "Putnam County Fairgrounds - Pfizer 2nd Dose", "lat": 36.14437, "long": -85.50534, "address": {"lines": ["155 Fairground Street"], "city": "Cookeville", "state": "TN", "zip": "38501"}, "phone": "866-442-5301"}
{"id": "872178ea-5c6a-eb11-a812-001dd800ac9e", "title": "Lincoln County Fairgrounds - Pfizer 2nd Dose", "lat": 35.14428, "long": -86.57606, "address": {"lines": ["1003 Hedgemont Avenue"], "city": "Fayetteville", "state": "TN", "zip": "37334"}, "phone": "866-442-5301"}
{"id": "40e501e3-5c6a-eb11-a812-001dd800ae51", "title": "Lincoln County Fairgrounds - First Dose", "lat": 35.14428, "long": -86.57606, "address": {"lines": ["1003 Hedgemont Avenue"], "city": "Fayetteville", "state": "TN", "zip": "37334"}, "phone": "866-442-5301"}
{"id": "8d24fae8-5c6a-eb11-a812-001dd800ae51", "title": "Lincoln County Fairgrounds - Moderna 2nd Dose", "lat": 35.14428, "long": -86.57606, "address": {"lines": ["1003 Hedgemont Avenue"], "city": "Fayetteville", "state": "TN", "zip": "37334"}, "phone": "866-442-5301"}
{"id": "0da28d3b-24ac-eb11-a812-001dd8028273", "title": "Lincoln County Fairgrounds - Pfizer 1st Dose", "lat": 35.14428, "long": -86.57606, "address": {"lines": ["1003 Hedgemont Avenue"], "city": "Fayetteville", "state": "TN", "zip": "37334"}, "phone": null}
{"id": "93fa0486-24ac-eb11-a812-001dd80289c4", "title": "Lincoln County Fairgrounds- Moderna 1st Dose", "lat": 35.14428, "long": -86.57606, "address": {"lines": ["1003 Hedgemont Avenue"], "city": "; Fayetteville", "state": "TN", "zip": "37334"}, "phone": null}
{"id": "8c7c33b0-526a-eb11-a812-001dd800ac9e", "title": "Benton County Health Department  - First Dose", "lat": 36.05538, "long": -88.10887, "address": {"lines": ["225 Hospital Drive"], "city": "Camden", "state": "TN", "zip": "38320"}, "phone": "866-442-5301"}
{"id": "51526dc0-526a-eb11-a812-001dd800ae51", "title": "Benton County Health Department  - Moderna 2nd Dose", "lat": 36.05538, "long": -88.10887, "address": {"lines": ["225 Hospital Drive"], "city": "Camden", "state": "TN", "zip": "38320"}, "phone": "866-442-5301"}
{"id": "6768bea3-81ae-eb11-a812-001dd802821e", "title": "Benton County Health Department - Moderna 1st Dose", "lat": 36.05538, "long": -88.10887, "address": {"lines": ["225 Hospital Drive"], "city": "Camden", "state": "TN", "zip": "38320"}, "phone": null}
{"id": "23db0e4f-82ae-eb11-a812-001dd802821e", "title": "Benton County Health Department - Pfizer 2nd Dose", "lat": 36.05538, "long": -88.10887, "address": {"lines": ["225 Hospital Drive"], "city": "Camden", "state": "TN", "zip": "38320"}, "phone": null}
{"id": "b9edc507-82ae-eb11-a812-001dd8028839", "title": "Benton County Health Department - Pfizer 1st Dose", "lat": 36.05538, "long": -88.10887, "address": {"lines": ["225 Hospital Drive"], "city": "Camden", "state": "TN", "zip": "38320"}, "phone": null}
{"id": "bb46fc67-2776-eb11-a812-001dd801a9f9", "title": "Camden Church of Christ - First Dose", "lat": 36.03727, "long": -88.12102, "address": {"lines": ["1285 US-70"], "city": "Camden", "state": "TN", "zip": "38320"}, "phone": null}
{"id": "e8f8f06b-2776-eb11-a812-001dd801ee77", "title": "Camden Church of Christ - Moderna 2nd Dose", "lat": 36.03727, "long": -88.12102, "address": {"lines": ["1285 US-70"], "city": "Camden", "state": "TN", "zip": "38320"}, "phone": null}
{"id": "7bae4ad3-f86a-eb11-a812-001dd800ac9e", "title": "White County Health Department - First Dose", "lat": 35.92668, "long": -85.45916, "address": {"lines": ["135 Walker Street"], "city": "Sparta", "state": "TN", "zip": "38583"}, "phone": "866-442-5301"}
{"id": "64cf73d8-f86a-eb11-a812-001dd800ae51", "title": "White County Health Department - Moderna 2nd Dose", "lat": 35.92668, "long": -85.45916, "address": {"lines": ["135 Walker Street"], "city": "Sparta", "state": "TN", "zip": "38583"}, "phone": "866-442-5301"}
{"id": "b95bde2a-aeae-eb11-a812-001dd80281b7", "title": "White County Health Department - Moderna 1st Dose", "lat": 35.92668, "long": -85.45916, "address": {"lines": ["135 Walker Street"], "city": "Sparta", "state": "TN", "zip": "38583"}, "phone": "866-442-5301"}
{"id": "7bba2448-aeae-eb11-a812-001dd80288b3", "title": "White County Health Department - Pfizer 1st Dose", "lat": 35.92668, "long": -85.45916, "address": {"lines": ["135 Walker Street"], "city": "Sparta", "state": "TN", "zip": "38583"}, "phone": "866-442-5301"}
{"id": "35583813-a485-eb11-a812-001dd802d2fc", "title": "White County Health Department - Pfizer 2nd Dose", "lat": 35.92668, "long": -85.45916, "address": {"lines": ["135 Walker Street"], "city": "Sparta", "state": "TN", "zip": "38583"}, "phone": "866-442-5301"}
{"id": "95881a43-f66a-eb11-a812-001dd800ac9e", "title": "Clay County Health Department - Moderna 2nd Dose", "lat": 36.54831, "long": -85.50656, "address": {"lines": ["115 Guffey Street"], "city": "Celina", "state": "TN", "zip": "38551"}, "phone": "866-442-5301"}
{"id": "b34d1443-f66a-eb11-a812-001dd800ae51", "title": "Clay County Health Department - First Dose", "lat": 36.54831, "long": -85.50656, "address": {"lines": ["115 Guffey Street"], "city": "Celina", "state": "TN", "zip": "38551"}, "phone": "866-442-5301"}
{"id": "62b22058-a8ae-eb11-a812-001dd8028275", "title": "Clay County Health Department - Moderna 1st Dose", "lat": 36.54831, "long": -85.50656, "address": {"lines": ["115 Guffey Street Celina, Tennessee 38551"], "city": "Celina", "state": "TN", "zip": "38551"}, "phone": "866-442-5301"}
{"id": "bf109381-a8ae-eb11-a812-001dd80287d9", "title": "Clay County Health Department - Pfizer 2nd Dose", "lat": 36.54831, "long": -85.50656, "address": {"lines": ["115 Guffey Street"], "city": "Celina", "state": "TN", "zip": "38551"}, "phone": "866-442-5301"}
{"id": "6a322972-a8ae-eb11-a812-001dd802896e", "title": "Clay County Health Department - Pfizer 1st Dose", "lat": 36.54831, "long": -85.50656, "address": {"lines": ["115 Guffey Street"], "city": "Celina", "state": "TN", "zip": "38551"}, "phone": "866-442-5301"}
{"id": "29349a3f-526f-eb11-a812-001dd801d0a6", "title": "Franklin County Health Department - 1st Dose", "lat": 35.16975, "long": -86.13463, "address": {"lines": ["266 Joyce Lane"], "city": "Winchester", "state": "TN", "zip": "37398"}, "phone": "866-442-5301"}
{"id": "dbf6f14d-536f-eb11-a812-001dd80216f3", "title": "Franklin County Health Department - Pfizer 2nd Dose", "lat": 35.16975, "long": -86.13463, "address": {"lines": ["266 Joyce Lane"], "city": "Winchester", "state": "TN", "zip": "37398"}, "phone": "866-442-5301"}
{"id": "410231d3-526f-eb11-a812-001dd8021a79", "title": "Franklin County Health Department - Moderna 2nd Dose", "lat": 35.16975, "long": -86.13463, "address": {"lines": ["266 Joyce Lane"], "city": "Winchester", "state": "TN", "zip": "37398"}, "phone": "866-442-5301"}
{"id": "81e79db7-a7ad-eb11-a812-001dd80283a6", "title": "Franklin County Health Department - Pfizer 1st Dose", "lat": 35.16975, "long": -86.13463, "address": {"lines": ["266 Joyce Ln"], "city": "Winchester", "state": "TN", "zip": "37398"}, "phone": "866-442-5301"}
{"id": "984f8d9e-a7ad-eb11-a812-001dd802896e", "title": "Franklin County Health Department - Moderna 1st Dose", "lat": 35.16975, "long": -86.13463, "address": {"lines": ["266 Joyce Ln"], "city": "Winchester", "state": "TN", "zip": "37398"}, "phone": "866-442-5301"}
{"id": "1e03db38-536f-eb11-a812-001dd801d6f6", "title": "Grundy County Health Department - Moderna 2nd Dose", "lat": 35.42695, "long": -85.72207, "address": {"lines": ["1372 Main Street"], "city": "Altamont", "state": "TN", "zip": "37301"}, "phone": "866-442-5301"}
{"id": "ce9d95be-526f-eb11-a812-001dd8021d6c", "title": "Grundy County Health Department - First Dose", "lat": 35.42695, "long": -85.72207, "address": {"lines": ["1372 Main Street"], "city": "Altamont", "state": "TN", "zip": "37301"}, "phone": "866-442-5301"}
{"id": "a8f0deeb-a7ad-eb11-a812-001dd80284d5", "title": "Grundy County Health Department - Pfizer 1st Dose", "lat": 35.42707, "long": -85.72188, "address": {"lines": ["1372 Main St"], "city": "Altamont", "state": "TN", "zip": "37301"}, "phone": "866-442-5301"}
{"id": "14c0861d-a9ae-eb11-a812-001dd8028839", "title": "Grundy County Health Department - Pfizer 2nd Dose", "lat": 35.42707, "long": -85.72188, "address": {"lines": ["1372 Main St"], "city": "Altamont", "state": "TN", "zip": "37301"}, "phone": null}
{"id": "83da55a7-a8ae-eb11-a812-001dd80288a7", "title": "Grundy County Health Department - Moderna 1st Dose", "lat": 35.42707, "long": -85.72188, "address": {"lines": ["1372 Main St"], "city": "Altamont", "state": "TN", "zip": "37301"}, "phone": "866-442-5301"}
{"id": "78466ae5-f86a-eb11-a812-001dd800ac9e", "title": "Van Buren County Health Department - First Dose", "lat": 35.74736, "long": -85.46755, "address": {"lines": ["907 Old McMinville Street"], "city": "Spencer", "state": "TN", "zip": "38585"}, "phone": "866-442-5301"}
{"id": "193a6dea-f86a-eb11-a812-001dd800ae51", "title": "Van Buren County Health Department - Moderna 2nd Dose", "lat": 35.74736, "long": -85.46755, "address": {"lines": ["907 Old McMinville Street"], "city": "Spencer", "state": "TN", "zip": "38585"}, "phone": "866-442-5301"}
{"id": "e1fd18c9-acae-eb11-a812-001dd80281c8", "title": "Van Buren County Health Department - Pfizer 1st Dose", "lat": 35.74736, "long": -85.46755, "address": {"lines": ["907 Old McMinville Street"], "city": "Spencer", "state": "TN", "zip": "38585"}, "phone": "866-442-5301"}
{"id": "a37030df-acae-eb11-a812-001dd80284d5", "title": "Van Buren County Health Department - Pfizer 2nd Dose", "lat": 35.74736, "long": -85.46755, "address": {"lines": ["907 Old McMinville Street"], "city": "Spencer", "state": "TN", "zip": "38585"}, "phone": "866-442-5301"}
{"id": "e59f4fba-acae-eb11-a812-001dd80287c8", "title": "Van Buren County Health Department - Moderna 1st Dose", "lat": 35.74736, "long": -85.46755, "address": {"lines": ["907 Old McMinville Street"], "city": "Spencer", "state": "TN", "zip": "38585"}, "phone": "866-442-5301"}
{"id": "591426c9-5d6a-eb11-a812-001dd800ac9e", "title": "Wayne County Health Department - Moderna 2nd Dose", "lat": 35.30239, "long": -87.76237, "address": {"lines": ["725 South Main Street"], "city": "Waynesboro", "state": "TN", "zip": "38485"}, "phone": "866-442-5301"}
{"id": "242d48c7-5d6a-eb11-a812-001dd800ae51", "title": "Wayne County Health Department - First Dose", "lat": 35.30239, "long": -87.76237, "address": {"lines": ["725 South Main Street"], "city": "Waynesboro", "state": "TN", "zip": "38485"}, "phone": "866-442-5301"}
{"id": "580c5ad3-5d6a-eb11-a812-001dd800ae51", "title": "Wayne County Health Department - Pfizer 2nd Dose", "lat": 35.30239, "long": -87.76237, "address": {"lines": ["725 South Main Street"], "city": "Waynesboro", "state": "TN", "zip": "38485"}, "phone": "866-442-5301"}
{"id": "306863f6-28ac-eb11-a812-001dd8028576", "title": "Wayne County Health Department - Pfizer 1st Dose", "lat": 35.30239, "long": -87.76237, "address": {"lines": ["725 South Main Street;"], "city": "Waynesboro", "state": "TN", "zip": "38485"}, "phone": null}
{"id": "deadd436-29ac-eb11-a812-001dd80287d9", "title": "Wayne County Health Department - Moderna 1st Dose", "lat": 35.30239, "long": -87.76237, "address": {"lines": ["725 South Main Street;"], "city": "Waynesboro", "state": "TN", "zip": "38485"}, "phone": null}
{"id": "397cdcc3-f76a-eb11-a812-001dd800ae51", "title": "Overton County Health Department - First Dose", "lat": 36.39837, "long": -85.32386, "address": {"lines": ["5880 Bradford-Hicks Drive"], "city": "Livingston", "state": "TN", "zip": "38570"}, "phone": "866-442-5301"}
{"id": "ce7cdcc3-f76a-eb11-a812-001dd800ae51", "title": "Overton County Health Department - Moderna 2nd Dose", "lat": 36.39837, "long": -85.32386, "address": {"lines": ["5880 Bradford-Hicks Drive"], "city": "Livingston", "state": "TN", "zip": "38570"}, "phone": "866-442-5301"}
{"id": "83786ffc-a9ae-eb11-a812-001dd80281c8", "title": "Overton County Health Department - Moderna 1st Dose", "lat": 36.39837, "long": -85.32386, "address": {"lines": ["5880 Bradford-Hicks Drive"], "city": "LIvingston", "state": "TN", "zip": "38570"}, "phone": "866-442-5301"}
{"id": "f51a782f-aaae-eb11-a812-001dd80289c8", "title": "Overton County Health Department - Pfizer 1st Dose", "lat": 36.39837, "long": -85.32386, "address": {"lines": ["5880 Bradford-Hicks Drive"], "city": "Livingston", "state": "TN", "zip": "38570"}, "phone": "866-442-5301"}
{"id": "41895bc1-a385-eb11-a812-001dd802f301", "title": "Overton County Health Department - Pfizer 2nd Dose", "lat": 36.39837, "long": -85.32386, "address": {"lines": ["5880 Bradford-Hicks Drive"], "city": "Livingston", "state": "TN", "zip": "38570"}, "phone": "866-442-5301"}
{"id": "d10a3b5b-756d-eb11-a812-001dd8009e3d", "title": "Decatur County Hospital - Moderna 2nd Dose", "lat": 35.63591, "long": -88.12224, "address": {"lines": ["969 Tennessee Avenue South"], "city": "Parsons", "state": "TN", "zip": "38363"}, "phone": null}
{"id": "d5b4c0ba-746d-eb11-a812-001dd800ac9e", "title": "Decatur County Hospital - First Dose", "lat": 35.63591, "long": -88.12224, "address": {"lines": ["969 Tennessee Avenue South"], "city": "", "state": "TN", "zip": "38363"}, "phone": null}
{"id": "0b6c5ef6-526a-eb11-a812-001dd800ae51", "title": "Decatur County Fairgrounds - First Dose", "lat": 35.62312, "long": -88.11981, "address": {"lines": ["1925 Highway 641 South"], "city": "Parsons", "state": "TN", "zip": "38363"}, "phone": "866-442-5301"}
{"id": "9226de7f-546a-eb11-a812-001dd800ae51", "title": "Decatur County Fairgrounds - Moderna 2nd Dose", "lat": 35.62312, "long": -88.11981, "address": {"lines": ["1925 Highway 641 South"], "city": "Parsons", "state": "TN", "zip": "38363"}, "phone": "866-442-5301"}
{"id": "567bcd67-bd6f-eb11-a812-001dd8021a03", "title": "Henry County Fairgrounds - First Dose", "lat": 36.30755, "long": -88.28652, "address": {"lines": ["517 Royal Oak Drive"], "city": "Paris", "state": "TN", "zip": "38242"}, "phone": null}
{"id": "09245a18-be6f-eb11-a812-001dd8021c8e", "title": "Henry County Fairgrounds - Moderna 2nd Dose", "lat": 36.30755, "long": -88.28652, "address": {"lines": ["517 Royal Oak Drive"], "city": "Paris", "state": "TN", "zip": "38242"}, "phone": null}
{"id": "4d56b330-8aae-eb11-a812-001dd80281c8", "title": "Decatur County Health Department - Moderna 1st Dose", "lat": 35.58643, "long": -88.12233, "address": {}, "phone": null}
{"id": "3e1d2adf-48a1-eb11-a812-001dd802f5c2", "title": "Decatur County Health Department - Moderna 2nd Dose", "lat": 35.58643, "long": -88.12233, "address": {"lines": ["155 N Pleasant St"], "city": "Decaturville", "state": "TN", "zip": "38329"}, "phone": null}
{"id": "772ab723-48a1-eb11-a812-001dd802fb9d", "title": "Decatur County Health Department - First Dose", "lat": 35.58643, "long": -88.12233, "address": {"lines": ["155 N Pleasant St"], "city": "Decaturville", "state": "TN", "zip": "38329"}, "phone": null}
{"id": "05e638c5-5a6a-eb11-a812-001dd800ac9e", "title": "Henry County Health Department - First Dose", "lat": 36.29563, "long": -88.3141, "address": {"lines": ["803 Joy Street"], "city": "Paris", "state": "TN", "zip": "38242"}, "phone": "866-442-5301"}
{"id": "357a76c6-5a6a-eb11-a812-001dd800ae51", "title": "Henry County Health Department - Moderna 2nd Dose", "lat": 36.29563, "long": -88.3141, "address": {"lines": ["803 Joy Street"], "city": "Paris", "state": "TN", "zip": "38242"}, "phone": "866-442-5301"}
{"id": "d6990305-866d-eb11-a812-001dd800323b", "title": "Carroll County Civic Center - Moderna 2nd Dose", "lat": 36.00958, "long": -88.3827, "address": {"lines": ["201 Mustang Drive"], "city": "Huntington", "state": "TN", "zip": "38344"}, "phone": null}
{"id": "c8361baf-856d-eb11-a812-001dd800aa13", "title": "Carroll County Civic Center - First Dose", "lat": 36.00954, "long": -88.38278, "address": {"lines": ["201 Mustang Drive"], "city": "Huntington", "state": "TN", "zip": "38344"}, "phone": null}
{"id": "bedf1735-536a-eb11-a812-001dd800ac9e", "title": "Carroll County Health Department - Moderna 2nd Dose", "lat": 36.02308, "long": -88.40851, "address": {"lines": ["633 High Street"], "city": "Huntingdon", "state": "TN", "zip": "38344"}, "phone": "866-442-5301"}
{"id": "66c63148-536a-eb11-a812-001dd800ac9e", "title": "Carroll County Health Department - First Dose", "lat": 36.02308, "long": -88.40851, "address": {"lines": ["633 High Street"], "city": "Huntingdon", "state": "TN", "zip": "38344"}, "phone": "866-442-5301"}
{"id": "4e073561-86ae-eb11-a812-001dd8028818", "title": "Carroll County Health Department - Pfizer 1st Dose", "lat": 36.02308, "long": -88.40851, "address": {"lines": ["633 High Street"], "city": "Huntingdon", "state": "TN", "zip": "38344"}, "phone": null}
{"id": "7ce6aa9a-86ae-eb11-a812-001dd80288a7", "title": "Carroll County Health Department - Pfizer 2nd Dose", "lat": 36.02308, "long": -88.40851, "address": {"lines": ["633 High Street"], "city": "Huntingdon", "state": "TN", "zip": "38344"}, "phone": null}
{"id": "1d3bf6fc-85ae-eb11-a812-001dd80289c4", "title": "Carroll County Health Department - Moderna 1st Dose", "lat": 36.02308, "long": -88.40851, "address": {"lines": ["633 High Street"], "city": "Huntingdon", "state": "TN", "zip": "38344"}, "phone": "866-442-5301"}
{"id": "22cb1a58-fc71-eb11-a812-001dd801d0a6", "title": "Sequatchie County Health Department - Pfizer 2nd Dose", "lat": 35.38849, "long": -85.38189, "address": {"lines": ["16939 North Rankin Ave"], "city": "Dunlap", "state": "TN", "zip": "37327"}, "phone": "866-442-5301"}
{"id": "0c79883e-f771-eb11-a812-001dd802172c", "title": "Sequatchie County Health Department - Moderna 2nd Dose", "lat": 35.38849, "long": -85.38189, "address": {"lines": ["16939 North Rankin Ave"], "city": "Dunlap", "state": "TN", "zip": "37327"}, "phone": "866-442-5301"}
{"id": "03ef9121-f671-eb11-a812-001dd8021f39", "title": "Sequatchie County Health Department - First Dose", "lat": 35.38849, "long": -85.38189, "address": {"lines": ["16939 North Rankin Ave"], "city": "Dunlap", "state": "TN", "zip": "37327"}, "phone": "866-442-5301"}
{"id": "39a58986-a6ae-eb11-a812-001dd8028576", "title": "Sequatchie County Health Department - Pfizer 1st Dose", "lat": 35.38849, "long": -85.38189, "address": {"lines": ["16939 Rankin Ave"], "city": "Dunlap", "state": "TN", "zip": "37327"}, "phone": "866-442-5301"}
{"id": "b1070615-f86a-eb11-a812-001dd800ac9e", "title": "Pickett County Health Department - First Dose", "lat": 36.57528, "long": -85.137, "address": {"lines": ["1013 Woodlawn Drive"], "city": "Byrdstown", "state": "TN", "zip": "38549"}, "phone": "866-442-5301"}
{"id": "d8441c12-f86a-eb11-a812-001dd800ae51", "title": "Pickett County Health Department - Moderna 2nd Dose", "lat": 36.57528, "long": -85.137, "address": {"lines": ["1013 Woodlawn Drive"], "city": "Byrdstown", "state": "TN", "zip": "38549"}, "phone": "866-442-5301"}
{"id": "7851c8c4-aaae-eb11-a812-001dd802871a", "title": "Pickett County Health Department - Pfizer 1st Dose", "lat": 36.57528, "long": -85.137, "address": {"lines": ["1013 Woodlawn Drive"], "city": "Byrdstown", "state": "TN", "zip": "38549"}, "phone": "866-442-5301"}
{"id": "de0aaede-aaae-eb11-a812-001dd80289c8", "title": "Pickett County Health Department - Pfizer 2nd Dose", "lat": 36.57528, "long": -85.137, "address": {"lines": ["1013 Woodlawn Drive"], "city": "Byrdstown", "state": "TN", "zip": "38549"}, "phone": "866-442-5301"}
{"id": "44f8e5ab-aaae-eb11-a812-001dd80289e3", "title": "Pickett County Health Department - Moderna 1st Dose", "lat": 36.57528, "long": -85.137, "address": {"lines": ["1013 Woodlawn Drive"], "city": "Byrdstown", "state": "TN", "zip": "38549"}, "phone": "866-442-5301"}
{"id": "3c1c6fa0-5a6a-eb11-a812-001dd800ac9e", "title": "Henderson Co. Multiplex Bldg. - First Dose", "lat": 35.65528, "long": -88.38349, "address": {"lines": ["340 Natchez Trace Drive"], "city": "Lexington", "state": "TN", "zip": "38351"}, "phone": "866-442-5301"}
{"id": "363ae6a1-5a6a-eb11-a812-001dd800ae51", "title": "Henderson Co. Multiplex Bldg. - Moderna 2nd Dose", "lat": 35.65528, "long": -88.38349, "address": {"lines": ["340 Natchez Trace Drive"], "city": "Lexington", "state": "TN", "zip": "38351"}, "phone": "866-442-5301"}
{"id": "5c7f99ca-a8ae-eb11-a812-001dd8028605", "title": "Bledsoe County Fairgrounds - Moderna 1st Dose", "lat": 35.61337, "long": -85.19389, "address": {"lines": ["234 Allen P Deakins Rd"], "city": "Pikeville", "state": "TN", "zip": "37367"}, "phone": "866-442-5301"}
{"id": "fb4ecf43-526f-eb11-a812-001dd801d6d5", "title": "Bledsoe County Fairgrounds - Pfizer 2nd Dose", "lat": 35.61473, "long": -85.19292, "address": {"lines": ["Allen P. Deakins Road"], "city": "Pikeville", "state": "TN", "zip": "37369"}, "phone": "866-442-5301"}
{"id": "30853018-4e6f-eb11-a812-001dd801d6f6", "title": "Bledsoe County Fairgrounds - First Dose", "lat": 35.61473, "long": -85.19292, "address": {"lines": ["Allen P. Deakins Road"], "city": "Pikeville", "state": "TN", "zip": "37367"}, "phone": "866-442-5301"}
{"id": "dd2f99eb-516f-eb11-a812-001dd80217ca", "title": "Bledsoe County Fairgrounds - Moderna 2nd Dose", "lat": 35.61473, "long": -85.19292, "address": {"lines": ["Allen P. Deakins Road"], "city": "Pikeville", "state": "TN", "zip": "37368"}, "phone": "866-442-5301"}
{"id": "826fc12a-a6ad-eb11-a812-001dd80280ce", "title": "Bledsoe County Fairgrounds - Pfizer 1st Dose", "lat": 35.61473, "long": -85.19292, "address": {"lines": ["Allen P. Deakins Road"], "city": "Pikeville", "state": "TN", "zip": "37371"}, "phone": null}
{"id": "eb3cf6d9-a5ad-eb11-a812-001dd8028976", "title": "Bledsoe County Fairgrounds - Moderna 1st Dose", "lat": 35.61473, "long": -85.19292, "address": {"lines": ["Allen P. Deakins Road"], "city": "Pikeville", "state": "TN", "zip": "37370"}, "phone": null}
{"id": "3904874f-f66a-eb11-a812-001dd800ac9e", "title": "Cumberland County Community Complex - Moderna 2nd Dose", "lat": 35.96857, "long": -85.04328, "address": {"lines": ["1398 Livingston Road"], "city": "Crossville", "state": "TN", "zip": "38571"}, "phone": "866-442-5301"}
{"id": "8df30b4f-f66a-eb11-a812-001dd800ae51", "title": "Cumberland County Community Complex - First Dose", "lat": 35.96857, "long": -85.04328, "address": {"lines": ["1398 Livingston Road"], "city": "Crossville", "state": "TN", "zip": "38571"}, "phone": "866-442-5301"}
{"id": "b7e19662-a385-eb11-a812-001dd802d336", "title": "Cumberland County Community Complex - Pfizer 2nd Dose", "lat": 35.96857, "long": -85.04328, "address": {"lines": ["1398 Livingston Road"], "city": "Crossville", "state": "TN", "zip": "38571"}, "phone": "866-442-5301"}
{"id": "2ca86049-4aa1-eb11-a812-001dd802fae9", "title": "Henderson County Health Department - Moderna 2nd Dose", "lat": 35.62904, "long": -88.41161, "address": {"lines": ["340 Natchez Trace Drive"], "city": "Lexington", "state": "TN", "zip": "38351"}, "phone": null}
{"id": "5b4f19ff-49a1-eb11-a812-001dd802fb78", "title": "Henderson County Health Department - First Dose", "lat": 35.62904, "long": -88.41161, "address": {"lines": ["340 Natchez Trace Drive"], "city": "Lexington", "state": "TN", "zip": "38351"}, "phone": null}
{"id": "ea22eba7-f56a-eb11-a812-001dd800ac9e", "title": "Marion County Health Department - First Dose", "lat": 35.08053, "long": -85.62376, "address": {"lines": ["24 East 7th St."], "city": "Jasper", "state": "TN", "zip": "37347"}, "phone": "866-442-5301"}
{"id": "16e9baa6-f56a-eb11-a812-001dd800ae51", "title": "Marion County Health Department - Moderna 2nd Dose", "lat": 35.08053, "long": -85.62376, "address": {"lines": ["24 East 7th St."], "city": "Jasper", "state": "TN", "zip": "37347"}, "phone": "866-442-5301"}
{"id": "ab80a812-a8ae-eb11-a812-001dd8028275", "title": "Marion County Health Department - Moderna 1st Dose", "lat": 35.0805, "long": -85.62369, "address": {"lines": ["24 E 7th St"], "city": "Jasper", "state": "TN", "zip": "37347"}, "phone": "423-942-2238"}
{"id": "b580a812-a8ae-eb11-a812-001dd8028275", "title": "Marion County Health Department - Pfizer 1st Dose", "lat": 35.0805, "long": -85.62369, "address": {"lines": ["24 E 7th St"], "city": "Jasper", "state": "TN", "zip": "37347"}, "phone": "423-942-2238"}
{"id": "3219187c-a9ae-eb11-a812-001dd80283a6", "title": "Cumberland County Health Department - Pfizer 1st Dose", "lat": 35.93123, "long": -85.0097, "address": {"lines": ["1503 South Main Street"], "city": "Crossville", "state": "TN", "zip": "38555"}, "phone": "866-442-5301"}
{"id": "a4f97e6b-a9ae-eb11-a812-001dd80285df", "title": "Cumberland County Health Department - Moderna 1st Dose", "lat": 35.93123, "long": -85.0097, "address": {"lines": ["1503 South Main Street"], "city": "Crossville", "state": "TN", "zip": "38555"}, "phone": "866-442-5301"}
{"id": "5580598f-4ca4-eb11-a812-001dd802f5bb", "title": "Cumberland County Health Department - Pfizer 2nd Dose", "lat": 35.93123, "long": -85.0097, "address": {"lines": ["1503 South Main Street"], "city": "Crossville", "state": "TN", "zip": "38555"}, "phone": "866-442-5301"}
{"id": "62adf68f-4ca4-eb11-a812-001dd802f921", "title": "Cumberland County Health Department - Moderna 2nd Dose", "lat": 35.93123, "long": -85.0097, "address": {"lines": ["1503 South Main Street"], "city": "Crossville", "state": "TN", "zip": "38555"}, "phone": "866-442-5301"}
{"id": "7dee96a0-51a4-eb11-a812-001dd802f9eb", "title": "Cumberland County Health Department - First Dose", "lat": 35.93123, "long": -85.0097, "address": {"lines": ["1503 South Main Street"], "city": "Crossville", "state": "TN", "zip": "38555"}, "phone": "866-442-5301"}
{"id": "28e83a53-5a6a-eb11-a812-001dd800ae51", "title": "Hardin County Fairgrounds - First Dose", "lat": 35.24058, "long": -88.22597, "address": {"lines": ["1019 Clifton Road"], "city": "Savannah", "state": "TN", "zip": "38372"}, "phone": "866-442-5301"}
{"id": "15764159-5a6a-eb11-a812-001dd800ae51", "title": "Hardin County Fairgrounds - Moderna 2nd Dose", "lat": 35.24058, "long": -88.22597, "address": {"lines": ["1019 Clifton Road"], "city": "Savannah", "state": "TN", "zip": "38372"}, "phone": "866-442-5301"}
{"id": "0f500e6e-f66a-eb11-a812-001dd800ac9e", "title": "Fentress County Health Department - First Dose", "lat": 36.42391, "long": -84.93073, "address": {"lines": ["240 Colonial Circle", "Suite A"], "city": "Jamestown", "state": "TN", "zip": "38556"}, "phone": "866-442-5301"}
{"id": "f0500e6e-f66a-eb11-a812-001dd800ac9e", "title": "Fentress County Health Department - Moderna 2nd Dose", "lat": 36.42391, "long": -84.93073, "address": {"lines": ["240 Colonial Circle", "Suite A"], "city": "Jamestown", "state": "TN", "zip": "38556"}, "phone": "866-442-5301"}
{"id": "bacc8439-a9ae-eb11-a812-001dd8028275", "title": "Fentress County Health Department - Pfizer 2nd Dose", "lat": 36.42391, "long": -84.93073, "address": {"lines": ["240 Colonial Circle", "Suite A"], "city": "Jamestown", "state": "TN", "zip": "38556"}, "phone": "866-442-5301"}
{"id": "6e03852d-a9ae-eb11-a812-001dd8028576", "title": "Fentress County Health Department - Pfizer 1st Dose", "lat": 36.42391, "long": -84.93073, "address": {"lines": ["240 Colonial Circle", "Suite A"], "city": "Jamestown", "state": "TN", "zip": "38556"}, "phone": "866-442-5301"}
{"id": "aa8d811e-a9ae-eb11-a812-001dd802894b", "title": "Fentress County Health Department - Moderna 1st Dose", "lat": 36.42391, "long": -84.93073, "address": {"lines": ["240 Colonial Circle", "Suite A"], "city": "Jamestown", "state": "TN", "zip": "38556"}, "phone": "866-442-5301"}
{"id": "24f15b10-49a1-eb11-a812-001dd802f5ed", "title": "Hardin County Health Department - First Dose", "lat": 35.19973, "long": -88.24752, "address": {"lines": ["1920 Pickwick St"], "city": "Savannah", "state": "TN", "zip": "38372"}, "phone": null}
{"id": "782aa18f-49a1-eb11-a812-001dd802fb16", "title": "Hardin County Health Department - Moderna 2nd Dose", "lat": 35.19973, "long": -88.24752, "address": {"lines": ["1920 Pickwick St"], "city": "Savannah", "state": "TN", "zip": "38372"}, "phone": null}
{"id": "594ae72c-806d-eb11-a812-001dd800ab1d", "title": "Dresden Senior Citizen Center - Moderna 2nd Dose", "lat": 36.28273, "long": -88.69621, "address": {"lines": ["589 Evergreen Street"], "city": "Dresden", "state": "TN", "zip": "38225"}, "phone": null}
{"id": "f8019ad6-7f6d-eb11-a812-001dd800aed7", "title": "Dresden Senior Citizen Center - First Dose", "lat": 36.28273, "long": -88.69621, "address": {"lines": ["589 Evergreen Street"], "city": "Dresden", "state": "TN", "zip": "38225"}, "phone": null}
{"id": "b574ad11-596a-eb11-a812-001dd800ac9e", "title": "Weakley County Health Department - First Dose", "lat": 36.29371, "long": -88.74131, "address": {"lines": ["9852 Highway 22"], "city": "Dresden", "state": "TN", "zip": "38225"}, "phone": "866-442-5301"}
{"id": "d6a24d1e-596a-eb11-a812-001dd800ae51", "title": "Weakley County Health Department - Moderna 2nd Dose", "lat": 36.29371, "long": -88.74131, "address": {"lines": ["9852 Highway 22"], "city": "Dresden", "state": "TN", "zip": "38225"}, "phone": "866-442-5301"}
{"id": "49a76811-f66a-eb11-a812-001dd800ac9e", "title": "Rhea County Fairgrounds  - Pfizer 2nd Dose", "lat": 35.58953, "long": -84.93798, "address": {"lines": ["334 Eagle Lane"], "city": "Evensville", "state": "TN", "zip": "37332"}, "phone": "866-442-5301"}
{"id": "d35d700b-f66a-eb11-a812-001dd800ac9e", "title": "Rhea County Fairgrounds - Moderna 2nd Dose", "lat": 35.58949, "long": -84.93793, "address": {"lines": ["334 Eagle Lane"], "city": "Evensville", "state": "TN", "zip": "37332"}, "phone": "866-442-5301"}
{"id": "565d700b-f66a-eb11-a812-001dd800ac9e", "title": "Rhea County Fairgrounds - First Dose", "lat": 35.5894, "long": -84.93796, "address": {"lines": ["334 Eagle Lane"], "city": "Evensville", "state": "TN", "zip": "37332"}, "phone": "866-442-5301"}
{"id": "8cdd3e5c-536a-eb11-a812-001dd800ac9e", "title": "Chester County Health Department - First Dose", "lat": 35.44663, "long": -88.61745, "address": {"lines": ["301 Quinco Drive"], "city": "Henderson", "state": "TN", "zip": "38340"}, "phone": "866-442-5301"}
{"id": "c2fb3769-536a-eb11-a812-001dd800ae51", "title": "Chester County Health Department - Moderna 2nd Dose", "lat": 35.44663, "long": -88.61745, "address": {"lines": ["301 Quinco Drive"], "city": "Henderson", "state": "TN", "zip": "38340"}, "phone": "866-442-5301"}
{"id": "79d6915d-87ae-eb11-a812-001dd802825c", "title": "Chester County Health Department - Moderna 1st Dose", "lat": 35.44663, "long": -88.61745, "address": {"lines": ["301 Quinco Drive"], "city": "Henderson", "state": "TN", "zip": "38340"}, "phone": null}
{"id": "9f8c45aa-87ae-eb11-a812-001dd8028818", "title": "Chester County Health Department - Pfizer 2nd Dose", "lat": 35.44663, "long": -88.61745, "address": {"lines": ["301 Quinco Drive,"], "city": "Henderson", "state": "TN", "zip": "38340"}, "phone": null}
{"id": "5925ece6-87ae-eb11-a812-001dd80288a5", "title": "Chester County Health Department - Pfizer 1st Dose", "lat": 35.44663, "long": -88.61745, "address": {"lines": ["301 Quinco Drive"], "city": "Henderson", "state": "TN", "zip": "38340"}, "phone": null}
{"id": "d9a2c2b9-366d-eb11-a812-001dd800a140", "title": "Meigs County EMA - Pfizer 2nd Dose", "lat": 35.48971, "long": -84.80815, "address": {"lines": ["14850 TN-58"], "city": "Decatur", "state": "TN", "zip": "37322"}, "phone": "866-442-5301"}
{"id": "93ef8db3-356d-eb11-a812-001dd800aa13", "title": "Meigs County EMA - First  Dose", "lat": 35.48971, "long": -84.80815, "address": {"lines": ["14816 State Highway 58 South"], "city": "Decatur", "state": "TN", "zip": "37322"}, "phone": "866-442-5301"}
{"id": "f5f79d1f-366d-eb11-a812-001dd800ae76", "title": "Meigs County EMA - Moderna 2nd Dose", "lat": 35.48971, "long": -84.80815, "address": {"lines": ["14816 State Highway 58 South"], "city": "Decatur", "state": "TN", "zip": "37322"}, "phone": "866-442-5301"}
{"id": "d7050bc7-f56a-eb11-a812-001dd800ac9e", "title": "Decatur United Methodist Church - First Dose", "lat": 35.51287, "long": -84.79151, "address": {"lines": ["145 Vernon Street"], "city": "Decatur", "state": "TN", "zip": "37322"}, "phone": "866-442-5301"}
{"id": "f9050bc7-f56a-eb11-a812-001dd800ac9e", "title": "Decatur United Methodist Church - Moderna 2nd Dose", "lat": 35.51287, "long": -84.79151, "address": {"lines": ["145 Vernon Street"], "city": "Decatur", "state": "TN", "zip": "37322"}, "phone": "866-442-5301"}
{"id": "5b148277-d36b-eb11-a812-001dd800ac9e", "title": "Roane County Health Department - First Dose", "lat": 35.885, "long": -84.6542, "address": {"lines": ["1362 North Gateway Ave"], "city": "Rockwood", "state": "TN", "zip": "37854"}, "phone": "866-442-5301"}
{"id": "2611fb7d-d36b-eb11-a812-001dd800ac9e", "title": "Roane County Health Department - Moderna 2nd Dose", "lat": 35.885, "long": -84.6542, "address": {"lines": ["1362 North Gateway Ave"], "city": "Rockwood", "state": "TN", "zip": "37854"}, "phone": "866-442-5301"}
{"id": "5511fb7d-d36b-eb11-a812-001dd800ac9e", "title": "Roane County Health Department  - Pfizer 2nd Dose", "lat": 35.885, "long": -84.6542, "address": {"lines": ["1362 North Gateway Ave"], "city": "Rockwood", "state": "TN", "zip": "37854"}, "phone": "866-442-5301"}
{"id": "9e310ed2-866d-eb11-a812-001dd8008891", "title": "Gibson County Fairgrounds - Durand Lowery Building - First Dose", "lat": 35.95472, "long": -88.9476, "address": {"lines": ["1235 Manufacturer\u2019s Row, Trenton, Tennessee 38382"], "city": "Trenton", "state": "TN", "zip": "38382"}, "phone": null}
{"id": "f37c6227-876d-eb11-a812-001dd800aa13", "title": "Gibson County Fairgrounds - Durand Lowery Building - Moderna 2nd Dose", "lat": 35.95472, "long": -88.9476, "address": {"lines": ["1235 Manufacturer\u2019s Row"], "city": "Trenton", "state": "TN", "zip": "38382"}, "phone": null}
{"id": "3061b768-5c6a-eb11-a812-001dd800ae51", "title": "EMA Logistics Building - First Dose", "lat": 35.95135, "long": -88.94872, "address": {"lines": ["2020 Wood Drive"], "city": "Trenton", "state": "TN", "zip": "38382"}, "phone": "866-442-5301"}
{"id": "c1f86b6f-5c6a-eb11-a812-001dd800ae51", "title": "EMA Logistics Building - Moderna 2nd Dose", "lat": 35.95135, "long": -88.94872, "address": {"lines": ["2020 Wood Drive"], "city": "Trenton", "state": "TN", "zip": "38382"}, "phone": "866-442-5301"}
{"id": "29d34b30-596a-eb11-a812-001dd800ae51", "title": "McNairy County Health Department - First Dose", "lat": 35.16156, "long": -88.57372, "address": {"lines": ["725 East Poplar Avenue"], "city": "Selmer", "state": "TN", "zip": "38375"}, "phone": "866-442-5301"}
{"id": "aed34b30-596a-eb11-a812-001dd800ae51", "title": "McNairy County Health Department - Moderna 2nd Dose", "lat": 35.16156, "long": -88.57372, "address": {"lines": ["725 East Poplar Avenue"], "city": "Selmer", "state": "TN", "zip": "38375"}, "phone": "866-442-5301"}
{"id": "aecc655c-d36b-eb11-a812-001dd800ac9e", "title": "Morgan County Health Department- First Dose", "lat": 36.10486, "long": -84.5501, "address": {"lines": ["228 Flat Fork Road"], "city": "Wartburg", "state": "TN", "zip": "37887"}, "phone": "866-442-5301"}
{"id": "59356859-d36b-eb11-a812-001dd800ae51", "title": "Morgan County Health Department - Moderna 2nd Dose", "lat": 36.10486, "long": -84.5501, "address": {"lines": ["228 Flat Fork Road"], "city": "Wartburg", "state": "TN", "zip": "37887"}, "phone": "866-442-5301"}
{"id": "be662191-c390-eb11-a812-001dd802d100", "title": "Morgan Co. EMS Building - First Dose", "lat": 36.10486, "long": -84.5501, "address": {"lines": ["228 Flat Fork Road"], "city": "Wartburg", "state": "TN", "zip": "37887"}, "phone": null}
{"id": "5560a2fd-c390-eb11-a813-001dd802d115", "title": "Morgan Co. EMS Building - Moderna 2nd Dose", "lat": 36.10486, "long": -84.5501, "address": {"lines": ["228 Flat Fork Road"], "city": "Wartburg", "state": "TN", "zip": "37887"}, "phone": null}
{"id": "4f0ffd68-c490-eb11-a812-001dd802d333", "title": "Morgan Co. EMS Building - Pfizer 2nd Dose", "lat": 36.10486, "long": -84.5501, "address": {"lines": ["228 Flat Fork Road"], "city": "Wartburg", "state": "TN", "zip": "37887"}, "phone": null}
{"id": "1f31d805-7f6d-eb11-a812-001dd800ab2b", "title": "Obion County Fairgrounds - First Dose", "lat": 36.4224, "long": -89.03399, "address": {"lines": ["1711 East Church Street"], "city": "Union City", "state": "TN", "zip": "38261"}, "phone": "866-442-5301"}
{"id": "99c4a46d-7f6d-eb11-a812-001dd800af2e", "title": "Obion County Fairgrounds - Moderna 2nd Dose", "lat": 36.4224, "long": -89.03399, "address": {"lines": ["1711 East Church Street"], "city": "Union City", "state": "TN", "zip": "38261"}, "phone": "866-442-5301"}
{"id": "1515793c-7f6d-eb11-a812-001dd800a64f", "title": "Obion County Fairgrounds - Pfizer 2nd Dose", "lat": 36.42247, "long": -89.0351, "address": {"lines": ["1711 East Church Street"], "city": "Union City", "state": "TN", "zip": "38261"}, "phone": "866-442-5301"}
{"id": "cd7c4162-a7ad-eb11-a812-001dd80281c8", "title": "Bradley County Health Department - Pfizer 1st Dose", "lat": 35.15409, "long": -84.86785, "address": {"lines": ["201 Dooley Street SE"], "city": "CLEVELAND", "state": "TN", "zip": "37311"}, "phone": null}
{"id": "6276791e-a7ad-eb11-a812-001dd802894b", "title": "Bradley County Health Department - Moderna 1st Dose", "lat": 35.15409, "long": -84.86785, "address": {"lines": ["201 Dooley Street SE"], "city": "Cleveland", "state": "TN", "zip": "37311"}, "phone": null}
{"id": "19142df0-70a7-eb11-a812-001dd802f038", "title": "Bradley County Health Department - Moderna 2nd Dose", "lat": 35.15409, "long": -84.86785, "address": {"lines": ["201 Dooley Street SE"], "city": "Cleveland", "state": "TN", "zip": "37311"}, "phone": null}
{"id": "e87ed3ae-70a7-eb11-a812-001dd802f6e2", "title": "Bradley County Health Department - Pfizer 2nd Dose", "lat": 35.15409, "long": -84.86785, "address": {"lines": ["201 Dooley Street SE"], "city": "Cleveland", "state": "TN", "zip": "37311"}, "phone": null}
{"id": "e40d4f65-70a7-eb11-a812-001dd802fb59", "title": "Bradley County Health Department - First Dose", "lat": 35.15409, "long": -84.86785, "address": {"lines": ["201 Dooley Street SE"], "city": "Cleveland", "state": "TN", "zip": "37311"}, "phone": null}
{"id": "f1475b8c-596a-eb11-a812-001dd800ae51", "title": "Obion County Health Department - First Dose", "lat": 36.44319, "long": -89.06454, "address": {"lines": ["1008 Mt. Zion Road"], "city": "Union City", "state": "TN", "zip": "38261"}, "phone": "866-442-5301"}
{"id": "3766cf08-5b6a-eb11-a812-001dd800ae51", "title": "Obion County Health Department - Moderna 2nd Dose", "lat": 36.44319, "long": -89.06454, "address": {"lines": ["1008 Mt. Zion Road"], "city": "Union City", "state": "TN", "zip": "38261"}, "phone": "866-442-5301"}
{"id": "fa62a509-5b6a-eb11-a812-001dd800ac9e", "title": "Obion County Health Department - Pfizer 2nd Dose", "lat": 36.44336, "long": -89.06503, "address": {"lines": ["1008 Mt. Zion Road"], "city": "Union City", "state": "TN", "zip": "38261"}, "phone": "866-442-5301"}
{"id": "ad056080-f56a-eb11-a812-001dd800ac9e", "title": "First Baptist Church of Cleveland - First Dose", "lat": 35.19277, "long": -84.8241, "address": {"lines": ["300 Urbane Road"], "city": "Cleveland", "state": "TN", "zip": "37312"}, "phone": "866-442-5301"}
{"id": "b7056080-f56a-eb11-a812-001dd800ac9e", "title": "First Baptist Church of Cleveland - Moderna 2nd Dose", "lat": 35.19277, "long": -84.8241, "address": {"lines": ["300 Urbane Road"], "city": "Cleveland", "state": "TN", "zip": "37312"}, "phone": "866-442-5301"}
{"id": "f9056080-f56a-eb11-a812-001dd800ac9e", "title": "First Baptist Church of Cleveland  - Pfizer 2nd Dose", "lat": 35.19277, "long": -84.8241, "address": {"lines": ["300 Urbane Road"], "city": "Cleveland", "state": "TN", "zip": "37312"}, "phone": "866-442-5301"}
{"id": "d77f54d2-a6ad-eb11-a812-001dd80281b7", "title": "First Baptist Church of Cleveland - Pfizer 1st Dose", "lat": 35.19277, "long": -84.8241, "address": {"lines": ["300 Urbane Road"], "city": "Cleveland", "state": "TN", "zip": "37312"}, "phone": null}
{"id": "1667208f-a6ad-eb11-a812-001dd8028219", "title": "First Baptist Church of Cleveland - Moderna 1st Dose", "lat": 35.19277, "long": -84.8241, "address": {"lines": ["300 Urbane Road"], "city": "Cleveland", "state": "TN", "zip": "37312"}, "phone": null}
{"id": "03c7548c-959b-eb11-a812-001dd802f01c", "title": "First Baptist Church of Cleveland - J&J Single Dose", "lat": 35.19277, "long": -84.8241, "address": {"lines": ["300 Urbane Road"], "city": "Cleveland", "state": "TN", "zip": "37312"}, "phone": null}
{"id": "7951f089-d36b-eb11-a812-001dd800ac9e", "title": "Scott County Health Department - First Dose", "lat": 36.40895, "long": -84.48979, "address": {"lines": ["344 Court Street"], "city": "Huntsville", "state": "TN", "zip": "37756"}, "phone": "866-442-5301"}
{"id": "ad95e88f-d36b-eb11-a812-001dd800ac9e", "title": "Scott County Health Department - Moderna 2nd Dose", "lat": 36.40895, "long": -84.48979, "address": {"lines": ["344 Court Street"], "city": "Huntsville", "state": "TN", "zip": "37756"}, "phone": "866-442-5301"}
{"id": "c5d1dc61-658e-eb11-a812-001dd802d250", "title": "Scott County Health Department - Pfizer 2nd Dose", "lat": 36.40895, "long": -84.48979, "address": {"lines": ["344 Court Street"], "city": "Huntsville", "state": "TN", "zip": "37756"}, "phone": null}
{"id": "360221f4-4f6f-eb11-a812-001dd801b263", "title": "Athens Regional Park - First Dose", "lat": 35.45828, "long": -84.63998, "address": {"lines": ["101 Regional Park Drive"], "city": "Athens", "state": "TN", "zip": "37303"}, "phone": "866-442-5301"}
{"id": "22cd3fc6-506f-eb11-a812-001dd8021008", "title": "Athens Regional Park - Pfizer 2nd Dose", "lat": 35.45828, "long": -84.63998, "address": {"lines": ["101 Regional Park Drive"], "city": "Athens", "state": "TN", "zip": "37303"}, "phone": "866-442-5301"}
{"id": "418b6c5c-506f-eb11-a812-001dd802154c", "title": "Athens Regional Park - Moderna 2nd Dose", "lat": 35.45828, "long": -84.63998, "address": {"lines": ["101 Regional Park Drive"], "city": "Athens", "state": "TN", "zip": "37303"}, "phone": "866-442-5301"}
{"id": "78c03c99-536a-eb11-a812-001dd800ae51", "title": "Crockett County Health Department - First Dose", "lat": 35.78767, "long": -89.11732, "address": {"lines": ["209 North Bells Street"], "city": "Alamo", "state": "TN", "zip": "38001"}, "phone": "866-442-5301"}
{"id": "5cc5399f-536a-eb11-a812-001dd800ae51", "title": "Crockett County Health Department - Moderna 2nd Dose", "lat": 35.78767, "long": -89.11732, "address": {"lines": ["209 North Bells Street"], "city": "Alamo", "state": "TN", "zip": "38001"}, "phone": "866-442-5301"}
{"id": "9c2eb750-89ae-eb11-a812-001dd8028973", "title": "Crockett County Health Department - Pfizer 1st Dose", "lat": 35.78767, "long": -89.11732, "address": {"lines": ["209 North Bells Street"], "city": "Alamo", "state": "TN", "zip": "38001"}, "phone": null}
{"id": "f71aaaa7-89ae-eb11-a812-001dd80289c4", "title": "Crockett County Health Department - Pfizer 2nd Dose", "lat": 35.78767, "long": -89.11732, "address": {"lines": ["209 North Bells Street"], "city": "Alamo", "state": "TN", "zip": "38001"}, "phone": null}
{"id": "feea261c-89ae-eb11-a812-001dd80289e3", "title": "Crockett County Health Department - Moderna 1st Dose", "lat": 35.78767, "long": -89.11732, "address": {"lines": ["209 North Bells Street"], "city": "Alamo", "state": "TN", "zip": "38001"}, "phone": null}
{"id": "658ea54d-726d-eb11-a812-001dd800aa47", "title": "Alamo First Christian Church - Moderna 2nd Dose", "lat": 35.79199, "long": -89.14332, "address": {"lines": ["1550 State Route 88"], "city": "Alamo", "state": "TN", "zip": "38001"}, "phone": null}
{"id": "4cb72a07-726d-eb11-a812-001dd800af2e", "title": "Alamo First Christian Church - First Dose", "lat": 35.79199, "long": -89.14332, "address": {"lines": ["1500 State Route 88"], "city": "Alamo", "state": "TN", "zip": "38001"}, "phone": null}
{"id": "fff000eb-a7ae-eb11-a812-001dd802821e", "title": "McMinn County Health Department - Moderna 1st Dose", "lat": 35.39579, "long": -84.56717, "address": {"lines": ["393 County Road 554"], "city": "Athens", "state": "TN", "zip": "37303"}, "phone": "866-442-5301"}
{"id": "d5464be8-a7ae-eb11-a812-001dd8028275", "title": "McMinn County Health Department - Pfizer 1st Dose", "lat": 35.39579, "long": -84.56717, "address": {"lines": ["393 County Road 554"], "city": "Athens", "state": "TN", "zip": "37303"}, "phone": "866-442-5301"}
{"id": "289ad0ba-f56a-eb11-a812-001dd800ac9e", "title": "McMinn County Health Department - First Dose", "lat": 35.39551, "long": -84.5666, "address": {"lines": ["393 County Road 554"], "city": "Athens", "state": "TN", "zip": "37303"}, "phone": "866-442-5301"}
{"id": "d3e3bdb8-f56a-eb11-a812-001dd800ae51", "title": "McMinn County Health Department  - Moderna 2nd Dose", "lat": 35.39551, "long": -84.5666, "address": {"lines": ["393 County Road 554"], "city": "Athens", "state": "TN", "zip": "37303"}, "phone": "866-442-5301"}
{"id": "f1e9babe-f56a-eb11-a812-001dd800ae51", "title": "McMinn County Health Department  - Pfizer 2nd Dose", "lat": 35.39551, "long": -84.5666, "address": {"lines": ["393 County Road 554"], "city": "Athens", "state": "TN", "zip": "37303"}, "phone": "866-442-5301"}
{"id": "ba944572-da6b-eb11-a812-001dd800ac9e", "title": "Loudon County Health Department - Moderna 2nd Dose", "lat": 35.72547, "long": -84.37708, "address": {"lines": ["600 Rayder Ave"], "city": "Loudon", "state": "TN", "zip": "37774"}, "phone": "866-442-5301"}
{"id": "b8d33d78-da6b-eb11-a812-001dd800ac9e", "title": "Loudon County Health Department - First Dose", "lat": 35.72547, "long": -84.37708, "address": {"lines": ["600 Rayder Ave"], "city": "Loudon", "state": "TN", "zip": "37774"}, "phone": "866-442-5301"}
{"id": "3f3a4b71-da6b-eb11-a812-001dd800ae51", "title": "Loudon County Health Department  - Pfizer 2nd Dose", "lat": 35.72547, "long": -84.37708, "address": {"lines": ["600 Rayder Ave"], "city": "Loudon", "state": "TN", "zip": "37774"}, "phone": "866-442-5301"}
{"id": "7d43baeb-f56a-eb11-a812-001dd800ac9e", "title": "Polk (Benton) County Health Department - First Dose", "lat": 35.16923, "long": -84.64197, "address": {"lines": ["2279 Parksville Road"], "city": "Benton", "state": "TN", "zip": "37307"}, "phone": "866-442-5301"}
{"id": "7020cff1-f56a-eb11-a812-001dd800ac9e", "title": "Polk (Benton) County Health Department - Pfizer 2nd Dose", "lat": 35.16923, "long": -84.64197, "address": {"lines": ["2279 Parksville Road"], "city": "Benton", "state": "TN", "zip": "37307"}, "phone": "866-442-5301"}
{"id": "a2d9baee-f56a-eb11-a812-001dd800ae51", "title": "Polk (Benton) County Health Department - Moderna 2nd Dose", "lat": 35.16923, "long": -84.64197, "address": {"lines": ["2279 Parksville Road"], "city": "Benton", "state": "TN", "zip": "37307"}, "phone": "866-442-5301"}
{"id": "8c7ccfa7-a7ae-eb11-a812-001dd80281b7", "title": "Polk (Benton) County Health Department - Pfizer 1st Dose", "lat": 35.16869, "long": -84.64206, "address": {"lines": ["2279 Parksville Rd"], "city": "Benton", "state": "TN", "zip": "37307"}, "phone": "866-442-5301"}
{"id": "3fb228a7-a7ae-eb11-a812-001dd80287b8", "title": "Polk (Benton) County Health Department - Moderna 1st Dose", "lat": 35.16869, "long": -84.64206, "address": {"lines": ["2279 Parksville Rd"], "city": "Benton", "state": "TN", "zip": "37307"}, "phone": "866-442-5301"}
{"id": "1e6bc072-1e8b-eb11-a812-001dd802d1c4", "title": "Loudon Municipal Park - Pfizer 2nd Dose", "lat": 35.73959, "long": -84.34394, "address": {"lines": ["1470 Roberson Spring Rd"], "city": "Loudon", "state": "TN", "zip": "37774"}, "phone": null}
{"id": "13c30128-1e8b-eb11-a812-001dd802d25d", "title": "Loudon Municipal Park - Moderna 2nd Dose", "lat": 35.73959, "long": -84.34394, "address": {"lines": ["1470 Roberson Spring Rd"], "city": "Loudon", "state": "TN", "zip": "37774"}, "phone": null}
{"id": "beedf12a-d36b-eb11-a812-001dd800ac9e", "title": "Monroe County Health Department - First Dose", "lat": 35.51756, "long": -84.41456, "address": {"lines": ["3469 New Highway 68", "Suite A"], "city": "Madisonville", "state": "TN", "zip": "37354"}, "phone": "866-442-5301"}
{"id": "06329849-d36b-eb11-a812-001dd800ac9e", "title": "Monroe County Health Department - Moderna 2nd Dose", "lat": 35.51756, "long": -84.41456, "address": {"lines": ["3469 New Highway 68", "Suite A"], "city": "Madisonville", "state": "TN", "zip": "37354"}, "phone": "866-442-5301"}
{"id": "f1346c4e-5a6a-eb11-a812-001dd800ac9e", "title": "Hardeman County Health Department - First Dose", "lat": 35.27848, "long": -89.02813, "address": {"lines": ["10825 Old Hwy 64"], "city": "Bolivar", "state": "TN", "zip": "38008"}, "phone": "866-442-5301"}
{"id": "35e67954-5a6a-eb11-a812-001dd800ac9e", "title": "Hardeman County Health Department - Moderna 2nd Dose", "lat": 35.27848, "long": -89.02813, "address": {"lines": ["10825 Old Hwy 64"], "city": "Bolivar", "state": "TN", "zip": "38008"}, "phone": "866-442-5301"}
{"id": "bd76cabb-5778-eb11-a812-001dd8011447", "title": "Hardeman County AgriBusiness Center - Moderna 2nd Dose", "lat": 35.27993, "long": -89.03215, "address": {"lines": ["120 Vildo Rd."], "city": "Bolivar", "state": "TN", "zip": "38008"}, "phone": null}
{"id": "1e811fcb-5778-eb11-a812-001dd8014dad", "title": "Hardeman County AgriBusiness Center - First Dose", "lat": 35.27993, "long": -89.03215, "address": {"lines": ["120 Vildo Rd."], "city": "Bolivar", "state": "TN", "zip": "38008"}, "phone": null}
{"id": "c7f8975e-786d-eb11-a812-001dd800a268", "title": "Haywood Park Hospital - First Dose", "lat": 35.61043, "long": -89.24311, "address": {"lines": ["2545 North Washington"], "city": "Brownsville", "state": "TN", "zip": "38012"}, "phone": null}
{"id": "60db65e0-786d-eb11-a812-001dd800ab2b", "title": "Haywood Park Hospital - Moderna 2nd Dose", "lat": 35.61043, "long": -89.24311, "address": {"lines": ["2545 North Washington"], "city": "Brownsville", "state": "TN", "zip": "38012"}, "phone": null}
{"id": "90adfc7f-5a6a-eb11-a812-001dd800ac9e", "title": "Haywood County Health Department - First Dose", "lat": 35.59356, "long": -89.25338, "address": {"lines": ["950 East Main St."], "city": "Brownsville", "state": "TN", "zip": "38012"}, "phone": "866-442-5301"}
{"id": "426bb886-5a6a-eb11-a812-001dd800ac9e", "title": "Haywood County Health Department - Moderna 2nd Dose", "lat": 35.59356, "long": -89.25338, "address": {"lines": ["950 East Main St."], "city": "Brownsville", "state": "TN", "zip": "38012"}, "phone": "866-442-5301"}
{"id": "f994121a-5a6a-eb11-a812-001dd800ac9e", "title": "Dyer County Fair Grounds - Pfizer 2nd Dose", "lat": 36.06601, "long": -89.36334, "address": {"lines": ["296 James H Rice Road"], "city": "Dyersburg", "state": "TN", "zip": "38024"}, "phone": "866-442-5301"}
{"id": "97672b17-5a6a-eb11-a812-001dd800ae51", "title": "Dyer County Fair Grounds - First Dose", "lat": 36.06601, "long": -89.36334, "address": {"lines": ["296 James H Rice Road"], "city": "Dyersburg", "state": "TN", "zip": "38024"}, "phone": "866-442-5301"}
{"id": "66682b17-5a6a-eb11-a812-001dd800ae51", "title": "Dyer County Fair Grounds - Moderna 2nd Dose", "lat": 36.06601, "long": -89.36334, "address": {"lines": ["296 James H Rice Road"], "city": "Dyersburg", "state": "TN", "zip": "38024"}, "phone": "866-442-5301"}
{"id": "b428add0-1d8b-eb11-a812-001dd802d19b", "title": "Loudon Municipal Park - First Dose", "lat": 35.79897, "long": -84.23353, "address": {"lines": ["1470 Roberson Spring Rd"], "city": "Loudon", "state": "TN", "zip": "37774"}, "phone": null}
{"id": "d1dfd8b8-d26b-eb11-a812-001dd800ac9e", "title": "Campbell County Health Department - Moderna 2nd Dose", "lat": 36.32751, "long": -84.19112, "address": {"lines": ["162 Sharp-Perkins Road"], "city": "Jacksboro", "state": "TN", "zip": "37757"}, "phone": "866-442-5301"}
{"id": "5b75c8b0-d26b-eb11-a812-001dd800ae51", "title": "Campbell County Health Department - First Dose", "lat": 36.32751, "long": -84.19112, "address": {"lines": ["162 Sharp-Perkins Road"], "city": "Jacksboro", "state": "TN", "zip": "37757"}, "phone": "866-442-5301"}
{"id": "a4e47177-4aa1-eb11-a812-001dd802f7a0", "title": "Dyer County Health Department - Pfizer 2nd Dose", "lat": 36.05039, "long": -89.38492, "address": {"lines": ["1755 Parr Ave"], "city": "Dyersburg", "state": "TN", "zip": "38024"}, "phone": null}
{"id": "16bb29ef-49a1-eb11-a812-001dd802faf0", "title": "Dyer County Health Department - Moderna 2nd Dose", "lat": 36.05039, "long": -89.38492, "address": {"lines": ["1755 Parr Ave"], "city": "Dyersburg", "state": "TN", "zip": "38024"}, "phone": null}
{"id": "7a65d36a-49a1-eb11-a812-001dd802fb16", "title": "Dyer County Health Department - First Dose", "lat": 36.05039, "long": -89.38492, "address": {"lines": ["1755 Parr Ave"], "city": "Dyersburg", "state": "TN", "zip": "38024"}, "phone": null}
{"id": "17ba92c5-786a-eb11-a812-001dd800ae51", "title": "Anderson County Health Department - First Dose", "lat": 36.11235, "long": -84.13227, "address": {"lines": ["710 North Main Street"], "city": "Clinton", "state": "TN", "zip": "37716"}, "phone": "866-442-5301"}
{"id": "6b41d58f-d16b-eb11-a812-001dd800ae51", "title": "Anderson County Health Department - Moderna 2nd Dose", "lat": 36.11235, "long": -84.13227, "address": {"lines": ["710 North Main Street"], "city": "Clinton", "state": "TN", "zip": "37716"}, "phone": "866-442-5301"}
{"id": "2bf5b814-d26b-eb11-a812-001dd800ae51", "title": "Anderson County Health Department  - Pfizer 2nd Dose", "lat": 36.11235, "long": -84.13227, "address": {"lines": ["710 North Main Street"], "city": "Clinton", "state": "TN", "zip": "37716"}, "phone": "866-442-5301"}
{"id": "ca4b283f-7e6d-eb11-a812-001dd800a5fa", "title": "American Legion Titponville - Moderna 2nd Dose", "lat": 36.36681, "long": -89.43304, "address": {"lines": ["2325 Highway 21"], "city": "Tiptonville", "state": "TN", "zip": "38079"}, "phone": null}
{"id": "bdedbca6-7c6d-eb11-a812-001dd800ae16", "title": "American Legion Titponville -First Dose", "lat": 36.36681, "long": -89.43304, "address": {"lines": ["2325 Highway 21"], "city": "Tiptonville", "state": "TN", "zip": "38079"}, "phone": null}
{"id": "cf163d24-596a-eb11-a812-001dd800ac9e", "title": "Lake County Health Department - Moderna 2nd Dose", "lat": 36.3698, "long": -89.46847, "address": {"lines": ["400 Highway 78 South"], "city": "Tiptonville", "state": "TN", "zip": "38079"}, "phone": "866-442-5301"}
{"id": "56a34d1e-596a-eb11-a812-001dd800ae51", "title": "Lake County Health Department - First Dose", "lat": 36.3698, "long": -89.46847, "address": {"lines": ["400 Highway 78 South"], "city": "Tiptonville", "state": "TN", "zip": "38079"}, "phone": "866-442-5301"}
{"id": "122bd7f8-f56a-eb11-a812-001dd800ac9e", "title": "Polk (Copper Basin) County Heath Department - Pfizer 2nd Dose", "lat": 35.02896, "long": -84.40013, "address": {"lines": ["840 Cherokee Trail"], "city": "Copperhill", "state": "TN", "zip": "37326"}, "phone": "866-442-5301"}
{"id": "914ac1f4-f56a-eb11-a812-001dd800ae51", "title": "Polk (Copper Basin) County Heath Department - First Dose", "lat": 35.02896, "long": -84.40013, "address": {"lines": ["840 Cherokee Trail"], "city": "Copperhill", "state": "TN", "zip": "37326"}, "phone": "866-442-5301"}
{"id": "bdccd1a4-a7ae-eb11-a812-001dd80287a9", "title": "Polk (Copper Basin) County Health Department - Moderna 1st Dose", "lat": 35.02654, "long": -84.39777, "address": {"lines": ["840 Cherokee Trail"], "city": "Copperhill", "state": "TN", "zip": "37317"}, "phone": "866-442-5301"}
{"id": "35b228a7-a7ae-eb11-a812-001dd80287b8", "title": "Polk (Copper Basin) County Health Department - Pfizer 1st Dose", "lat": 35.02654, "long": -84.39777, "address": {"lines": ["840 Cherokee Trail"], "city": "Copperhill", "state": "TN", "zip": "37317"}, "phone": "866-442-5301"}
{"id": "794bc1f4-f56a-eb11-a812-001dd800ae51", "title": "Polk (Copper Basin) County Heath Department - Moderna 2nd Dose", "lat": 35.02668, "long": -84.39757, "address": {"lines": ["840 Cherokee Trail"], "city": "Copperhill", "state": "TN", "zip": "37326"}, "phone": "866-442-5301"}
{"id": "9ffe0e81-6287-eb11-a812-001dd802d34b", "title": "Union Co- Alder Springs Baptist Church - First Dose", "lat": 36.36258, "long": -84.00575, "address": {"lines": ["708 Hickory Star Rd"], "city": "Maynardville", "state": "TN", "zip": "37807"}, "phone": null}
{"id": "86105cc8-6287-eb11-a812-001dd802f3a8", "title": "Union Co- Alder Springs Baptist Church - Moderna 2nd Dose", "lat": 36.36258, "long": -84.00575, "address": {"lines": ["708 Hickory Star Rd"], "city": "Maynardville", "state": "TN", "zip": "37807"}, "phone": null}
{"id": "e5451f05-daa2-eb11-a812-001dd802f8e1", "title": "Union Co- Alder Springs Baptist Church - Pfizer 2nd Dose", "lat": 36.36258, "long": -84.00575, "address": {"lines": ["708 Hickory Star Rd"], "city": "Maynardville", "state": "TN", "zip": "37807"}, "phone": null}
{"id": "49505614-4ba1-eb11-a812-001dd802f6e2", "title": "Fayette County Health Department - First Dose", "lat": 35.28961, "long": -89.36718, "address": {"lines": ["90 Yum Yum Rd"], "city": "Somerville", "state": "TN", "zip": "38068"}, "phone": null}
{"id": "53f80676-4ba1-eb11-a812-001dd802f921", "title": "Fayette County Health Department - Moderna 2nd Dose", "lat": 35.28961, "long": -89.36718, "address": {"lines": ["90 Yum Yum Rd"], "city": "Somerville", "state": "TN", "zip": "38068"}, "phone": null}
{"id": "9c52fbd6-4ba1-eb11-a812-001dd802f9e9", "title": "Fayette County Health Department - Pfizer 2nd Dose", "lat": 35.28961, "long": -89.36718, "address": {"lines": ["90 Yum Yum Rd"], "city": "Somerville", "state": "TN", "zip": "38068"}, "phone": null}
{"id": "7a782331-f66a-eb11-a812-001dd800ac9e", "title": "Fayette-Ware High School - First Dose", "lat": 35.28609, "long": -89.36614, "address": {"lines": ["13520 Highway 59 W"], "city": "Somerville", "state": "TN", "zip": "38068"}, "phone": "866-442-5301"}
{"id": "8c30aa06-f66a-eb11-a812-001dd800ae51", "title": "Fayette-Ware High School - Moderna 2nd Dose", "lat": 35.28609, "long": -89.36614, "address": {"lines": ["13520 Highway 59 W"], "city": "Somerville", "state": "TN", "zip": "38068"}, "phone": "866-442-5301"}
{"id": "5d7b6c2a-f66a-eb11-a812-001dd800ac9e", "title": "Fayette-Ware High School - Pfizer 2nd Dose", "lat": 35.28769, "long": -89.36945, "address": {"lines": ["13520 Highway 59 W"], "city": "Somerville", "state": "TN", "zip": "38068"}, "phone": "866-442-5301"}
{"id": "67b5752a-596a-eb11-a812-001dd800ac9e", "title": "Ripley Park - First Dose", "lat": 35.73609, "long": -89.54603, "address": {"lines": ["200 Mary Roberts Drive"], "city": "Ripley", "state": "TN", "zip": "38063"}, "phone": "866-442-5301"}
{"id": "99b5752a-596a-eb11-a812-001dd800ac9e", "title": "Ripley Park - Moderna 2nd Dose", "lat": 35.73609, "long": -89.54603, "address": {"lines": ["200 Mary Roberts Drive"], "city": "Ripley", "state": "TN", "zip": "38063"}, "phone": "866-442-5301"}
{"id": "ddb5752a-596a-eb11-a812-001dd800ac9e", "title": "Ripley Park - Pfizer 2nd Dose", "lat": 35.73668, "long": -89.54723, "address": {"lines": ["200 Mary Roberts Drive"], "city": "Ripley", "state": "TN", "zip": "38063"}, "phone": "866-442-5301"}
{"id": "3f17e725-4da1-eb11-a812-001dd802f8b1", "title": "Lauderdale County Health Department - Moderna 2nd Dose", "lat": 35.74817, "long": -89.55172, "address": {"lines": ["500 Highway 51 S"], "city": "Ripley", "state": "TN", "zip": "38063"}, "phone": null}
{"id": "7aeb2d1b-f87d-eb11-a812-001dd802807a", "title": "Blount Co. Foothills Mall - 2nd Dose Pfizer", "lat": 35.74633, "long": -83.99487, "address": {"lines": ["101 Foothills Mall Dr."], "city": "Maryville", "state": "TN", "zip": "37801"}, "phone": null}
{"id": "80fb1fb2-f77d-eb11-a812-001dd80280d2", "title": "Blount Co. Foothills Mall - 2nd Dose Moderna", "lat": 35.74633, "long": -83.99487, "address": {"lines": ["101 Foothills Mall Dr."], "city": "Maryville", "state": "TN", "zip": "37801"}, "phone": null}
{"id": "5301b6d9-f67d-eb11-a812-001dd8028121", "title": "Blount Co. Foothills Mall - First Dose", "lat": 35.74633, "long": -83.99487, "address": {"lines": ["101 Foothills Mall Dr."], "city": "Maryville", "state": "TN", "zip": "37801"}, "phone": null}
{"id": "29c1b298-d26b-eb11-a812-001dd800ac9e", "title": "Blount County Health Department  - Pfizer 2nd Dose", "lat": 35.75514, "long": -83.97541, "address": {"lines": ["301 McGhee Street"], "city": "Maryville", "state": "TN", "zip": "37801"}, "phone": "866-442-5301"}
{"id": "343fca86-d26b-eb11-a812-001dd800ae51", "title": "Blount County Health Department - First Dose", "lat": 35.75514, "long": -83.97541, "address": {"lines": ["301 McGhee Street"], "city": "Maryville", "state": "TN", "zip": "37801"}, "phone": "866-442-5301"}
{"id": "87abc692-d26b-eb11-a812-001dd800ae51", "title": "Blount County Health Department - Moderna 2nd Dose", "lat": 35.75514, "long": -83.97541, "address": {"lines": ["301 McGhee Street"], "city": "Maryville", "state": "TN", "zip": "37801"}, "phone": "866-442-5301"}
{"id": "1ba9b734-4da1-eb11-a812-001dd802f064", "title": "Lauderdale County Health Department - First Dose", "lat": 35.74826, "long": -89.65413, "address": {"lines": ["500 Highway 51 S"], "city": "Ripley", "state": "TN", "zip": "38063"}, "phone": null}
{"id": "6c363d7e-da6b-eb11-a812-001dd800ac9e", "title": "Tipton County - First Dose", "lat": 35.55562, "long": -89.65543, "address": {"lines": ["700 Bert Johnston Ave."], "city": "Covington", "state": "TN", "zip": "38019"}, "phone": "866-442-5301"}
{"id": "06abac84-da6b-eb11-a812-001dd800ac9e", "title": "Tipton County - Moderna 2nd Dose", "lat": 35.55562, "long": -89.65543, "address": {"lines": ["700 Bert Johnston Ave."], "city": "Covington", "state": "TN", "zip": "38019"}, "phone": "866-442-5301"}
{"id": "e8aaac84-da6b-eb11-a812-001dd800ac9e", "title": "Tipton County - Pfizer 2nd Dose", "lat": 35.55627, "long": -89.65737, "address": {"lines": ["700 Bert Johnston Ave."], "city": "Covington", "state": "TN", "zip": "38019"}, "phone": "866-442-5301"}
{"id": "5597d7a2-d36b-eb11-a812-001dd800ac9e", "title": "Union County Health Department - First Dose", "lat": 36.25373, "long": -83.79614, "address": {"lines": ["4335 Maynardville Highway"], "city": "Maynardville", "state": "TN", "zip": "37650"}, "phone": "866-442-5301"}
{"id": "a0007da7-d36b-eb11-a812-001dd800ae51", "title": "Union County Health Department - Moderna 2nd Dose", "lat": 36.25373, "long": -83.79614, "address": {"lines": ["4335 Maynardville Highway"], "city": "Maynardville", "state": "TN", "zip": "37650"}, "phone": "866-442-5301"}
{"id": "a038dc0a-4ba1-eb11-a812-001dd802f7d7", "title": "Tipton County Health Department - First Dose", "lat": 35.53644, "long": -89.65413, "address": {"lines": ["4700 Mueller Brass Rd"], "city": "Covington", "state": "TN", "zip": null}, "phone": null}
{"id": "1c0109b3-81a3-eb11-a812-001dd802fa97", "title": "Lauderdale County Health Department - Pfizer 2nd Dose", "lat": 35.53644, "long": -89.65413, "address": {"lines": ["500 Highway 51 S"], "city": "Ripley", "state": "TN", "zip": "38063"}, "phone": null}
{"id": "abaa7f65-4ba1-eb11-a812-001dd802faf0", "title": "Tipton County Health Department - Moderna 2nd Dose", "lat": 35.53644, "long": -89.65413, "address": {"lines": ["4700 Mueller Brass Rd"], "city": "Covington", "state": "TN", "zip": "38019"}, "phone": null}
{"id": "a07e7912-82a3-eb11-a812-001dd802fb01", "title": "Tipton County Health Department - Pfizer 2nd Dose", "lat": 35.53644, "long": -89.65413, "address": {"lines": ["4700 Mueller Brass Rd"], "city": "Covington", "state": "TN", "zip": "38019"}, "phone": null}
{"id": "50a42516-6487-eb11-a812-001dd802d27f", "title": "Claiborne Co - Lincoln Memorial University - Moderna 2nd Dose", "lat": 36.58008, "long": -83.65964, "address": {"lines": ["6965 Cumberland Gap Parkway"], "city": "Harrogate", "state": "TN", "zip": "37752"}, "phone": null}
{"id": "8a992ad2-6387-eb11-a812-001dd802d33a", "title": "Claiborne Co - Lincoln Memorial University - First Dose", "lat": 36.58008, "long": -83.65964, "address": {"lines": ["6965 Cumberland Gap Parkway"], "city": "Harrogate 37752", "state": "TN", "zip": "37752"}, "phone": null}
{"id": "a5df296a-6487-eb11-a812-001dd802d34b", "title": "Claiborne Co - Lincoln Memorial University - Pfizer 2nd Dose", "lat": 36.58008, "long": -83.65964, "address": {"lines": ["6965 Cumberland Gap Parkway"], "city": "Harrogate", "state": "TN", "zip": "37752"}, "phone": null}
{"id": "60031a20-4f6a-eb11-a812-001dd800ae51", "title": "Claiborne County Health Department - First Dose", "lat": 36.44062, "long": -83.58034, "address": {"lines": ["620 Davis Drive"], "city": "New Tazewell", "state": "TN", "zip": "37879"}, "phone": "866-442-5301"}
{"id": "8ee92832-4f6a-eb11-a812-001dd800ae51", "title": "Claiborne County Health Department - Moderna 2nd Dose", "lat": 36.44062, "long": -83.58034, "address": {"lines": ["620 Davis Drive"], "city": "New Tazewell", "state": "TN", "zip": "37879"}, "phone": "866-442-5301"}
{"id": "f0b8ef7f-08a9-eb11-a812-001dd802fb78", "title": "Claiborne Co. Health Department Pfizer 2nd Dose", "lat": 36.44062, "long": -83.58034, "address": {"lines": ["620 Davis Drive"], "city": "New Tazewell", "state": "TN", "zip": "37879"}, "phone": null}
{"id": "c53608eb-4f6a-eb11-a812-001dd800ac9e", "title": "Sevier County Health Department - Moderna 2nd Dose", "lat": 35.85464, "long": -83.53788, "address": {"lines": ["719 Middle Creek Road"], "city": "Sevierville", "state": "TN", "zip": "37862"}, "phone": "866-442-5301"}
{"id": "5a789f80-4f6a-eb11-a812-001dd800ae51", "title": "Sevier County Health Department - First Dose", "lat": 35.85464, "long": -83.53788, "address": {"lines": ["719 Middle Creek Road"], "city": "Sevierville", "state": "TN", "zip": "37862"}, "phone": "866-442-5301"}
{"id": "3a46cdf2-4f6a-eb11-a812-001dd800ae51", "title": "Sevier County Health Department  - Pfizer 2nd Dose", "lat": 35.85464, "long": -83.53788, "address": {"lines": ["719 Middle Creek Road"], "city": "Sevierville", "state": "TN", "zip": "37862"}, "phone": "866-442-5301"}
{"id": "42907df1-d26b-eb11-a812-001dd800ac9e", "title": "Grainger County Health Department - First Dose", "lat": 36.28386, "long": -83.50918, "address": {"lines": ["185 Justice Center Drive"], "city": "Rutledge", "state": "TN", "zip": "37861"}, "phone": "866-442-5301"}
{"id": "5c907df1-d26b-eb11-a812-001dd800ac9e", "title": "Grainger County Health Department - Moderna 2nd Dose", "lat": 36.28386, "long": -83.50918, "address": {"lines": ["185 Justice Center Drive"], "city": "Rutledge", "state": "TN", "zip": "37861"}, "phone": "866-442-5301"}
{"id": "2e26d9f8-d26b-eb11-a812-001dd800ae51", "title": "Grainger County Health Department  - Pfizer 2nd Dose", "lat": 36.28386, "long": -83.50918, "address": {"lines": ["185 Justice Center Drive"], "city": "Rutledge", "state": "TN", "zip": "37861"}, "phone": "866-442-5301"}
{"id": "55a07b11-d36b-eb11-a812-001dd800ac9e", "title": "Jefferson County Health Department - First Dose", "lat": 36.02954, "long": -83.42625, "address": {"lines": ["931 Industrial Park Road", "Suite 200"], "city": "Dandridge", "state": "TN", "zip": "37725"}, "phone": "866-442-5301"}
{"id": "b7c0f81d-d36b-eb11-a812-001dd800ac9e", "title": "Jefferson County Health Department - Moderna 2nd Dose", "lat": 36.02954, "long": -83.42625, "address": {"lines": ["931 Industrial Park Road", "Suite 201"], "city": "Dandridge", "state": "TN", "zip": "37725"}, "phone": "866-442-5301"}
{"id": "915da891-768e-eb11-a812-001dd802d29f", "title": "Jefferson County Health Department - Pfizer 2nd Dose", "lat": 36.02954, "long": -83.42625, "address": {"lines": ["931 Industrial Park Road", "Suite 200"], "city": "Dandridge", "state": "TN", "zip": "37725"}, "phone": null}
{"id": "369bd0f7-d26b-eb11-a812-001dd800ac9e", "title": "Hamblen County Health Department - First Dose", "lat": 36.2118, "long": -83.29548, "address": {"lines": ["331 W. Main"], "city": "Morristown", "state": "TN", "zip": "37814"}, "phone": "866-442-5301"}
{"id": "c767d1fe-d26b-eb11-a812-001dd800ae51", "title": "Hamblen County Health Department - Moderna 2nd Dose", "lat": 36.2118, "long": -83.29548, "address": {"lines": ["331 W. Main"], "city": "Morristown", "state": "TN", "zip": "37814"}, "phone": "866-442-5301"}
{"id": "c5a6c904-d36b-eb11-a812-001dd800ae51", "title": "Hamblen County Health Department - Pfizer 2nd Dose", "lat": 36.2118, "long": -83.29548, "address": {"lines": ["331 W. Main"], "city": "Morristown", "state": "TN", "zip": "37814"}, "phone": "866-442-5301"}
{"id": "737120d3-5587-eb11-a812-001dd802d25d", "title": "Cocke Co. Fairground - Moderna 2nd Dose", "lat": 35.97384, "long": -83.21747, "address": {"lines": ["112 Fairground Cir"], "city": "Newport", "state": "TN", "zip": "37821"}, "phone": null}
{"id": "6534aa18-5687-eb11-a812-001dd802d2e3", "title": "Cocke Co. Fairground - Pfizer 2nd Dose", "lat": 35.97384, "long": -83.21747, "address": {"lines": ["112 Fairground Cir"], "city": "Newport", "state": "TN", "zip": "37821"}, "phone": null}
{"id": "4e8d6664-5587-eb11-a812-001dd802d2fc", "title": "Cocke Co. Fairground - First Dose", "lat": 35.97384, "long": -83.21747, "address": {"lines": ["112 Fairground Cir"], "city": "Newport", "state": "TN", "zip": "37821"}, "phone": null}
{"id": "adfee23c-83ae-eb11-a812-001dd8028255", "title": "Hancock County Health Department - Pfizer 1st Dose", "lat": 36.53458, "long": -83.21423, "address": {"lines": ["178 Willow St"], "city": "Sneedville", "state": "TN", "zip": "37869"}, "phone": null}
{"id": "9a3c2280-91ae-eb11-a812-001dd80287d9", "title": "Hancock County Health Department - Moderna 1st Dose", "lat": 36.53458, "long": -83.21423, "address": {"lines": ["178 Willow St"], "city": "Sneedville", "state": "TN", "zip": "37869"}, "phone": null}
{"id": "51206506-2787-eb11-a812-001dd802d18a", "title": "Hancock County Health Department - Moderna 2nd Dose", "lat": 36.53458, "long": -83.21423, "address": {"lines": ["178 Willow St"], "city": "Sneedville", "state": "TN", "zip": "37869"}, "phone": "(423) 733-2228"}
{"id": "820020ae-2687-eb11-a812-001dd802d336", "title": "Hancock County Health Department - First Dose", "lat": 36.53458, "long": -83.21423, "address": {"lines": ["178 Willow St"], "city": "Sneedville", "state": "TN", "zip": "37869"}, "phone": "423-979-4689"}
{"id": "4d16d057-4d6a-eb11-a812-001dd800ae51", "title": "Hancock County High School - Moderna 2nd Dose", "lat": 36.54375, "long": -83.19864, "address": {"lines": ["2700 Main Street"], "city": "Sneedville", "state": "TN", "zip": "37869"}, "phone": "866-442-5301"}
{"id": "588b3cc4-4d6a-eb11-a812-001dd800ae51", "title": "Hancock County High School - Pfizer 2nd Dose", "lat": 36.54375, "long": -83.19864, "address": {"lines": ["2700 Main Street"], "city": "Sneedville", "state": "TN", "zip": "37869"}, "phone": "866-442-5301"}
{"id": "0f30e990-476a-eb11-a812-001dd800af2e", "title": "Hancock County High School - First Dose", "lat": 36.54375, "long": -83.19864, "address": {"lines": ["2700 Main Street"], "city": "Sneedville", "state": "TN", "zip": "37869"}, "phone": "866-442-5301"}
{"id": "67002bd8-d26b-eb11-a812-001dd800ac9e", "title": "Cocke County Health Department - First Dose", "lat": 35.96446, "long": -83.18322, "address": {"lines": ["430 College Street"], "city": "Newport", "state": "TN", "zip": "37821"}, "phone": "866-442-5301"}
{"id": "1375e7e0-d26b-eb11-a812-001dd800ae51", "title": "Cocke County Health Department - Moderna 2nd Dose", "lat": 35.96446, "long": -83.18322, "address": {"lines": ["430 College Street"], "city": "Newport", "state": "TN", "zip": "37821"}, "phone": "866-442-5301"}
{"id": "f477accd-83ae-eb11-a812-001dd8028856", "title": "Hawkins Rogersville Health Department - Pfizer 1st Dose", "lat": 36.41623, "long": -82.99316, "address": {"lines": ["201 Park Blvd"], "city": "Rogersville", "state": "TN", "zip": "37857"}, "phone": null}
{"id": "0ee86218-2987-eb11-a812-001dd802d2c6", "title": "Hawkins County Health Department - Pfizer 2nd Dose", "lat": 36.41623, "long": -82.99316, "address": {"lines": ["201 Park Blvd"], "city": "Rogersville", "state": "TN", "zip": "37857"}, "phone": "(423) 272-7641"}
{"id": "b3f4ce7e-2887-eb11-a812-001dd802f3a8", "title": "Hawkins County Health Department - First Dose", "lat": 36.41623, "long": -82.99316, "address": {"lines": ["201 Park Blvd"], "city": "Rogersville", "state": "TN", "zip": "37857"}, "phone": "(423) 272-7641"}
{"id": "76799efb-82ae-eb11-a812-001dd80287a9", "title": "Greene County Health Department - Pfizer 1st Dose", "lat": 36.17205, "long": -82.8428, "address": {"lines": ["810 W Church St"], "city": "Greeneville", "state": "TN", "zip": "37745"}, "phone": null}
{"id": "28527148-2687-eb11-a812-001dd802d1b0", "title": "Greene County Health Department - Pfizer 2nd Dose", "lat": 36.17205, "long": -82.8428, "address": {"lines": ["810 W Church St"], "city": "Greeneville", "state": "TN", "zip": "37745"}, "phone": "(423) 798-1749"}
{"id": "5b6659e2-2587-eb11-a812-001dd802d2fc", "title": "Greene County Health Department - First Dose", "lat": 36.17205, "long": -82.8428, "address": {"lines": ["810 W Church St"], "city": "Greeneville", "state": "TN", "zip": "37745"}, "phone": "(423) 798-1749"}
{"id": "3bb7cef1-2587-eb11-a812-001dd802f3a8", "title": "Greene County Health Department - Moderna 2nd Dose", "lat": 36.17205, "long": -82.8428, "address": {"lines": ["810 W Church St"], "city": "Greeneville", "state": "TN", "zip": "37745"}, "phone": "(423) 798-1749"}
{"id": "7e9e474c-4e6a-eb11-a812-001dd800ac9e", "title": "Phipps Bend Industrial Park - Moderna 2nd Dose", "lat": 36.46776, "long": -82.81145, "address": {"lines": ["951 Phipps Bend Road"], "city": "Surgoinsville", "state": "TN", "zip": "37873"}, "phone": "866-442-5301"}
{"id": "125eb173-4e6a-eb11-a812-001dd800ac9e", "title": "Phipps Bend Industrial Park - Pfizer 2nd Dose", "lat": 36.46776, "long": -82.81145, "address": {"lines": ["951 Phipps Bend Road"], "city": "Surgoinsville", "state": "TN", "zip": "37873"}, "phone": "866-442-5301"}
{"id": "6ffe38d8-4e6a-eb11-a812-001dd800ae51", "title": "Phipps Bend Industrial Park - First Dose", "lat": 36.46776, "long": -82.81145, "address": {"lines": ["951 Phipps Bend Road"], "city": "Surgoinsville", "state": "TN", "zip": "37873"}, "phone": "866-442-5301"}
{"id": "1b9440fa-586a-eb11-a812-001dd800ae51", "title": "Greene Valley Dev. Center - First Dose", "lat": 36.18458, "long": -82.74194, "address": {"lines": ["4850 East Andrew Johnson Highway"], "city": "Greeneville", "state": "TN", "zip": "37745"}, "phone": "866-442-5301"}
{"id": "3d81ec87-9e6b-eb11-a812-001dd800ae51", "title": "Greene Valley Dev. Center - Pfizer 2nd Dose", "lat": 36.18458, "long": -82.74194, "address": {"lines": ["4850 East Andrew Johnson Highway"], "city": "Greeneville", "state": "TN", "zip": "37745"}, "phone": "866-442-5301"}
{"id": "80f2799a-9e6b-eb11-a812-001dd800ae51", "title": "Greene Valley Dev. Center - Moderna 2nd Dose", "lat": 36.18458, "long": -82.74194, "address": {"lines": ["4850 East Andrew Johnson Highway"], "city": "Greeneville", "state": "TN", "zip": "37745"}, "phone": "866-442-5301"}
{"id": "bd365087-83ae-eb11-a812-001dd80287c7", "title": "Hawkins Church Hill Health Department - Pfizer 1st Dose", "lat": 36.5235, "long": -82.68694, "address": {"lines": ["247 Silver Lake Rd"], "city": "Church Hill", "state": "TN", "zip": "37642"}, "phone": null}
{"id": "7617bba0-3087-eb11-a812-001dd802d25d", "title": "Hawkins County Church Hill Health Department - Pfizer 2nd Dose", "lat": 36.5235, "long": -82.68694, "address": {"lines": ["247 Silver Lake Rd"], "city": "Church Hill", "state": "TN", "zip": "37642"}, "phone": "(423) 357-5341"}
{"id": "70accf00-3087-eb11-a812-001dd802f3a8", "title": "Hawkins County Church Hill Health Department - First Dose", "lat": 36.5235, "long": -82.68694, "address": {"lines": ["247 Silver Lake Rd"], "city": "Church Hill", "state": "TN", "zip": "37642"}, "phone": "(423) 357-5341"}
{"id": "49bececb-6a91-eb11-a812-001dd802d1bf", "title": "Domtar Park - First Dose", "lat": 36.52695, "long": -82.55804, "address": {"lines": ["1414 Riverport Rd"], "city": "Kingsport", "state": "TN", "zip": "37660"}, "phone": "423-279-2777"}
{"id": "d6212cbe-6a91-eb11-a812-001dd802d2bc", "title": "Domtar Park - Pfizer 2nd Dose", "lat": 36.52695, "long": -82.55804, "address": {"lines": ["1414 Riverport Rd"], "city": "Kingsport", "state": "TN", "zip": "37660"}, "phone": "423-279-2777"}
{"id": "6108a3b5-6a91-eb11-a812-001dd802f33f", "title": "Domtar Park - Moderna 2nd Dose", "lat": 36.52695, "long": -82.55804, "address": {"lines": ["1414 Riverport Rd"], "city": "Kingsport", "state": "TN", "zip": "37660"}, "phone": "423-279-2777"}
{"id": "395ae146-6a91-eb11-a812-001dd802d26d", "title": "Toy Reid Eastman Employee Center - Pfizer 2nd Dose", "lat": 36.53357, "long": -82.55333, "address": {"lines": ["400 S Wilcox Dr"], "city": "Kingsport", "state": "TN", "zip": "37660"}, "phone": "423-279-2777"}
{"id": "cd6d4a3a-6a91-eb11-a812-001dd802d2d4", "title": "Toy Reid Eastman Employee Center - First Dose", "lat": 36.53357, "long": -82.55333, "address": {"lines": ["400 S Wilcox Dr"], "city": "Kingsport", "state": "TN", "zip": "37660"}, "phone": "423-279-2777"}
{"id": "c5d48052-6a91-eb11-a812-001dd802f1f6", "title": "Toy Reid Eastman Employee Center - Moderna 2nd Dose", "lat": 36.53357, "long": -82.55333, "address": {"lines": ["400 S Wilcox Dr"], "city": "Kingsport", "state": "TN", "zip": "37660"}, "phone": "423-279-2777"}
{"id": "3f03c9f4-6a91-eb11-a812-001dd802d1bf", "title": "Kingsport Civic Auditorium - Moderna 2nd Dose", "lat": 36.53722, "long": -82.53141, "address": {"lines": ["1550 Fort Henry Dr, Kingsport, TN 37664"], "city": "Kingsport", "state": "TN", "zip": "37664"}, "phone": "423-279-2777"}
{"id": "8d371bda-6a91-eb11-a812-001dd802d1e8", "title": "Kingsport Civic Auditorium - First Dose", "lat": 36.53722, "long": -82.53141, "address": {"lines": ["1550 Fort Henry Dr"], "city": "Kingsport", "state": "TN", "zip": "37664"}, "phone": "423-279-2777"}
{"id": "d4701feb-6a91-eb11-a812-001dd802d250", "title": "Kingsport Civic Auditorium - Pfizer 2nd Dose", "lat": 36.53722, "long": -82.53141, "address": {"lines": ["1550 Fort Henry Dr"], "city": "Kingsport", "state": "TN", "zip": "37664"}, "phone": "423-279-2777"}
{"id": "7b8e160e-6a91-eb11-a812-001dd802d195", "title": "Fort Henry Mall - JC Penny - Pfizer 2nd Dose", "lat": 36.52957, "long": -82.52033, "address": {"lines": ["2101 Fort Henry Dr"], "city": "Kingsport", "state": "TN", "zip": "37664"}, "phone": "423-279-2777"}
{"id": "e2829afc-6991-eb11-a812-001dd802d1bf", "title": "Fort Henry Mall - JC Penny - Moderna 2nd Dose", "lat": 36.52957, "long": -82.52033, "address": {"lines": ["2101 Fort Henry Dr"], "city": "Kingsport", "state": "TN", "zip": "37664"}, "phone": "423-279-2777"}
{"id": "5314941a-6a91-eb11-a812-001dd802d36b", "title": "Fort Henry Mall - JC Penny - First Dose", "lat": 36.52957, "long": -82.52033, "address": {"lines": ["2101 Fort Henry Dr"], "city": "Kingsport", "state": "TN", "zip": "37664"}, "phone": "423-279-2777"}
{"id": "50e728ea-4e6a-eb11-a812-001dd800ae51", "title": "Unicoi County High School  - Pfizer 2nd Dose", "lat": 36.13545, "long": -82.41031, "address": {"lines": ["700 Mohawk Drive"], "city": "Erwin", "state": "TN", "zip": "37650"}, "phone": "866-442-5301"}
{"id": "3aa811fc-4e6a-eb11-a812-001dd800ae51", "title": "Unicoi County High School - Moderna 2nd Dose", "lat": 36.13545, "long": -82.41031, "address": {"lines": ["700 Mohawk Drive"], "city": "Erwin", "state": "TN", "zip": "37650"}, "phone": "866-442-5301"}
{"id": "1352250e-4f6a-eb11-a812-001dd800ae51", "title": "Unicoi County High School - First Dose", "lat": 36.13545, "long": -82.41031, "address": {"lines": ["700 Mohawk Drive"], "city": "Erwin", "state": "TN", "zip": "37650"}, "phone": "866-442-5301"}
{"id": "ace46767-84ae-eb11-a812-001dd802898b", "title": "Unicoi County Health Department - Pfizer 1st Dose", "lat": 36.13727, "long": -82.40797, "address": {"lines": ["101 Okolona Dr"], "city": "Erwin", "state": "TN", "zip": "37650"}, "phone": null}
{"id": "30615cd5-8fae-eb11-a812-001dd80289c8", "title": "Unicoi County Health Department - Moderna 1st Dose", "lat": 36.13727, "long": -82.40797, "address": {"lines": ["101 Okolona Dr"], "city": "Erwin", "state": "TN", "zip": "37650"}, "phone": null}
{"id": "9e44b206-3b87-eb11-a812-001dd802d18a", "title": "Unicoi County Health Department - First Dose", "lat": 36.13727, "long": -82.40797, "address": {"lines": ["101 Okolona Dr."], "city": "Erwin", "state": "TN", "zip": "37650"}, "phone": "(423) 735-5900"}
{"id": "67d5b706-4287-eb11-a812-001dd802d25d", "title": "Unicoi County Health Department - Pfizer 2nd Dose", "lat": 36.13727, "long": -82.40797, "address": {"lines": ["101 Okolona Dr."], "city": "Erwin", "state": "TN", "zip": "37650"}, "phone": "(423) 735-5900"}
{"id": "cb9aa5e9-4187-eb11-a812-001dd802f1f6", "title": "Unicoi County Health Department - Moderna 2nd Dose", "lat": 36.13727, "long": -82.40797, "address": {"lines": ["101 Okolona Dr,"], "city": "Erwin", "state": "TN", "zip": "37650"}, "phone": "(423) 735-5900"}
{"id": "63ced42c-196b-eb11-a812-001dd800ac9e", "title": "Freedom Hall Civic Center - Moderna 2nd Dose", "lat": 36.32235, "long": -82.376, "address": {"lines": ["1320 Pactolas Road"], "city": "Johnson City", "state": "TN", "zip": "37604"}, "phone": "866-442-5301"}
{"id": "19907379-9e6b-eb11-a812-001dd800ac9e", "title": "Freedom Hall Civic Center  - Pfizer 2nd Dose", "lat": 36.32235, "long": -82.376, "address": {"lines": ["1320 Pactolas Road"], "city": "Johnson City", "state": "TN", "zip": "37604"}, "phone": "866-442-5301"}
{"id": "cb845481-9e6b-eb11-a812-001dd800ae51", "title": "Freedom Hall Civic Center - First Dose", "lat": 36.32235, "long": -82.376, "address": {"lines": ["1320 Pactolas Road"], "city": "Johnson City", "state": "TN", "zip": "37604"}, "phone": "866-442-5301"}
{"id": "1688ebb2-84ae-eb11-a812-001dd80282b9", "title": "Washington County Health Department - Pfizer 1st Dose", "lat": 36.34929, "long": -82.37454, "address": {"lines": ["219 Princeton Rd"], "city": "Johnson City", "state": "TN", "zip": "37601"}, "phone": null}
{"id": "7dbedaee-3487-eb11-a812-001dd802d03c", "title": "Washington County Health Department - Moderna 2nd Dose", "lat": 36.34929, "long": -82.37454, "address": {"lines": ["219 Princeton Rd"], "city": "Johnson City", "state": "TN", "zip": "37601"}, "phone": "423-975-2200"}
{"id": "ea494ba7-3487-eb11-a812-001dd802d1a0", "title": "Washington County Health Department - First Dose", "lat": 36.34929, "long": -82.37454, "address": {"lines": ["219 Princeton Rd"], "city": "Johnson City", "state": "TN", "zip": "37601"}, "phone": "(423) 975-2200"}
{"id": "4d593b2a-3587-eb11-a812-001dd802d1a6", "title": "Washington County Health Department - Pfizer 2nd Dose", "lat": 36.34929, "long": -82.37454, "address": {"lines": ["219 Princeton Rd"], "city": "Johnson City", "state": "TN", "zip": "37601"}, "phone": "423-975-2200"}
{"id": "026ff494-6a91-eb11-a812-001dd802d186", "title": "Northeast State Community College - First Dose", "lat": 36.53311, "long": -82.35919, "address": {"lines": ["2425 TN-75"], "city": "Blountville", "state": "TN", "zip": "37617"}, "phone": "423-279-2777"}
{"id": "23cdc783-6a91-eb11-a812-001dd802d1a6", "title": "Northeast State Community College - Moderna 2nd Dose", "lat": 36.53311, "long": -82.35919, "address": {"lines": ["2425 TN-75"], "city": "Blountville", "state": "TN", "zip": "37617"}, "phone": "423-279-2777"}
{"id": "ba8ddf89-6a91-eb11-a812-001dd802d27f", "title": "Northeast State Community College - Pfizer 2nd Dose", "lat": 36.53311, "long": -82.35919, "address": {"lines": ["2425 TN-75"], "city": "Blountville", "state": "TN", "zip": "37617"}, "phone": "423-279-2777"}
{"id": "f75de040-0d93-eb11-a812-001dd802d250", "title": "Testing Location - Sullivan County Department of Education - First Dose", "lat": 36.5371, "long": -82.31992, "address": {"lines": ["154 Blountville Bypass"], "city": "Blountville", "state": "TN", "zip": "37617"}, "phone": null}
{"id": "255a82f9-0d93-eb11-a812-001dd802f301", "title": "Testing Location - Sullivan County Department of Education - Pfizer 2nd Dose", "lat": 36.5371, "long": -82.31992, "address": {"lines": ["154 Blountville Bypass"], "city": "Blountville", "state": "TN", "zip": "37617"}, "phone": null}
{"id": "d0854816-6b91-eb11-a812-001dd802d18a", "title": "Bristol Motor Speedway - Drag Strip - First Dose", "lat": 36.51808, "long": -82.25961, "address": {"lines": ["151 Speedway Blvd"], "city": "Bristol", "state": "TN", "zip": "37620"}, "phone": "423-279-2777"}
{"id": "7ec0cdd0-6991-eb11-a812-001dd802d1a1", "title": "Bristol Motor Speedway - South Parking Lot - First Dose", "lat": 36.51808, "long": -82.25961, "address": {"lines": ["151 Speedway Blvd"], "city": "Bristol", "state": "TN", "zip": "37620"}, "phone": "423-279-2777"}
{"id": "0cfaf9f0-6991-eb11-a812-001dd802d252", "title": "Bristol Motor Speedway - South Parking Lot - Moderna 2nd Dose", "lat": 36.51808, "long": -82.25961, "address": {"lines": ["151 Speedway Blvd"], "city": "Bristol", "state": "TN", "zip": "37620"}, "phone": "423-279-2777"}
{"id": "18f893dc-6991-eb11-a812-001dd802d25d", "title": "Bristol Motor Speedway - South Parking Lot - Pfizer 2nd Dose", "lat": 36.51808, "long": -82.25961, "address": {"lines": ["151 Speedway Blvd"], "city": "Bristol", "state": "TN", "zip": "37620"}, "phone": "423-279-2777"}
{"id": "875173fc-6a91-eb11-a812-001dd802d2c2", "title": "Bristol Motor Speedway - Drag Strip - Moderna 2nd Dose", "lat": 36.51808, "long": -82.25961, "address": {"lines": ["151 Speedway Blvd"], "city": "Bristol", "state": "TN", "zip": "37620"}, "phone": "423-279-2777"}
{"id": "eaa57d09-6b91-eb11-a812-001dd802f30f", "title": "Bristol Motor Speedway - Drag Strip - Pfizer 2nd Dose", "lat": 36.51808, "long": -82.25961, "address": {"lines": ["151 Speedway Blvd"], "city": "Bristol", "state": "TN", "zip": "37620"}, "phone": "423-279-2777"}
{"id": "b9ba3ea6-6991-eb11-a813-001dd802d115", "title": "Whitetop Creek Park - Moderna 2nd Dose", "lat": 36.51463, "long": -82.2383, "address": {"lines": ["100 Sportsway Dr."], "city": "Bristol", "state": "TN", "zip": "37620"}, "phone": "423-279-2777"}
{"id": "6db8cbc2-6991-eb11-a812-001dd802d1a1", "title": "Whitetop Creek Park - First Dose", "lat": 36.51463, "long": -82.2383, "address": {"lines": ["100 Sportsway Dr."], "city": "Bristol", "state": "TN", "zip": "37620"}, "phone": "423-279-2777"}
{"id": "f70d9db4-6991-eb11-a812-001dd802d27f", "title": "Whitetop Creek Park - Pfizer 2nd Dose", "lat": 36.51463, "long": -82.2383, "address": {"lines": ["100 Sportsway Dr."], "city": "Bristol", "state": "TN", "zip": "37620"}, "phone": "423-279-2777"}
{"id": "00a23ce5-90ae-eb11-a812-001dd80289c4", "title": "Carter County Health Department - Moderna 1st Dose", "lat": 36.34552, "long": -82.21953, "address": {"lines": ["403 E G St"], "city": "Elizabethton", "state": "TN", "zip": "37643"}, "phone": null}
{"id": "0df5ddb3-82ae-eb11-a812-001dd80289c8", "title": "Carter County Health Department - Pfizer 1st Dose", "lat": 36.34552, "long": -82.21953, "address": {"lines": ["403 E G St"], "city": "Elizabethton", "state": "TN", "zip": "37643"}, "phone": null}
{"id": "93e8efca-2587-eb11-a812-001dd802d29f", "title": "Carter County Health Department - Pfizer 2nd Dose", "lat": 36.34552, "long": -82.21953, "address": {"lines": ["403 E G St"], "city": "Elizabethton", "state": "TN", "zip": "37643"}, "phone": "423 543-2521"}
{"id": "d0d292b3-2587-eb11-a812-001dd802d2fc", "title": "Carter County Health Department - Moderna 2nd Dose", "lat": 36.34552, "long": -82.21953, "address": {"lines": ["403 E G St"], "city": "Elizabethton", "state": "TN", "zip": "37643"}, "phone": "423 543-2521"}
{"id": "ae608e9e-2587-eb11-a812-001dd802d336", "title": "Carter County Health Department - First Dose", "lat": 36.34552, "long": -82.21953, "address": {"lines": ["403 E G St"], "city": "Elizabethton", "state": "TN", "zip": "37643"}, "phone": "423 543-2521"}
{"id": "1bf38cf8-586a-eb11-a812-001dd800ac9e", "title": "Great Lakes Workforce Development Facility - Moderna 2nd Dose", "lat": 36.36538, "long": -82.1814, "address": {"lines": ["386 TN-91"], "city": "Elizabethton", "state": "TN", "zip": "37643"}, "phone": "866-442-5301"}
{"id": "32f38cf8-586a-eb11-a812-001dd800ac9e", "title": "Great Lakes Workforce Development Facility - Pfizer 2nd Dose", "lat": 36.36538, "long": -82.1814, "address": {"lines": ["386 TN-91"], "city": "Elizabethton", "state": "TN", "zip": "37643"}, "phone": "866-442-5301"}
{"id": "fe596692-f36a-eb11-a812-001dd800ae51", "title": "Great Lakes Workforce Development Facility - First Dose", "lat": 36.36538, "long": -82.1814}
{"id": "9b15e776-6a91-eb11-a812-001dd802d0d2", "title": "Slater Community Center - Moderna 2nd Dose", "lat": 36.59369, "long": -82.17264, "address": {"lines": ["325 McDowell St"], "city": "Bristol", "state": "TN", "zip": "37620"}, "phone": "423-279-2777"}
{"id": "573a8e5d-6a91-eb11-a812-001dd802d1a6", "title": "Slater Community Center - First Dose", "lat": 36.59369, "long": -82.17264, "address": {"lines": ["325 McDowell St"], "city": "Bristol", "state": "TN", "zip": "37620"}, "phone": "423-279-2777"}
{"id": "6406416b-6a91-eb11-a812-001dd802d34b", "title": "Slater Community Center - Pfizer 2nd Dose", "lat": 36.59369, "long": -82.17264, "address": {"lines": ["325 McDowell St"], "city": "Bristol", "state": "TN", "zip": "37620"}, "phone": "423-279-2777"}
{"id": "3413c4a6-4e6a-eb11-a812-001dd800ac9e", "title": "Johnson County Industrial Park - Moderna 2nd Dose", "lat": 36.45192, "long": -81.88174, "address": {"lines": ["165 Industrial Park Road"], "city": "Mountain City", "state": "TN", "zip": "37683"}, "phone": "866-442-5301"}
{"id": "feb80584-4e6a-eb11-a812-001dd800ae51", "title": "Johnson County Industrial Park - First Dose", "lat": 36.45192, "long": -81.88174, "address": {"lines": ["165 Industrial Park Road"], "city": "Mountain City", "state": "TN", "zip": "37683"}, "phone": "866-442-5301"}
{"id": "c2c31ec0-4e6a-eb11-a812-001dd800ae51", "title": "Johnson County Industrial Park - Pfizer 2nd Dose", "lat": 36.45192, "long": -81.88174, "address": {"lines": ["165 Industrial Park Road"], "city": "Mountain City", "state": "TN", "zip": "37683"}, "phone": "866-442-5301"}
{"id": "93ab3d15-84ae-eb11-a812-001dd8028976", "title": "Johnson County Health Department - Pfizer 1st Dose", "lat": 36.47639, "long": -81.81288, "address": {"lines": ["715 W Main St"], "city": "Mountain City", "state": "TN", "zip": "37683"}, "phone": null}
{"id": "b78c9ee8-3287-eb11-a812-001dd802d2d4", "title": "Johnson County Health Department - Moderna 2nd Dose", "lat": 36.47639, "long": -81.81288, "address": {"lines": ["715 W Main St"], "city": "Mountain City", "state": "TN", "zip": "37683"}, "phone": "(423) 727-9731"}
{"id": "ea19818e-3287-eb11-a812-001dd802d338", "title": "Johnson County Health Department - First Dose", "lat": 36.47639, "long": -81.81288, "address": {"lines": ["715 W Main St"], "city": "Mountain City", "state": "TN", "zip": "37683"}, "phone": "(423) 727-9731"}
