{"name": "West Newbury Town Annex", "date": "05/26/2021", "address": "381 Main Street , West Newbury MA, 01985", "vaccines": "Janssen COVID-19 Vaccine", "ages": "All Ages", "info": "Johnson and Johnson Clinic for adults ages 18 and up that meet the current phase criteria.", "hours": "04:00 pm - 06:00 pm", "available": "89", "special": "If you are signing up for a second dose, you must get the same vaccine brand as your first dose.", "clinic_id": "5452"}
{"name": "BHS Testing - North Adams", "date": "05/26/2021", "address": "98 Church Street, North Adams MA, 01201", "vaccines": "Pfizer-BioNTech COVID-19 Vaccine", "ages": "Children, Adults, Seniors", "info": "Please be sure to bring your ID and vaccination card if this is your second dose.", "hours": "09:00 am - 03:00 pm", "available": "34", "special": "If you are signing up for a second dose, you must get the same vaccine brand as your first dose.", "clinic_id": "5468"}
{"name": "Hamilton Regional High School", "date": "05/26/2021", "address": "Hamilton Regional High School, Hamilton MA, 01982", "vaccines": "Pfizer-BioNTech COVID-19 Vaccine", "ages": "Children, Adults, Seniors", "info": "This vaccination clinic will be offering Pfizer vaccine and is for children and adults ages 12 and up.", "hours": "02:00 pm - 04:00 pm", "available": "63", "special": "If you are signing up for a second dose, you must get the same vaccine brand as your first dose.", "clinic_id": "5474"}
{"name": "W.E.B. Dubois Regional Middle School", "date": "05/26/2021", "address": "313 Monument Valley Road, Great Barrington MA, 01230", "vaccines": "Janssen COVID-19 Vaccine", "ages": "All Ages", "info": "EVERYONE IN MASSACHUSETTS IS ELIGIBLE. J&J clinic.", "hours": "04:00 pm - 07:00 pm", "available": "4", "special": "If you are signing up for a second dose, you must get the same vaccine brand as your first dose.", "clinic_id": "5485"}
{"name": "W.E.B. Dubois Regional Middle School", "date": "05/26/2021", "address": "313 Monument Valley Road, Great Barrington MA, 01230", "vaccines": "Moderna COVID-19 Vaccine", "ages": "All Ages", "info": "Moderna Clinic - everyone in Massachusetts 18+ is eligible for Moderna.", "hours": "05:00 pm - 07:00 pm", "available": "6", "special": "If you are signing up for a second dose, you must get the same vaccine brand as your first dose.", "clinic_id": "5514"}
{"name": "Rutland Public Library", "date": "05/27/2021", "address": "280 Main Street, Rutland MA, 01543", "vaccines": "Pfizer-BioNTech COVID-19 Vaccine", "ages": "All Ages", "info": "***Second Dose Clinic***\nThis will be a Pfizer 2nd dose clinic for anyone 16 years and older.", "hours": "08:45 am - 06:00 pm", "available": "397", "special": "If you are signing up for a second dose, you must get the same vaccine brand as your first dose.", "clinic_id": "4862"}
{"name": "Citizen Center", "date": "05/27/2021", "address": "10 Welcome Street, Haverhill MA, 01830", "vaccines": "Moderna COVID-19 Vaccine, Janssen COVID-19 Vaccine", "ages": "Adults", "info": "MODERNA and Jannssen VACCINE FOR THOSE 18 AND OLDER WHO LIVE WORK OR ATTEND SCHOOL IN HAVERHILL", "hours": "10:15 am - 02:30 pm", "available": "60", "special": "If you are signing up for a second dose, you must get the same vaccine brand as your first dose.", "clinic_id": "4920"}
{"name": "Saint Vincent Hospital Vaccine Collaborative @ Worcester State University - Wellness Center", "date": "05/27/2021", "address": "525 Chandler Street, Worcester MA, 01602", "vaccines": "Pfizer-BioNTech COVID-19 Vaccine", "ages": "All Ages", "info": "***By appointment only***\nMinors under the age of 18 MUST have a signed parental/legal guardian consent when arriving to the clinic", "hours": "08:30 am - 12:30 pm", "available": "266", "special": "If you are signing up for a second dose, you must get the same vaccine brand as your first dose.", "clinic_id": "5034"}
{"name": "McCloskey School Gymnasium", "date": "05/27/2021", "address": "62 Capron Street, Uxbridge MA, 01569", "vaccines": "Pfizer-BioNTech COVID-19 Vaccine", "ages": "All Ages", "info": "Consent for under 18: https://www.mass.gov/lists/ma-consent-and-screening-forms-for-people-under-18-years-of-age", "hours": "04:00 pm - 08:00 pm", "available": "74", "special": "If you are signing up for a second dose, you must get the same vaccine brand as your first dose.", "clinic_id": "5039"}
{"name": "Randolph InterGenerational Center (RICC)", "date": "05/27/2021", "address": "128 Pleasant Street, Randolph MA, 02368", "vaccines": "Pfizer-BioNTech COVID-19 Vaccine", "ages": "All Ages", "info": "Drive thru, wear mask, bring ID, do not come if ill", "hours": "02:00 pm - 06:00 pm", "available": "695", "special": "If you are signing up for a second dose, you must get the same vaccine brand as your first dose.", "clinic_id": "5063"}
