{"name": "Jenks Center", "date": "05/18/2021", "address": "109 Skillings Road, Winchester MA, 01890", "vaccines": "Janssen COVID-19 Vaccine", "ages": "Adults", "info": "Janssen (J&J) Available. 18 Years and Older.   Only one dose required.", "hours": "03:00 pm - 03:45 pm", "available": "26", "special": "If you are signing up for a second dose, you must get the same vaccine brand as your first dose.", "clinic_id": "5283"}
{"name": "Jenks Center", "date": "05/18/2021", "address": "109 Skillings Road, Winchester MA, 01890", "vaccines": "Moderna COVID-19 Vaccine", "ages": "Adults", "info": "Moderna Vaccine, 1st or 2nd Dose.  Must be 18 Years or Older.  IF THIS IS YOUR 1ST DOSE, PLEASE NOTE WE WILL NOT BE OFFERING THE 2ND DOSE WHEN ELIGIBLE.  YOU WILL NEED TO SIGN UP ELSEWHERE FOR MODERNA 2ND DOSE.", "hours": "03:45 pm - 05:00 pm", "available": "68", "special": "If you are signing up for a second dose, you must get the same vaccine brand as your first dose.", "clinic_id": "5297"}
{"name": "Saint Vincent Hospital Vaccine Collaborative @ Worcester State University - Wellness Center", "date": "05/19/2021", "address": "525 Chandler Street, Worcester MA, 01602", "vaccines": "Pfizer-BioNTech COVID-19 Vaccine", "ages": "All Ages", "info": "**By Appointment Only** \nMinors under the age of 18 must have signed parental/legal guardian consent upon arrival.", "hours": "09:00 am - 01:00 pm", "available": "507", "special": "If you are signing up for a second dose, you must get the same vaccine brand as your first dose.", "clinic_id": "4629"}
{"name": "Rutland Public Library", "date": "05/19/2021", "address": "280 Main Street, Rutland MA, 01543", "vaccines": "Pfizer-BioNTech COVID-19 Vaccine", "ages": "All Ages", "info": "***First Dose Clinic*** This will be a Pfizer clinic for anyone 16 years and older.", "hours": "08:45 am - 06:00 pm", "available": "562", "special": "If you are signing up for a second dose, you must get the same vaccine brand as your first dose.", "clinic_id": "4857"}
{"name": "Citizen Center", "date": "05/20/2021", "address": "10 Welcome Street, Haverhill MA, 01830", "vaccines": "Moderna COVID-19 Vaccine", "ages": "Adults", "info": "2nd dose Moderna for 4/21 and 4/22 Also 1st doses for those living, working or attending school in Haverhill 18 years or older", "hours": "10:00 am - 03:00 pm", "available": "18", "special": "If you are signing up for a second dose, you must get the same vaccine brand as your first dose.", "clinic_id": "4696"}
{"name": "Rutland Public Library", "date": "05/20/2021", "address": "280 Main Street, Rutland MA, 01543", "vaccines": "Pfizer-BioNTech COVID-19 Vaccine", "ages": "All Ages", "info": "***First Dose Clinic*** \nThis will be a Pfizer 1st Dose clinic for anyone 16 years and older.", "hours": "08:45 am - 06:00 pm", "available": "687", "special": "If you are signing up for a second dose, you must get the same vaccine brand as your first dose.", "clinic_id": "4858"}
{"name": "McCloskey School Gymnasium", "date": "05/20/2021", "address": "62 Capron Street, Uxbridge MA, 01569", "vaccines": "Pfizer-BioNTech COVID-19 Vaccine", "ages": "All Ages", "info": "Consent for under 18: https://www.mass.gov/lists/ma-consent-and-screening-forms-for-people-under-18-years-of-age", "hours": "09:00 am - 01:00 pm", "available": "210", "special": "If you are signing up for a second dose, you must get the same vaccine brand as your first dose.", "clinic_id": "4959"}
{"name": "McCloskey School Gymnasium", "date": "05/20/2021", "address": "62 Capron Street, Uxbridge MA, 01569", "vaccines": "Pfizer-BioNTech COVID-19 Vaccine", "ages": "All Ages", "info": "Consent for under 18: https://www.mass.gov/lists/ma-consent-and-screening-forms-for-people-under-18-years-of-age", "hours": "04:00 pm - 08:00 pm", "available": "153", "special": "If you are signing up for a second dose, you must get the same vaccine brand as your first dose.", "clinic_id": "4960"}
{"name": "Uxbridge High School", "date": "05/23/2021", "address": "Uxbridge High School, Uxbridge MA, 01569", "vaccines": "Pfizer-BioNTech COVID-19 Vaccine", "ages": "All Ages", "info": "", "hours": "11:00 am - 03:00 pm", "available": "405", "special": "If you are signing up for a second dose, you must get the same vaccine brand as your first dose.", "clinic_id": "5304"}
{"name": "Calvary Baptist Church", "date": "05/25/2021", "address": "Calvary Baptist Church, Haverhill MA, 01830", "vaccines": "Moderna COVID-19 Vaccine", "ages": "Adults", "info": "Moderna at Calgary Baptist church  Must be 18 or older and live/work/or attend school in Haverhill", "hours": "12:30 pm - 07:00 pm", "available": "110", "special": "If you are signing up for a second dose, you must get the same vaccine brand as your first dose.", "clinic_id": "4645"}
