{"name": "McCloskey School Gymnasium", "date": "05/20/2021", "address": "62 Capron Street, Uxbridge MA, 01569", "vaccines": "Pfizer-BioNTech COVID-19 Vaccine", "ages": "All Ages", "info": "Consent for under 18: https://www.mass.gov/lists/ma-consent-and-screening-forms-for-people-under-18-years-of-age", "hours": "04:00 pm - 08:00 pm", "available": "163", "special": "If you are signing up for a second dose, you must get the same vaccine brand as your first dose.", "clinic_id": "4960"}
{"name": "Calvary Baptist Church", "date": "05/25/2021", "address": "Calvary Baptist Church, Haverhill MA, 01830", "vaccines": "Moderna COVID-19 Vaccine", "ages": "Adults", "info": "Moderna at Calgary Baptist church  Must be 18 or older and live/work/or attend school in Haverhill", "hours": "12:30 pm - 07:00 pm", "available": "110", "special": "If you are signing up for a second dose, you must get the same vaccine brand as your first dose.", "clinic_id": "4645"}
{"name": "Citizen Center", "date": "05/27/2021", "address": "10 Welcome Street, Haverhill MA, 01830", "vaccines": "Moderna COVID-19 Vaccine", "ages": "Adults", "info": "MODERNA VACCINE FOR THOSE 18 AND OLDER WHO LIVE WORK OR ATTEND SCHOOL IN HAVERHILL", "hours": "10:15 am - 02:30 pm", "available": "79", "special": "If you are signing up for a second dose, you must get the same vaccine brand as your first dose.", "clinic_id": "4920"}
{"name": "McCloskey School Gymnasium", "date": "05/27/2021", "address": "62 Capron Street, Uxbridge MA, 01569", "vaccines": "Pfizer-BioNTech COVID-19 Vaccine", "ages": "All Ages", "info": "Consent for under 18: https://www.mass.gov/lists/ma-consent-and-screening-forms-for-people-under-18-years-of-age", "hours": "04:00 pm - 08:00 pm", "available": "135", "special": "If you are signing up for a second dose, you must get the same vaccine brand as your first dose.", "clinic_id": "5039"}
{"name": "Nipmuc Regional High School", "date": "05/28/2021", "address": "90 Pleasant Street, Upton MA, 01568", "vaccines": "Pfizer-BioNTech COVID-19 Vaccine", "ages": "All Ages", "info": "", "hours": "08:00 am - 10:30 am", "available": "114", "special": "If you are signing up for a second dose, you must get the same vaccine brand as your first dose.", "clinic_id": "5141"}
{"name": "Nipmuc Regional High School", "date": "05/29/2021", "address": "90 Pleasant Street, Upton MA, 01568", "vaccines": "Pfizer-BioNTech COVID-19 Vaccine", "ages": "All Ages", "info": "Consent for under 18: https://www.mass.gov/lists/ma-consent-and-screening-forms-for-people-under-18-years-of-age", "hours": "09:00 am - 10:30 am", "available": "92", "special": "If you are signing up for a second dose, you must get the same vaccine brand as your first dose.", "clinic_id": "5144"}
{"name": "Cape Cod Community College", "date": "06/01/2021", "address": "2240 Iyannough Road, West Barnstable MA, 02668", "vaccines": "Pfizer-BioNTech COVID-19 Vaccine", "ages": "Adults", "info": "Pfizer vaccine", "hours": "04:00 pm - 06:00 pm", "available": "185", "special": "If you are signing up for a second dose, you must get the same vaccine brand as your first dose.", "clinic_id": "5203"}
{"name": "Needham; Public Health Clinics", "date": "06/09/2021", "address": "178 Rosemary Street, Needham MA, 02494", "vaccines": "Moderna COVID-19 Vaccine", "ages": "Adults, Seniors", "info": "", "hours": "09:00 am - 12:00 pm", "available": "87", "special": "If you are signing up for a second dose, you must get the same vaccine brand as your first dose.", "clinic_id": "5242"}
