{"name": "Randolph InterGenerational Center (RICC)", "date": "06/05/2021", "address": "128 Pleasant Street, Randolph MA, 02368", "vaccines": "Pfizer-BioNTech COVID-19 Vaccine", "ages": "All Ages", "info": "drive thru clinic, masks required, do not come if ill", "hours": "08:30 am - 12:15 pm", "available": "98", "special": "If you are signing up for a second dose, you must get the same vaccine brand as your first dose.", "clinic_id": "5205"}
{"name": "W.E.B. Dubois Regional Middle School", "date": "06/05/2021", "address": "313 Monument Valley Road, Great Barrington MA, 01230", "vaccines": "Pfizer-BioNTech COVID-19 Vaccine", "ages": "All Ages", "info": "EVERYONE 12+ IN MASSACHUSETTS IS ELIGIBLE.", "hours": "12:00 pm - 03:00 pm", "available": "49", "special": "If you are signing up for a second dose, you must get the same vaccine brand as your first dose.", "clinic_id": "5516"}
{"name": "Saint Vincent Hospital Vaccine Collaborative @ Worcester State University - Wellness Center", "date": "06/07/2021", "address": "525 Chandler Street, Worcester MA, 01602", "vaccines": "Pfizer-BioNTech COVID-19 Vaccine", "ages": "All Ages", "info": "***By appointment only***\nMinors under the age of 18 MUST have a signed parental/legal guardian consent when arriving to the clinic", "hours": "04:00 pm - 08:00 pm", "available": "74", "special": "If you are signing up for a second dose, you must get the same vaccine brand as your first dose.", "clinic_id": "5211"}
{"name": "Needham; Public Health Clinics", "date": "06/09/2021", "address": "178 Rosemary Street, Needham MA, 02494", "vaccines": "Moderna COVID-19 Vaccine", "ages": "Adults, Seniors", "info": "", "hours": "09:00 am - 12:00 pm", "available": "84", "special": "If you are signing up for a second dose, you must get the same vaccine brand as your first dose.", "clinic_id": "5242"}
{"name": "Citizen Center", "date": "06/10/2021", "address": "10 Welcome Street, Haverhill MA, 01830", "vaccines": "Janssen COVID-19 Vaccine, Moderna COVID-19 Vaccine", "ages": "Adults", "info": "", "hours": "11:00 am - 03:00 pm", "available": "99", "special": "If you are signing up for a second dose, you must get the same vaccine brand as your first dose.", "clinic_id": "5188"}
{"name": "Saint Vincent Hospital Vaccine Collaborative @ Worcester State University - Wellness Center", "date": "06/10/2021", "address": "525 Chandler Street, Worcester MA, 01602", "vaccines": "Pfizer-BioNTech COVID-19 Vaccine", "ages": "All Ages", "info": "***By appointment only***\nMinors under the age of 18 MUST have a signed parental/legal guardian consent when arriving to the clinic", "hours": "01:00 pm - 04:00 pm", "available": "206", "special": "If you are signing up for a second dose, you must get the same vaccine brand as your first dose.", "clinic_id": "5214"}
{"name": "Great Barrington Mobile Clinics", "date": "06/11/2021", "address": "475 South Main Street, Great Barrington MA, 01230", "vaccines": "Pfizer-BioNTech COVID-19 Vaccine", "ages": "All Ages", "info": "THIS CLINIC WILL BE AT THE BHS TESTING SITE IN GREAT BARRINGTON. Everyone 12+ in Massachusetts is eligible.", "hours": "09:00 am - 12:00 pm", "available": "15", "special": "If you are signing up for a second dose, you must get the same vaccine brand as your first dose.", "clinic_id": "5486"}
{"name": "Randolph InterGenerational Center (RICC)", "date": "06/12/2021", "address": "128 Pleasant Street, Randolph MA, 02368", "vaccines": "Janssen COVID-19 Vaccine, Pfizer-BioNTech COVID-19 Vaccine", "ages": "All Ages", "info": "Drive thru clinic, wear a mask, do not attend if ill", "hours": "08:45 am - 12:30 pm", "available": "233", "special": "If you are signing up for a second dose, you must get the same vaccine brand as your first dose.", "clinic_id": "5373"}
{"name": "Citizen Center", "date": "06/17/2021", "address": "10 Welcome Street, Haverhill MA, 01830", "vaccines": "Moderna COVID-19 Vaccine", "ages": "Adults", "info": "Moderna 2 nd dose appointment", "hours": "10:00 am - 01:00 pm", "available": "68", "special": "If you are signing up for a second dose, you must get the same vaccine brand as your first dose.", "clinic_id": "5393"}
