{"name": "BHS Testing", "date": "05/27/2021", "address": "505 East Street, Pittsfield MA, 01201", "vaccines": "Pfizer-BioNTech COVID-19 Vaccine", "ages": "Children, Adults, Seniors", "info": "Located across the hall from Urgent Care. Check-in with staff in atrium. Anyone under age 18 should be accompanied by a parent or guardian. \n\nWalk-in vaccinations also available from 4pm-7:30pm at Urgent Care.", "hours": "08:30 am - 04:00 pm", "available": "135", "special": "If you are signing up for a second dose, you must get the same vaccine brand as your first dose.", "clinic_id": "5409"}
{"name": "Randolph InterGenerational Center (RICC)", "date": "05/28/2021", "address": "89 Teed Drive, Randolph MA, 02368", "vaccines": "Janssen COVID-19 Vaccine", "ages": "All Ages", "info": "Burke Distributing Clinic", "hours": "02:00 pm - 05:00 pm", "available": "120", "special": "If you are signing up for a second dose, you must get the same vaccine brand as your first dose.", "clinic_id": "5270"}
{"name": "BHS Testing", "date": "05/28/2021", "address": "505 East Street, Pittsfield MA, 01201", "vaccines": "Pfizer-BioNTech COVID-19 Vaccine", "ages": "Children, Adults, Seniors", "info": "Located across the hall from Urgent Care. Check-in with staff in atrium. Anyone under age 18 should be accompanied by a parent or guardian. \n\nWalk-in vaccinations also available from 4pm-7:30pm at Urgent Care.", "hours": "08:30 am - 04:00 pm", "available": "135", "special": "If you are signing up for a second dose, you must get the same vaccine brand as your first dose.", "clinic_id": "5410"}
{"name": "Randolph InterGenerational Center (RICC)", "date": "05/29/2021", "address": "225 High St, Randolph MA, 02368", "vaccines": "Janssen COVID-19 Vaccine", "ages": "All Ages", "info": "Clinic at RCMS, wear a mask, do not attend if ill", "hours": "09:00 am - 12:00 pm", "available": "100", "special": "If you are signing up for a second dose, you must get the same vaccine brand as your first dose.", "clinic_id": "4927"}
{"name": "Randolph InterGenerational Center (RICC)", "date": "05/29/2021", "address": "2 North Main St, Randolph MA, 02368", "vaccines": "Janssen COVID-19 Vaccine, Pfizer-BioNTech COVID-19 Vaccine", "ages": "All Ages", "info": "", "hours": "11:00 am - 03:00 pm", "available": "160", "special": "If you are signing up for a second dose, you must get the same vaccine brand as your first dose.", "clinic_id": "5066"}
{"name": "Randolph InterGenerational Center (RICC)", "date": "05/29/2021", "address": "871 North Main Street, Randolph MA, 02368", "vaccines": "Janssen COVID-19 Vaccine", "ages": "All Ages", "info": "masks required, do not attend if ill", "hours": "10:00 am - 01:00 pm", "available": "60", "special": "If you are signing up for a second dose, you must get the same vaccine brand as your first dose.", "clinic_id": "5204"}
{"name": "Saint Vincent Hospital Vaccine Collaborative @ Worcester State University - Wellness Center", "date": "06/01/2021", "address": "525 Chandler Street, Worcester MA, 01602", "vaccines": "Pfizer-BioNTech COVID-19 Vaccine", "ages": "All Ages", "info": "***By appointment only***\nMinors under the age of 18 MUST have a signed parental/legal guardian consent when arriving to the clinic", "hours": "08:30 am - 12:30 pm", "available": "214", "special": "If you are signing up for a second dose, you must get the same vaccine brand as your first dose.", "clinic_id": "5036"}
{"name": "Cape Cod Community College", "date": "06/01/2021", "address": "2240 Iyannough Road, West Barnstable MA, 02668", "vaccines": "Pfizer-BioNTech COVID-19 Vaccine", "ages": "Adults", "info": "Pfizer vaccine", "hours": "04:00 pm - 06:00 pm", "available": "173", "special": "If you are signing up for a second dose, you must get the same vaccine brand as your first dose.", "clinic_id": "5203"}
{"name": "Saint Vincent Hospital Vaccine Collaborative @ Worcester State University - Wellness Center", "date": "06/03/2021", "address": "525 Chandler Street, Worcester MA, 01602", "vaccines": "Pfizer-BioNTech COVID-19 Vaccine", "ages": "All Ages", "info": "***By appointment only***\nMinors under the age of 18 MUST have a signed parental/legal guardian consent when arriving to the clinic", "hours": "08:30 am - 12:30 pm", "available": "256", "special": "If you are signing up for a second dose, you must get the same vaccine brand as your first dose.", "clinic_id": "5056"}
{"name": "McCloskey School Gymnasium", "date": "06/03/2021", "address": "62 Capron Street, Uxbridge MA, 01569", "vaccines": "Pfizer-BioNTech COVID-19 Vaccine", "ages": "All Ages", "info": "Consent for under 18: https://www.mass.gov/lists/ma-consent-and-screening-forms-for-people-under-18-years-of-age", "hours": "09:00 am - 01:00 pm", "available": "304", "special": "If you are signing up for a second dose, you must get the same vaccine brand as your first dose.", "clinic_id": "5182"}
