{"name": "McCloskey School Gymnasium", "date": "06/03/2021", "address": "62 Capron Street, Uxbridge MA, 01569", "vaccines": "Pfizer-BioNTech COVID-19 Vaccine", "ages": "All Ages", "info": "Consent for under 18: https://www.mass.gov/lists/ma-consent-and-screening-forms-for-people-under-18-years-of-age", "hours": "04:00 pm - 08:00 pm", "available": "73", "special": "If you are signing up for a second dose, you must get the same vaccine brand as your first dose.", "clinic_id": "5183"}
{"name": "Randolph InterGenerational Center (RICC)", "date": "06/05/2021", "address": "128 Pleasant Street, Randolph MA, 02368", "vaccines": "Pfizer-BioNTech COVID-19 Vaccine", "ages": "All Ages", "info": "drive thru clinic, masks required, do not come if ill", "hours": "08:30 am - 12:15 pm", "available": "99", "special": "If you are signing up for a second dose, you must get the same vaccine brand as your first dose.", "clinic_id": "5205"}
{"name": "Saint Vincent Hospital Vaccine Collaborative @ Worcester State University - Wellness Center", "date": "06/07/2021", "address": "525 Chandler Street, Worcester MA, 01602", "vaccines": "Pfizer-BioNTech COVID-19 Vaccine", "ages": "All Ages", "info": "***By appointment only***\nMinors under the age of 18 MUST have a signed parental/legal guardian consent when arriving to the clinic", "hours": "04:00 pm - 08:00 pm", "available": "101", "special": "If you are signing up for a second dose, you must get the same vaccine brand as your first dose.", "clinic_id": "5211"}
{"name": "Needham; Public Health Clinics", "date": "06/09/2021", "address": "178 Rosemary Street, Needham MA, 02494", "vaccines": "Moderna COVID-19 Vaccine", "ages": "Adults, Seniors", "info": "", "hours": "09:00 am - 12:00 pm", "available": "86", "special": "If you are signing up for a second dose, you must get the same vaccine brand as your first dose.", "clinic_id": "5242"}
{"name": "Citizen Center", "date": "06/17/2021", "address": "10 Welcome Street, Haverhill MA, 01830", "vaccines": "Moderna COVID-19 Vaccine", "ages": "Adults", "info": "Moderna 2 nd dose appointment", "hours": "10:00 am - 01:00 pm", "available": "81", "special": "If you are signing up for a second dose, you must get the same vaccine brand as your first dose.", "clinic_id": "5393"}
