{"name": "Randolph InterGenerational Center (RICC)", "date": "06/28/2021", "address": "2 North Main St, Randolph MA, 02368", "vaccines": "Janssen COVID-19 Vaccine, Pfizer-BioNTech COVID-19 Vaccine", "ages": "All Ages", "info": "", "hours": "09:00 am - 03:00 pm", "available": "36", "special": "If you are signing up for a second dose, you must get the same vaccine brand as your first dose.", "clinic_id": "5716"}
{"name": "Randolph InterGenerational Center (RICC)", "date": "06/29/2021", "address": "128 Pleasant Street, Randolph MA, 02368", "vaccines": "Pfizer-BioNTech COVID-19 Vaccine", "ages": "All Ages", "info": "Drive to back of building", "hours": "09:00 am - 03:00 pm", "available": "27", "special": "If you are signing up for a second dose, you must get the same vaccine brand as your first dose.", "clinic_id": "5655"}
{"name": "Randolph InterGenerational Center (RICC)", "date": "06/29/2021", "address": "128 Pleasant Street, Randolph MA, 02368", "vaccines": "Janssen COVID-19 Vaccine, Pfizer-BioNTech COVID-19 Vaccine", "ages": "All Ages", "info": "", "hours": "09:00 am - 03:00 pm", "available": "72", "special": "If you are signing up for a second dose, you must get the same vaccine brand as your first dose.", "clinic_id": "5702"}
{"name": "Randolph InterGenerational Center (RICC)", "date": "06/29/2021", "address": "2 North Main St, Randolph MA, 02368", "vaccines": "Janssen COVID-19 Vaccine, Pfizer-BioNTech COVID-19 Vaccine", "ages": "All Ages", "info": "", "hours": "09:00 am - 03:00 pm", "available": "35", "special": "If you are signing up for a second dose, you must get the same vaccine brand as your first dose.", "clinic_id": "5717"}
{"name": "Randolph InterGenerational Center (RICC)", "date": "06/30/2021", "address": "128 Pleasant Street, Randolph MA, 02368", "vaccines": "Janssen COVID-19 Vaccine, Pfizer-BioNTech COVID-19 Vaccine", "ages": "All Ages", "info": "", "hours": "09:00 am - 12:00 pm", "available": "90", "special": "If you are signing up for a second dose, you must get the same vaccine brand as your first dose.", "clinic_id": "5696"}
{"name": "Randolph InterGenerational Center (RICC)", "date": "06/30/2021", "address": "2 North Main St, Randolph MA, 02368", "vaccines": "Janssen COVID-19 Vaccine, Pfizer-BioNTech COVID-19 Vaccine", "ages": "All Ages", "info": "", "hours": "09:00 am - 03:00 pm", "available": "36", "special": "If you are signing up for a second dose, you must get the same vaccine brand as your first dose.", "clinic_id": "5718"}
{"name": "Lowell Senior Center", "date": "06/30/2021", "address": "276 Broadway Street, Lowell MA, 01854", "vaccines": "Moderna COVID-19 Vaccine", "ages": "Adults, Seniors", "info": "", "hours": "10:00 am - 02:15 pm", "available": "200", "special": "If you are signing up for a second dose, you must get the same vaccine brand as your first dose.", "clinic_id": "5738"}
