{"title": "Albertsons #1059 (12+)", "url": "https://www.mhealthappointments.com/covidappt", "address": "5500 Boulder Hwy, Las Vegas, NV, 89122", "contact-phone": "(702) 435-7339", "lat": "39.53104088", "lng": "-119.8670764", "id": "albertsons-1059"}
{"title": "Albertsons #118 (12+)", "url": "https://www.mhealthappointments.com/covidappt", "address": "7151 W Craig Rd, Las Vegas, NV, 89129", "contact-phone": "(702) 839-9256", "lat": "35.97626439", "lng": "-114.8452405", "id": "albertsons-118"}
{"title": "Albertsons #2 (12+)", "url": "https://www.mhealthappointments.com/covidappt", "address": "201 South Stephanie Street, Henderson, NV, 89012", "contact-phone": "(702) 407-0258", "lat": "36.1665871", "lng": "-115.243736", "id": "albertsons-2"}
{"title": "Albertsons #276 (12+)", "url": "https://www.mhealthappointments.com/covidappt", "address": "7350 South Rainbow Blvd., Las Vegas, NV, 89139", "contact-phone": "(702) 739-1508", "lat": "36.2383604", "lng": "-115.2502409", "id": "albertsons-276"}
{"title": "Albertsons #2804 (12+)", "url": "https://www.mhealthappointments.com/covidappt", "address": "7975 Blue Diamond Rd, Las Vegas, NV, 89178", "contact-phone": "(702) 614-4331", "lat": "36.10188159", "lng": "-115.0546281", "id": "albertsons-2804"}
{"title": "Albertsons #3016 (12+)", "url": "https://www.mhealthappointments.com/covidappt", "address": "10250 West Charleston Blvd, Las Vegas, NV, 89135", "contact-phone": "(702) 838-7548", "lat": "36.01851325", "lng": "-115.2649152", "id": "albertsons-3016"}
{"title": "Albertsons #3021 (12+)", "url": "https://www.mhealthappointments.com/covidappt", "address": "10140 W. Flamingo Road, Las Vegas, NV, 89147", "contact-phone": "(702) 562-1832", "lat": "36.16097748", "lng": "-115.3193486", "id": "albertsons-3021"}
{"title": "Albertsons #3205 (12+)", "url": "https://www.mhealthappointments.com/covidappt", "address": "575 College Drive, Henderson, NV, 89015", "contact-phone": "(702) 568-0259", "lat": "36.11666579", "lng": "-115.3135709", "id": "albertsons-3205"}
{"title": "Albertsons #3206 (12+)", "url": "https://www.mhealthappointments.com/covidappt", "address": "190 N. Boulder Hwy, Henderson, NV, 89015", "contact-phone": "(702) 565-7805", "lat": "36.26302969", "lng": "-115.1808212", "id": "albertsons-3206"}
{"title": "Albertsons #3207 (12+)", "url": "https://www.mhealthappointments.com/covidappt", "address": "2910 Bicentennial Parkway, Henderson, NV, 89044", "contact-phone": "(702) 820-7595", "lat": "36.19386492", "lng": "-115.305775", "id": "albertsons-3207"}
{"title": "Albertsons #332 (12+)", "url": "https://www.mhealthappointments.com/covidappt", "address": "4800 Blue Diamond Road, Las Vegas, NV, 89139", "contact-phone": "(702) 260-4594", "lat": "36.05488226", "lng": "-115.2414274", "id": "albertsons-332"}
{"title": "Albertsons #3333 (12+)", "url": "https://www.mhealthappointments.com/covidappt", "address": "1940 Village Center Circle, Las Vegas, NV, 89134", "contact-phone": "(702) 341-0821", "lat": "36.28419709", "lng": "-115.3132846", "id": "albertsons-3333"}
{"title": "Albertsons #3489 (12+)", "url": "https://www.mhealthappointments.com/covidappt", "address": "6730 N HUALAPAI WAY, LAS VEGAS, NV, 89131", "contact-phone": "(702) 670-4960", "lat": "36.11595592", "lng": "-115.2803084", "id": "albertsons-3489"}
{"title": "Albertsons #4004 (12+)", "url": "https://www.mhealthappointments.com/covidappt", "address": "4055 S Durango Dr, Las Vegas, NV, 89147", "contact-phone": "(702) 869-9503", "lat": "36.04303488", "lng": "-114.9812653", "id": "albertsons-4004"}
{"title": "Albertsons #4005 (12+)", "url": "https://www.mhealthappointments.com/covidappt", "address": "3010 W. Ann Road, North Las Vegas, NV, 89031", "contact-phone": "(702) 656-3425", "lat": "36.15869601", "lng": "-115.0454519", "id": "albertsons-4005"}
{"title": "Albertsons #4009 (12+)", "url": "https://www.mhealthappointments.com/covidappt", "address": "8410 Farm Road, Las Vegas, NV, 89131", "contact-phone": "(702) 658-6669", "lat": "35.94258102", "lng": "-115.1174063", "id": "albertsons-4009"}
{"title": "Albertsons #4091 (12+)", "url": "https://www.mhealthappointments.com/covidappt", "address": "5881 E. Charleston Blvd., Las Vegas, NV, 89142", "contact-phone": "(702) 457-1503", "lat": "35.97860494", "lng": "-115.0999354", "id": "albertsons-4091"}
{"title": "Albertsons #46 (12+)", "url": "https://www.mhealthappointments.com/covidappt", "address": "1001 S. Rainbow Blvd., Las Vegas, NV, 89145", "contact-phone": "(702) 877-2162", "lat": "36.24045152", "lng": "-115.2090373", "id": "albertsons-46"}
{"title": "Albertsons #460 (12+)", "url": "https://www.mhealthappointments.com/covidappt", "address": "11720 W. Charleston Blvd., Las Vegas, NV, 89135", "contact-phone": "(702) 363-3306", "lat": "36.12878087", "lng": "-115.1110603", "id": "albertsons-460"}
{"title": "Albertsons #61 (12+)", "url": "https://www.mhealthappointments.com/covidappt", "address": "4850 W Craig Rd, Las Vegas, NV, 89130", "contact-phone": "(702) 515-1466", "lat": "36.26067106", "lng": "-115.1816193", "id": "albertsons-61"}
{"title": "Albertsons #662 (12+)", "url": "https://www.mhealthappointments.com/covidappt", "address": "2885 East Desert Inn, Las Vegas, NV, 89121", "contact-phone": "(702) 796-2952", "lat": "36.01395322", "lng": "-114.9646408", "id": "albertsons-662"}
{"title": "Albertsons #90 (12+)", "url": "https://www.mhealthappointments.com/covidappt", "address": "7075 West Ann Road, Las Vegas, NV, 89130", "contact-phone": "(702) 395-6912", "lat": "36.16113137", "lng": "-115.3506275", "id": "albertsons-90"}
{"title": "Albertsons #93 (12+)", "url": "https://www.mhealthappointments.com/covidappt", "address": "1008 Nevada Highway, Boulder City, NV, 89005", "contact-phone": "(702) 293-7592", "lat": "36.26126205", "lng": "-115.2479052", "id": "albertsons-93"}
{"title": "CVS #82 (12+)", "url": "https://www.cvs.com/minuteclinic/covid-19-testing?icid=cvs-home-hero1-link1-coronavirus-testing", "address": "6432 Losee Rd., N. Las Vegas, NV, 89086", "lat": "36.1944962", "lng": "-115.1220851", "id": "cvs-82"}
{"title": "CVS #8808 (12+)", "url": "https://www.cvs.com/minuteclinic/covid-19-testing?icid=cvs-home-hero1-link1-coronavirus-testing", "address": "2011 E. Lake Mead Blvd, N. Las Vegas, NV, 89030", "lat": "36.1561308", "lng": "-115.0819636", "id": "cvs-8808"}
{"title": "CVS #9842 (12+)", "url": "https://www.cvs.com/minuteclinic/covid-19-testing?icid=cvs-home-hero1-link1-coronavirus-testing", "address": "1980 N. Carson St., Carson City, NV, 89701", "lat": "36.2770991", "lng": "-115.1185179", "id": "cvs-9842"}
{"title": "CVS 2990 (12+)", "url": "https://www.cvs.com/minuteclinic/covid-19-testing?icid=cvs-home-hero1-link1-coronavirus-testing", "address": "6391 W. LAKE MEAD BLVD., LAS VEGAS, NV, 89108", "lat": "36.1801235", "lng": "-115.0831682", "id": "cvs-2990"}
{"title": "CVS 3172 (12+)", "url": "https://www.cvs.com/minuteclinic/covid-19-testing?icid=cvs-home-hero1-link1-coronavirus-testing", "address": "4391 E. WASHINGTON AVE., LAS VEGAS, NV, 89110", "lat": "36.04167291", "lng": "-115.1027701", "id": "cvs-3172"}
{"title": "CVS 7252 (12+)", "url": "https://www.cvs.com/immunizations/covid-19-vaccine?icid=mc_homepage2_covid_19_vaccine", "address": "3655 W. CRAIG RD., NORTH LAS VEGAS, NV, 89032", "lat": "36.19521332", "lng": "-115.0254211", "id": "cvs-7252"}
{"title": "CVS 8788 (12+)", "url": "https://www.cvs.com/minuteclinic/covid-19-testing?icid=cvs-home-hero1-link1-coronavirus-testing", "address": "1812 E. CHARLESTON BLVD., LAS VEGAS, NV, 89104", "lat": "36.1953635", "lng": "-115.2344079", "id": "cvs-8788"}
{"title": "CVS 8800 (12+)", "url": "https://www.cvs.com/immunizations/covid-19-vaccine?icid=mc_homepage2_covid_19_vaccine", "address": "6705 E. LAKE MEAD BLVD, Las Vegas, NV, 89156", "lat": "39.61211395", "lng": "-119.8478699", "id": "cvs-8800"}
{"title": "CVS 9964 (12+)", "url": "https://www.cvs.com/minuteclinic/covid-19-testing?icid=cvs-home-hero1-link1-coronavirus-testing", "address": "170 LEMMON DR, Reno , NV, NV", "lat": "39.5156382", "lng": "-119.8009924", "id": "cvs-9964"}
{"title": "Economy Drug", "url": "https://www.economydrugely.com/", "address": "696 Aultman St., Ely, NV, 89301", "contact-phone": "775-289-4929", "lat": "39.4222423", "lng": "-119.7433791", "id": "economy-drug"}
{"title": "Las Vegas VA", "url": "https://www.lasvegas.va.gov/", "address": "6900 North Pecos Road, North Las Vegas, NV, 89086", "contact-phone": "(702) 791-9000", "lat": "39.6382099", "lng": "-119.7114542", "id": "las-vegas-va"}
{"title": "RIDLEY'S PHARMACY #1135", "url": "/", "address": "1125 W WINNEMUCCA BLVD, WINNEMUCCA, NV, 89445", "lat": "39.1786059", "lng": "-119.769674", "id": "ridleys-pharmacy-1135"}
{"title": "RIDLEYS # 1154", "url": "/", "address": "1689 GREAT BASIN HWY, ELY, NV, 89301", "lat": "39.5278112", "lng": "-119.8320838", "id": "ridleys-1154"}
{"title": "Raley's #120", "url": "https://www.raleys.com/pharmacy/services/nevada-covid-19-vaccines/", "address": "1201 S Main Street, Tonopah, NV, 89049", "contact-phone": "775-482-6711", "lat": "39.2485407", "lng": "-114.8932156", "id": "raleys-120"}
{"title": "Reno VA", "url": "https://www.reno.va.gov/", "address": "975 Kirman Avenue, Reno, NV, 89502", "contact-phone": "(888) 838-6256", "lat": "36.2851928", "lng": "-115.096697", "id": "reno-va"}
{"title": "Safeway #1210 (12+)", "url": "https://www.mhealthappointments.com/covidappt", "address": "5150 Mae Anne Ave, Reno, NV, 89523", "contact-phone": "7757469010", "lat": "39.47728052", "lng": "-118.7870872", "id": "safeway-1210"}
{"title": "Safeway #1517 (12+)", "url": "https://www.mhealthappointments.com/covidappt", "address": "W Williams Ave, Fallon, NV, 89406", "contact-phone": "7754282340", "lat": "38.98636935", "lng": "-119.9437879", "id": "safeway-1517"}
{"title": "Safeway #1537", "url": "https://www.mhealthappointments.com/covidappt", "address": "212 Elks Point Rd, Zephyr Cove, NV, 89448", "contact-phone": "7755861088", "lat": "38.53547479", "lng": "-118.6307306", "id": "safeway-1537"}
{"title": "Safeway #2255", "url": "https://www.mhealthappointments.com/covidappt", "address": "1095 US-95 , Hawthorne, NV, 89415", "contact-phone": "7759453045", "lat": "39.55568767", "lng": "-119.7034568", "id": "safeway-2255"}
{"title": "Safeway #2656 (12+)", "url": "https://www.mhealthappointments.com/covidappt", "address": "2858 Vista Blvd, Sparks, NV, 89434", "contact-phone": "7753528470", "lat": "36.02047272", "lng": "-115.0493879", "id": "safeway-2656"}
{"title": "Safeway (12+)", "url": "https://local.safeway.com/safeway/nv/reno/1031-steamboat-pkwy.html?utm_source=G&utm_medium=Maps&utm_campaign=G%20Places", "address": "1031 Steamboat Parkway, Reno, NV, 89521", "contact-phone": "(775) 332-0910", "lat": "40.7577876", "lng": "-111.8431289", "id": "safeway"}
{"title": "Salt Lake City VA", "url": "https://www.saltlakecity.va.gov/", "address": "500 Foothill Drive, Salt Lake City, UT, 84148", "contact-phone": "801-582-1565", "lat": "36.23872757", "lng": "-115.1887207", "id": "salt-lake-city-va"}
{"title": "Sam's Club #4768", "url": "https://www.walmart.com/cp/1228302", "address": "4835 KIETZKE LN, RENO, NV, 89509", "lat": "36.09689949", "lng": "-115.1011274", "id": "sams-club-4768"}
{"title": "Sam's Club #4974", "url": "https://www.walmart.com/cp/1228302", "address": "2650 E CRAIG RD, NORTH LAS VEGAS, NV, 89030", "lat": "36.03914272", "lng": "-114.977207", "id": "sams-club-4974"}
{"title": "Sam's Club #4983", "url": "https://www.walmart.com/cp/1228302", "address": "7100 ARROYO CROSSING PKWY, LAS VEGAS, NV, 89113", "lat": "36.23671169", "lng": "-115.1679694", "id": "sams-club-4983"}
{"title": "Sam's Club #6257", "url": "https://www.walmart.com/cp/1228302", "address": "8080 W TROPICAL PKWY, LAS VEGAS, NV, 89149", "lat": "36.06510282", "lng": "-115.249318", "id": "sams-club-6257"}
{"title": "Sam's Club #6261", "url": "https://www.walmart.com/cp/1228302", "address": "1910 E SERENE AVE, LAS VEGAS, NV, 89123", "lat": "36.27176353", "lng": "-115.2705459", "id": "sams-club-6261"}
{"title": "Sam's Club #6382", "url": "https://www.walmart.com/cp/1228302", "address": "7175 SPRING MOUNTAIN RD, LAS VEGAS, NV, 89117", "lat": "36.0231479", "lng": "-115.1242296", "id": "sams-club-6382"}
{"title": "Sam's Club #8177", "url": "https://www.walmart.com/cp/1228302", "address": "5101 S PECOS RD, LAS VEGAS, NV, 89120", "lat": "36.12496072", "lng": "-115.2479793", "id": "sams-club-8177"}
{"title": "Save Mart Pharmacy #551 RX", "url": "https://www.savemart.com/pharmacy", "address": "4348 S CARSON ST, CARSON CITY, NV, 89701", "contact-phone": "775-623-2548", "lat": "40.9645629", "lng": "-117.7441075", "id": "save-mart-pharmacy-551-rx"}
{"title": "Save Mart Pharmacy #552 RX", "url": "https://www.savemart.com/pharmacy", "address": "3620 N CARSON ST, CARSON CITY, NV, 89706", "lat": "39.1271233", "lng": "-119.7744056", "id": "save-mart-pharmacy-552-rx"}
{"title": "Save Mart Pharmacy #553 RX", "url": "https://www.savemart.com/pharmacy", "address": "525 KEYSTONE AVE, RENO, NV, 89503", "lat": "39.4775219", "lng": "-119.7985184", "id": "save-mart-pharmacy-553-rx"}
{"title": "Save Mart Pharmacy #554 RX", "url": "https://www.savemart.com/pharmacy", "address": "4995 KIETZKE LN, RENO, NV, 89509", "lat": "39.5342761", "lng": "-119.864883", "id": "save-mart-pharmacy-554-rx"}
{"title": "Save Mart Pharmacy #559 RX", "url": "https://www.savemart.com/pharmacy", "address": "9750 PYRAMID LAKES HWY, SPARKS, NV, 89436", "lat": "39.5071479", "lng": "-119.8086492", "id": "save-mart-pharmacy-559-rx"}
{"title": "Save Mart Supermarkets #061307", "url": "https://www.savemart.com/pharmacy", "address": "10500 N MCCARRAN, RENO, NV, 89503", "lat": "39.1909865", "lng": "-119.7773127", "id": "save-mart-supermarkets-061307"}
{"title": "Save Mart Supermarkets #075207", "url": "https://www.savemart.com/pharmacy", "address": "195 W PLUMB LN, RENO, NV, 89509", "contact-phone": "775-289-2671", "lat": "39.2452957", "lng": "-114.8734072", "id": "save-mart-supermarkets-075207"}
{"title": "Smith's Marketplace Pharmacy #367 (12+)", "url": "https://www.smithsfoodanddrug.com/rx/covid-eligibility", "address": "9710 SKYE CANYON PARK DR., LAS VEGAS, NV, 89166", "contact-phone": "702-410-8346", "lat": "36.2171382", "lng": "-115.240797", "id": "smiths-marketplace-pharmacy-367"}
{"title": "Smith's Pharmacy #301 (12+)", "url": "https://www.smithsfoodanddrug.com/rx/covid-eligibility", "address": "3013 W CRAIG ROAD, NORTH LAS VEGAS, NV, 89032", "contact-phone": "702-648-6340", "lat": "36.1172", "lng": "-115.2093", "id": "smiths-pharmacy-301"}
{"title": "Smith's Pharmacy #304 (12+)", "url": "https://www.smithsfoodanddrug.com/rx/covid-eligibility", "address": "4001 S. DECATUR BLVD, LAS VEGAS, NV, 89103", "contact-phone": "702-248-6510", "lat": "36.174526", "lng": "-115.0957129", "id": "smiths-pharmacy-304"}
{"title": "Smith's Pharmacy #305 (12+)", "url": "https://www.smithsfoodanddrug.com/rx/covid-eligibility", "address": "3602 E BONANZA ROAD, LAS VEGAS, NV, 89110", "contact-phone": "702-438-1091", "lat": "36.2022454", "lng": "-115.1218421", "id": "smiths-pharmacy-305"}
{"title": "Smith's Pharmacy #306 (12+)", "url": "https://www.smithsfoodanddrug.com/rx/covid-eligibility", "address": "2255 N LAS VEGAS BLVD, NORTH LAS VEGAS, NV, 89030", "contact-phone": "702-642-8092", "lat": "36.0544509", "lng": "-115.2769686", "id": "smiths-pharmacy-306"}
{"title": "Smith's Pharmacy #311 (12+)", "url": "https://www.smithsfoodanddrug.com/rx/covid-eligibility", "address": "8050 SOUTH RAINBOW BLVD, LAS VEGAS, NV, 89139", "contact-phone": "702-294-7202", "lat": "38.0575729", "lng": "-117.2205199", "id": "smiths-pharmacy-311"}
{"title": "Smith's Pharmacy #315 (12+)", "url": "https://www.smithsfoodanddrug.com/rx/covid-eligibility", "address": "8525 W. WARM SPRINGS ROAD, LAS VEGAS, NV, 89113", "contact-phone": "702-505-4955", "lat": "36.1429629", "lng": "-115.0670795", "id": "smiths-pharmacy-315"}
{"title": "Smith's Pharmacy #318 (12+)", "url": "https://www.smithsfoodanddrug.com/rx/covid-eligibility", "address": "4965 E SAHARA AVE, LAS VEGAS, NV, 89104", "contact-phone": "702-431-9135", "lat": "36.2906516", "lng": "-115.2856886", "id": "smiths-pharmacy-318"}
{"title": "Smith's Pharmacy #332 (12+)", "url": "https://www.smithsfoodanddrug.com/rx/covid-eligibility", "address": "7130 N DURANGO DR, LAS VEGAS, NV, 89149", "contact-phone": "702-647-2799", "lat": "36.2751904", "lng": "-115.1193405", "id": "smiths-pharmacy-332"}
{"title": "Smith's Pharmacy #334 (12+)", "url": "https://www.smithsfoodanddrug.com/rx/covid-eligibility", "address": "2255 E. CENTENNIAL PKWY, NO. LAS VEGAS, NV, 89081", "contact-phone": "702-633-6222", "lat": "36.2850357", "lng": "-115.1787543", "id": "smiths-pharmacy-334"}
{"title": "Smith's Pharmacy #338 (12+)", "url": "https://www.smithsfoodanddrug.com/rx/covid-eligibility", "address": "6855 ALIANTE PKWY, NO. LAS VEGAS, NV, 89084", "contact-phone": "702-642-6062", "lat": "36.042273", "lng": "-115.2418622", "id": "smiths-pharmacy-338"}
{"title": "Smith's Pharmacy #341", "url": "https://www.smithsfoodanddrug.com/rx/covid-eligibility", "address": "601 SO. HIGHWAY 160, PAHRUMP, NV, 89048", "contact-phone": "775-727-2404", "lat": "39.6135422", "lng": "-119.8520484", "id": "smiths-pharmacy-341"}
{"title": "Smith's Pharmacy #342", "url": "https://www.smithsfoodanddrug.com/rx/covid-eligibility", "address": "350 SANDHILL, MESQUITE, NV, 89027", "contact-phone": "702-346-8656", "lat": "36.2114763", "lng": "-115.986628", "id": "smiths-pharmacy-342"}
{"title": "Smith's Pharmacy #344 (12+)", "url": "https://www.smithsfoodanddrug.com/rx/covid-eligibility", "address": "175 LEMMON DRIVE, RENO, NV, 89506", "contact-phone": "775-971-3320", "lat": "36.0281976", "lng": "-115.0844807", "id": "smiths-pharmacy-344"}
{"title": "Smith's Pharmacy #345 (12+)", "url": "https://www.smithsfoodanddrug.com/rx/covid-eligibility", "address": "5564 CAMINO AL NORTE , NORTH LAS VEGAS, NV, 89031", "contact-phone": "702-399-3186", "lat": "36.1579998", "lng": "-115.3124688", "id": "smiths-pharmacy-345"}
{"title": "Smith's Pharmacy #346 (12+)", "url": "https://www.smithsfoodanddrug.com/rx/covid-eligibility", "address": "10616 S. EASTERN AVE., HENDERSON, NV, 89052", "contact-phone": "702-614-8674", "lat": "36.26087", "lng": "-115.15437", "id": "smiths-pharmacy-346"}
{"title": "Smith's Pharmacy #347 (12+)", "url": "https://www.smithsfoodanddrug.com/rx/covid-eligibility", "address": "9851 WEST CHARLESTON BLVD, LAS VEGAS, NV, 89117", "contact-phone": "702-946-1204", "lat": "36.80869", "lng": "-114.06282", "id": "smiths-pharmacy-347"}
{"title": "Smith's Pharmacy #348 (12+)", "url": "https://www.smithsfoodanddrug.com/rx/covid-eligibility", "address": "1000 NO. GREEN VALLEY PKWY, HENDERSON, NV, 89074", "contact-phone": "702-260-0065", "lat": "36.10132", "lng": "-115.31324", "id": "smiths-pharmacy-348"}
{"title": "Smith's Pharmacy #349 (12+)", "url": "https://www.smithsfoodanddrug.com/rx/covid-eligibility", "address": "10100 WEST TROPICANA AVENUE, LAS VEGAS, NV, 89149", "contact-phone": "702-220-7911", "lat": "36.0718429", "lng": "-115.0741086", "id": "smiths-pharmacy-349"}
{"title": "Smith's Pharmacy #350 (12+)", "url": "https://www.smithsfoodanddrug.com/rx/covid-eligibility", "address": "4600 E. SUNSET BLVD., HENDERSON, NV, 89015", "contact-phone": "702-451-0468", "lat": "36.1433812", "lng": "-115.1349029", "id": "smiths-pharmacy-350"}
{"title": "Smith's Pharmacy #351 (12+)", "url": "https://www.smithsfoodanddrug.com/rx/covid-eligibility", "address": "6130 W. TROPICANA, LAS VEGAS, NV, 89103", "contact-phone": "702-871-6550", "lat": "36.2380409", "lng": "-115.1813199", "id": "smiths-pharmacy-351"}
{"title": "Smith's Pharmacy #354 (12+)", "url": "https://www.smithsfoodanddrug.com/rx/covid-eligibility", "address": "3850 FLAMINGO RD., LAS VEGAS, NV, 89121", "contact-phone": "702-451-5536", "lat": "36.1015064", "lng": "-115.2264167", "id": "smiths-pharmacy-354"}
{"title": "Smith's Pharmacy #355 (12+)", "url": "https://www.smithsfoodanddrug.com/rx/covid-eligibility", "address": "450 NORTH NELLIS, LAS VEGAS, NV, 89110", "contact-phone": "702-452-0224", "lat": "36.1156462", "lng": "-115.1907121", "id": "smiths-pharmacy-355"}
{"title": "Smith's Pharmacy #356 (12+)", "url": "https://www.smithsfoodanddrug.com/rx/covid-eligibility", "address": "599 EAST WILLIAMS ST, CARSON CITY, NV, 89702", "contact-phone": "775-885-9928", "lat": "36.1677412", "lng": "-115.0605", "id": "smiths-pharmacy-356"}
{"title": "Smith's Pharmacy #357 (12+)", "url": "https://www.smithsfoodanddrug.com/rx/covid-eligibility", "address": "1255 BARING BLVD, SPARKS, NV, 89434", "contact-phone": "775-359-6900", "lat": "39.1690302", "lng": "-119.7626903", "id": "smiths-pharmacy-357"}
{"title": "Smith's Pharmacy #358 (12+)", "url": "https://www.smithsfoodanddrug.com/rx/covid-eligibility", "address": "2540 MARYLAND PARKWAY, LAS VEGAS, NV, 89109", "contact-phone": "702-791-0517", "lat": "39.5555", "lng": "-119.72222", "id": "smiths-pharmacy-358"}
{"title": "Smith's Pharmacy #361 (12+)", "url": "https://www.smithsfoodanddrug.com/rx/covid-eligibility", "address": "4700 WEST ANN ROAD, NORTH LAS VEGAS, NV, 89031", "contact-phone": "702-395-7510", "lat": "35.9967", "lng": "-115.20609", "id": "smiths-pharmacy-361"}
{"title": "Smith's Pharmacy #363 (12+)", "url": "https://www.smithsfoodanddrug.com/rx/covid-eligibility", "address": "4015 S. BUFFALO DR., LAS VEGAS, NV, 89147", "contact-phone": "702-876-3215", "lat": "36.2629501", "lng": "-115.2058675", "id": "smiths-pharmacy-363"}
{"title": "Smith's Pharmacy #364 (12+)", "url": "https://www.smithsfoodanddrug.com/rx/covid-eligibility", "address": "10600 SOUTHERN HIGHLANDS PRKWY, LAS VEGAS, NV, 89141", "contact-phone": "702-254-0823", "lat": "36.02575", "lng": "-115.06367", "id": "smiths-pharmacy-364"}
{"title": "Smith's Pharmacy #366 (12+)", "url": "https://www.smithsfoodanddrug.com/rx/covid-eligibility", "address": "55 S. VALLE VERDE DR., HENDERSON, NV, 89012", "contact-phone": "702-837-6117", "lat": "36.3137026", "lng": "-115.3155073", "id": "smiths-pharmacy-366"}
{"title": "Smith's Pharmacy #370 (12+)", "url": "https://www.smithsfoodanddrug.com/rx/covid-eligibility", "address": "3160 NORTH RAINBOW BLVD., LAS VEGAS, NV, 89108", "contact-phone": "702-658-3870", "lat": "36.1426137", "lng": "-115.2775539", "id": "smiths-pharmacy-370"}
{"title": "Smith's Pharmacy #371 (12+)", "url": "https://www.smithsfoodanddrug.com/rx/covid-eligibility", "address": "8555 WEST SAHARA AVE , LAS VEGAS, NV, 89117", "contact-phone": "702-341-8181", "lat": "36.1866015", "lng": "-115.225041", "id": "smiths-pharmacy-371"}
{"title": "Smith's Pharmacy #372 (12+)", "url": "https://www.smithsfoodanddrug.com/rx/covid-eligibility", "address": "1421 N. JONES BLVD., LAS VEGAS, NV, 89108", "contact-phone": "702-631-6745", "lat": "36.0410341", "lng": "-115.1192792", "id": "smiths-pharmacy-372"}
{"title": "Smith's Pharmacy #376 (12+)", "url": "https://www.smithsfoodanddrug.com/rx/covid-eligibility", "address": "2385 E. WINDMILL, LAS VEGAS, NV, 89123", "contact-phone": "702-837-0821", "lat": "40.8348112", "lng": "-115.7859941", "id": "smiths-pharmacy-376"}
{"title": "Smith's Pharmacy #377 (12+)", "url": "https://www.smithsfoodanddrug.com/rx/covid-eligibility", "address": "850 SOUTH RANCHO DR., LAS VEGAS, NV, 89106", "contact-phone": "702-878-7414", "lat": "35.9995306", "lng": "-115.102477", "id": "smiths-pharmacy-377"}
{"title": "Smith's Pharmacy #378 (12+)", "url": "https://www.smithsfoodanddrug.com/rx/covid-eligibility", "address": "750 SOUTH MEADOWS PARKWAY, RENO, NV, 89521", "contact-phone": "(775) 851-8060", "lat": "36.1612756", "lng": "-115.1745574", "id": "smiths-pharmacy-378"}
{"title": "Smith's Pharmacy #381 (12+)", "url": "https://www.smithsfoodanddrug.com/rx/covid-eligibility", "address": "830 SOUTH BOULDER HIGHWAY, HENDERSON, NV, 89015", "contact-phone": "(702) 565-6466", "lat": "39.4373834", "lng": "-119.7567804", "id": "smiths-pharmacy-381"}
{"title": "Smith's Pharmacy #385 (12+)", "url": "https://www.smithsfoodanddrug.com/rx/covid-eligibility", "address": "2211 NORTH RAMPART, LAS VEGAS, NV, 89128", "contact-phone": "(702) 256-1984", "lat": "36.02603", "lng": "-114.96495", "id": "smiths-pharmacy-385"}
{"title": "Smith's Pharmacy #388", "url": "https://www.smithsfoodanddrug.com/rx/covid-eligibility", "address": "1740 MOUNTAIN CITY HIGHWAY, ELKO , NV, 89801", "contact-phone": "(775) 777-1337", "lat": "38.9372338", "lng": "-119.7391598", "id": "smiths-pharmacy-388"}
{"title": "Smith's Pharmacy #389 (12+)", "url": "https://www.smithsfoodanddrug.com/rx/covid-eligibility", "address": "1341 US HIGHWAY 395 N, GARDNERVILLE, NV, 89410", "contact-phone": "(775) 782-0160", "lat": "36.2016423", "lng": "-115.2839437", "id": "smiths-pharmacy-389"}
{"title": "Smith's Pharmacy #390", "url": "https://www.smithsfoodanddrug.com/rx/covid-eligibility", "address": "1855 W. WENDOVER BLVD, WENDOVER, NV, 89883", "contact-phone": "(775) 664-3197", "lat": "39.2635111", "lng": "-119.5821723", "id": "smiths-pharmacy-390"}
{"title": "Smith's Pharmacy #392 (12+)", "url": "https://www.smithsfoodanddrug.com/rx/covid-eligibility", "address": "2200 HIGHWAY 50 EAST, DAYTON, NV, 89043", "contact-phone": "(775) 246-0920", "lat": "36.0121285", "lng": "-115.1342574", "id": "smiths-pharmacy-392"}
{"title": "Smith's Pharmacy #394 (12+)", "url": "https://www.smithsfoodanddrug.com/rx/covid-eligibility", "address": "9750 S. MARYLAND PARKWAY, LAS VEGAS, NV, 89123", "contact-phone": "(702) 617-1074", "lat": "36.1161787", "lng": "-115.2950562", "id": "smiths-pharmacy-394"}
{"title": "Smith's Pharmacy #396 (12+)", "url": "https://www.smithsfoodanddrug.com/rx/covid-eligibility", "address": "9350 WEST FLAMINGO RD., LAS VEGAS, NV, 89147", "contact-phone": "(702) 240-7055", "lat": "36.1313763", "lng": "-115.2061453", "id": "smiths-pharmacy-396"}
{"title": "Smith's Pharmacy #399 (12+)", "url": "https://www.smithsfoodanddrug.com/rx/covid-eligibility", "address": "4840 W. DESERT INN ROAD, LAS VEGAS, NV, 89102", "contact-phone": "(702) 248-1854", "lat": "36.11596", "lng": "-115.26225", "id": "smiths-pharmacy-399"}
{"title": "Vons #1795 (12+)", "url": "https://www.mhealthappointments.com/covidappt", "address": "2511 Anthem Village Drive, Henderson, NV, 89052", "contact-phone": "(702) 617-4526", "lat": "36.12137688", "lng": "-115.138644", "id": "vons-1795"}
{"title": "Vons #1963 (12+)", "url": "https://www.mhealthappointments.com/covidappt", "address": "1155 E. Twain Avenue, Las Vegas, NV, 89169", "contact-phone": "(702) 696-1481", "lat": "36.13156173", "lng": "-115.277252", "id": "vons-1963"}
{"title": "Vons #1970 (12+)", "url": "https://www.mhealthappointments.com/covidappt", "address": "8540 West Desert Inn Road, Las Vegas, NV, 89117", "contact-phone": "(702) 240-1784", "lat": "36.04150096", "lng": "-115.1525936", "id": "vons-1970"}
{"title": "Vons #2390 (12+)", "url": "https://www.mhealthappointments.com/covidappt", "address": "475 E. Windmill Lane, Las Vegas, NV, 89123", "contact-phone": "(702) 896-7414", "lat": "36.03527427", "lng": "-115.2063474", "id": "vons-2390"}
{"title": "Vons #2511 (12+)", "url": "https://www.mhealthappointments.com/covidappt", "address": "2667 E. Windmill Parkway, Henderson, NV, 89074", "contact-phone": "(702) 361-1157", "lat": "36.28045856", "lng": "-115.2614828", "id": "vons-2511"}
{"title": "Vons #2613 (12+)", "url": "https://www.mhealthappointments.com/covidappt", "address": "6450 Sky Pointe Drive, Las Vegas, NV, 89131", "contact-phone": "(702) 515-1821", "lat": "36.05405961", "lng": "-115.2810965", "id": "vons-2613"}
{"title": "Vons #2614 (12+)", "url": "https://www.mhealthappointments.com/covidappt", "address": "7405 So. Durango Drive, Las Vegas, NV, 89113", "contact-phone": "(702) 407-2524", "lat": "36.00920292", "lng": "-114.9930871", "id": "vons-2614"}
{"title": "Vons #2615 (12+)", "url": "https://www.mhealthappointments.com/covidappt", "address": "45 E Horizon Ridge Parkway, Henderson, NV, 89002", "contact-phone": "(702) 564-1425", "lat": "36.30084607", "lng": "-115.2796064", "id": "vons-2615"}
{"title": "WALGREENS #02474", "url": "https://www.walgreens.com/schedulevaccine", "address": "3000 VISTA BLVD, SPARKS, NV, 89436", "contact-phone": "(775) 359-7044", "lat": "36.2770193", "lng": "-115.1806714", "id": "walgreens-02474"}
{"title": "WALGREENS #02590 (12+)", "url": "https://www.walgreens.com/schedulevaccine", "address": "6435 ALIANTE PKWY, NORTH LAS VEGAS, NV, 89084", "contact-phone": "(702) 657-6508", "lat": "36.0490285", "lng": "-115.2439544", "id": "walgreens-02590"}
{"title": "WALGREENS #02598 (12+)", "url": "https://www.walgreens.com/schedulevaccine", "address": "7685 S RAINBOW BLVD, LAS VEGAS, NV, 89139", "contact-phone": "(702) 614-3094", "lat": "39.5330907", "lng": "-119.862496", "id": "walgreens-02598"}
{"title": "WALGREENS #02658", "url": "https://www.walgreens.com/schedulevaccine", "address": "10370 N MCCARRAN BLVD, RENO, NV, 89503", "contact-phone": "(775) 746-4809", "lat": "39.41754", "lng": "-119.75652", "id": "walgreens-02658"}
{"title": "WALGREENS #02662", "url": "https://www.walgreens.com/schedulevaccine", "address": "12645 S VIRGINIA ST, RENO, NV, 89511", "contact-phone": "(775) 853-9887", "lat": "36.1952078", "lng": "-115.2245779", "id": "walgreens-02662"}
{"title": "WALGREENS #03841 (12+)", "url": "https://www.walgreens.com/schedulevaccine", "address": "6101 W LAKE MEAD BLVD, LAS VEGAS, NV, 89108", "contact-phone": "(702) 648-2732", "lat": "36.0418207", "lng": "-115.1194238", "id": "walgreens-03841"}
{"title": "WALGREENS #03842 (12+)", "url": "https://www.walgreens.com/schedulevaccine", "address": "2389 E WINDMILL LN, LAS VEGAS, NV, 89123", "contact-phone": "(702) 837-9531", "lat": "36.11438", "lng": "-115.11031", "id": "walgreens-03842"}
{"title": "WALGREENS #03843 (12+)", "url": "https://www.walgreens.com/schedulevaccine", "address": "2995 E FLAMINGO RD, LAS VEGAS, NV, 89121", "contact-phone": "(702) 737-6164", "lat": "36.1439011", "lng": "-115.0646819", "id": "walgreens-03843"}
{"title": "WALGREENS #03844 (12+)", "url": "https://www.walgreens.com/schedulevaccine", "address": "5011 E SAHARA AVE, LAS VEGAS, NV, 89142", "contact-phone": "(702) 432-5633", "lat": "36.2009781", "lng": "-115.1202207", "id": "walgreens-03844"}
{"title": "WALGREENS #03845 (12+)", "url": "https://www.walgreens.com/schedulevaccine", "address": "2280 LAS VEGAS BLVD N, NORTH LAS VEGAS, NV, 89030", "contact-phone": "(702) 649-1415", "lat": "36.0357469", "lng": "-115.0860297", "id": "walgreens-03845"}
{"title": "WALGREENS #03871 (12+)", "url": "https://www.walgreens.com/schedulevaccine", "address": "1701 N GREEN VALLEY PKWY, HENDERSON, NV, 89074", "contact-phone": "(702) 897-5884", "lat": "40.7400703", "lng": "-114.0776033", "id": "walgreens-03871"}
{"title": "WALGREENS #03872 (12+)", "url": "https://www.walgreens.com/schedulevaccine", "address": "8633 W CHARLESTON BLVD, LAS VEGAS, NV, 89117", "contact-phone": "(702) 383-9660", "lat": "39.55886", "lng": "-119.7047", "id": "walgreens-03872"}
{"title": "WALGREENS #03873 (12+)", "url": "https://www.walgreens.com/schedulevaccine", "address": "6865 W TROPICANA AVE, LAS VEGAS, NV, 89103", "contact-phone": "(702) 871-1623", "lat": "36.2191034", "lng": "-115.279406", "id": "walgreens-03873"}
{"title": "WALGREENS #03915 (12+)", "url": "https://www.walgreens.com/schedulevaccine", "address": "6401 W CHARLESTON BLVD, LAS VEGAS, NV, 89146", "contact-phone": "(702) 259-7002", "lat": "36.0993196", "lng": "-115.2416201", "id": "walgreens-03915"}
{"title": "WALGREENS #03922 (12+)", "url": "https://www.walgreens.com/schedulevaccine", "address": "7599 W LAKE MEAD BLVD, LAS VEGAS, NV, 89128", "contact-phone": "(702) 363-4622", "lat": "36.1586344", "lng": "-115.2353367", "id": "walgreens-03922"}
{"title": "WALGREENS #04086 (12+)", "url": "https://www.walgreens.com/schedulevaccine", "address": "4470 E BONANZA RD, LAS VEGAS, NV, 89110", "contact-phone": "(702) 531-8006", "lat": "36.1956044", "lng": "-115.2595875", "id": "walgreens-04086"}
{"title": "WALGREENS #04106 (12+)", "url": "https://www.walgreens.com/schedulevaccine", "address": "1101 LAS VEGAS BLVD S, LAS VEGAS, NV, 89104", "contact-phone": "(702) 471-6844", "lat": "36.1739561", "lng": "-115.0788178", "id": "walgreens-04106"}
{"title": "WALGREENS #04137 (12+)", "url": "https://www.walgreens.com/schedulevaccine", "address": "9415 W DESERT INN RD, LAS VEGAS, NV, 89117", "contact-phone": "(702) 233-8935", "lat": "36.1587744", "lng": "-115.1474164", "id": "walgreens-04137"}
{"title": "WALGREENS #04197 (12+)", "url": "https://www.walgreens.com/schedulevaccine", "address": "8500 W CHEYENNE AVE, LAS VEGAS, NV, 89129", "contact-phone": "(702) 655-7258", "lat": "36.2068798", "lng": "-115.3017698", "id": "walgreens-04197"}
{"title": "WALGREENS #04242 (12+)", "url": "https://www.walgreens.com/schedulevaccine", "address": "9420 W LAKE MEAD BLVD, LAS VEGAS, NV, 89134", "contact-phone": "(702) 363-5247", "lat": "36.1153955", "lng": "-115.0657822", "id": "walgreens-04242"}
{"title": "WALGREENS #04433 (12+)", "url": "https://www.walgreens.com/schedulevaccine", "address": "4895 BOULDER HWY, LAS VEGAS, NV, 89121", "contact-phone": "(702) 898-5264", "lat": "36.2382425", "lng": "-115.206979", "id": "walgreens-04433"}
{"title": "WALGREENS #04579 (12+)", "url": "https://www.walgreens.com/schedulevaccine", "address": "2400 E TROPICANA AVE, LAS VEGAS, NV, 89121", "contact-phone": "(702) 435-6289", "lat": "36.1586", "lng": "-115.28159", "id": "walgreens-04579"}
{"title": "WALGREENS #04755 (12+)", "url": "https://www.walgreens.com/schedulevaccine", "address": "3480 S JONES BLVD, LAS VEGAS, NV, 89146", "contact-phone": "(702) 871-1405", "lat": "36.1004481", "lng": "-115.1183676", "id": "walgreens-04755"}
{"title": "WALGREENS #04788", "url": "https://www.walgreens.com/schedulevaccine", "address": "1465 E WILLIAM ST, CARSON CITY, NV, 89701", "contact-phone": "(775) 841-2790", "lat": "36.1260915", "lng": "-115.2243927", "id": "walgreens-04788"}
{"title": "WALGREENS #04789 (12+)", "url": "https://www.walgreens.com/schedulevaccine", "address": "3495 S VIRGINIA ST, RENO, NV, 89502", "contact-phone": "(775) 824-0802", "lat": "39.1711804", "lng": "-119.7515617", "id": "walgreens-04789"}
{"title": "WALGREENS #04790 (12+)", "url": "https://www.walgreens.com/schedulevaccine", "address": "5082 E LAKE MEAD BLVD, LAS VEGAS, NV, 89115", "contact-phone": "(702) 531-3028", "lat": "39.4916663", "lng": "-119.7977205", "id": "walgreens-04790"}
{"title": "WALGREENS #04854 (12+)", "url": "https://www.walgreens.com/schedulevaccine", "address": "4771 W CRAIG RD, NORTH LAS VEGAS, NV, 89032", "contact-phone": "(702) 656-1221", "lat": "36.19674", "lng": "-115.06356", "id": "walgreens-04854"}
{"title": "WALGREENS #04855 (12+)", "url": "https://www.walgreens.com/schedulevaccine", "address": "6001 W CHEYENNE AVE, LAS VEGAS, NV, 89108", "contact-phone": "(702) 396-0917", "lat": "36.0146032", "lng": "-114.951826", "id": "walgreens-04855"}
{"title": "WALGREENS #04856 (12+)", "url": "https://www.walgreens.com/schedulevaccine", "address": "3400 BOULDER HWY, LAS VEGAS, NV, 89121", "contact-phone": "(702) 432-6940", "lat": "36.2162424", "lng": "-115.2264304", "id": "walgreens-04856"}
{"title": "WALGREENS #05014 (12+)", "url": "https://www.walgreens.com/schedulevaccine", "address": "7845 W FLAMINGO RD, LAS VEGAS, NV, 89147", "contact-phone": "(702) 871-1905", "lat": "36.144707", "lng": "-115.1016235", "id": "walgreens-05014"}
{"title": "WALGREENS #05015", "url": "https://www.walgreens.com/schedulevaccine", "address": "9305 S EASTERN AVE, LAS VEGAS, NV, 89123", "contact-phone": "(702) 914-9797", "lat": "36.11414", "lng": "-115.26166", "id": "walgreens-05015"}
{"title": "WALGREENS #05154 (12+)", "url": "https://www.walgreens.com/schedulevaccine", "address": "4905 W TROPICANA AVE, LAS VEGAS, NV, 89103", "contact-phone": "(702) 889-0922", "lat": "36.0199976", "lng": "-115.1193405", "id": "walgreens-05154"}
{"title": "WALGREENS #05295", "url": "https://www.walgreens.com/schedulevaccine", "address": "750 N VIRGINIA ST, RENO, NV, 89501", "contact-phone": "(775) 337-8703", "lat": "36.1003506", "lng": "-115.2086463", "id": "walgreens-05295"}
{"title": "WALGREENS #05311 (12+)", "url": "https://www.walgreens.com/schedulevaccine", "address": "1180 E FLAMINGO RD, LAS VEGAS, NV, 89119", "contact-phone": "(702) 836-9119", "lat": "39.5346888", "lng": "-119.8148831", "id": "walgreens-05311"}
{"title": "WALGREENS #05369 (12+)", "url": "https://www.walgreens.com/schedulevaccine", "address": "1500 S BOULDER HWY, HENDERSON, NV, 89015", "contact-phone": "(702) 567-5454", "lat": "36.0127303", "lng": "-115.1554734", "id": "walgreens-05369"}
{"title": "WALGREENS #05479 (12+)", "url": "https://www.walgreens.com/schedulevaccine", "address": "385 E SILVERADO RANCH BLVD, LAS VEGAS, NV, 89183", "contact-phone": "(702) 617-7895", "lat": "36.2636245", "lng": "-115.2428409", "id": "walgreens-05479"}
{"title": "WALGREENS #05570 (12+)", "url": "https://www.walgreens.com/schedulevaccine", "address": "6650 E LAKE MEAD BLVD, LAS VEGAS, NV, 89156", "contact-phone": "(702) 438-2744", "lat": "36.1293693", "lng": "-115.2975564", "id": "walgreens-05570"}
{"title": "WALGREENS #05619 (12+)", "url": "https://www.walgreens.com/schedulevaccine", "address": "3030 LAS VEGAS BLVD N, NORTH LAS VEGAS, NV, 89030", "contact-phone": "(702) 642-5318", "lat": "36.1962373", "lng": "-115.0279243", "id": "walgreens-05619"}
{"title": "WALGREENS #05646", "url": "https://www.walgreens.com/schedulevaccine", "address": "770 S HIGHWAY 160, PAHRUMP, NV, 89048", "contact-phone": "(775) 751-8399", "lat": "36.2133196", "lng": "-115.098956", "id": "walgreens-05646"}
{"title": "WALGREENS #05814 (12+)", "url": "https://www.walgreens.com/schedulevaccine", "address": "1445 W CRAIG RD, NORTH LAS VEGAS, NV, 89032", "contact-phone": "(702) 649-3113", "lat": "36.2080635", "lng": "-115.9847689", "id": "walgreens-05814"}
{"title": "WALGREENS #05862 (12+)", "url": "https://www.walgreens.com/schedulevaccine", "address": "401 N ARROYO GRANDE BLVD, HENDERSON, NV, 89014", "contact-phone": "(702) 436-7106", "lat": "36.2388619", "lng": "-115.161171", "id": "walgreens-05862"}
{"title": "WALGREENS #06227 (12+)", "url": "https://www.walgreens.com/schedulevaccine", "address": "451 S DECATUR BLVD, LAS VEGAS, NV, 89107", "contact-phone": "(702) 870-1626", "lat": "36.0567179", "lng": "-115.0576735", "id": "walgreens-06227"}
{"title": "WALGREENS #06310 (12+)", "url": "https://www.walgreens.com/schedulevaccine", "address": "6820 W ANN RD, LAS VEGAS, NV, 89130", "contact-phone": "(702) 645-4106", "lat": "36.1674227", "lng": "-115.2053117", "id": "walgreens-06310"}
{"title": "WALGREENS #06311 (12+)", "url": "https://www.walgreens.com/schedulevaccine", "address": "3808 E TROPICANA AVE, LAS VEGAS, NV, 89121", "contact-phone": "(702) 547-0830", "lat": "36.100534", "lng": "-115.2979731", "id": "walgreens-06311"}
{"title": "WALGREENS #06424 (12+)", "url": "https://www.walgreens.com/schedulevaccine", "address": "1360 W HORIZON RIDGE PKWY, HENDERSON, NV, 89012", "contact-phone": "(702) 568-9459", "lat": "36.1007039", "lng": "-115.0910139", "id": "walgreens-06424"}
{"title": "WALGREENS #06425 (12+)", "url": "https://www.walgreens.com/schedulevaccine", "address": "900 N RANCHO DR, LAS VEGAS, NV, 89106", "contact-phone": "(702) 646-4651", "lat": "36.0223418", "lng": "-115.0465383", "id": "walgreens-06425"}
{"title": "WALGREENS #06545 (12+)", "url": "https://www.walgreens.com/schedulevaccine", "address": "11001 S EASTERN AVE, HENDERSON, NV, 89052", "contact-phone": "(702) 948-8355", "lat": "36.1815951", "lng": "-115.1782737", "id": "walgreens-06545"}
{"title": "WALGREENS #06615", "url": "https://www.walgreens.com/schedulevaccine", "address": "601 S GREEN VALLEY PKWY, HENDERSON, NV, 89052", "contact-phone": "(702) 896-2956", "lat": "35.9919257", "lng": "-115.1015505", "id": "walgreens-06615"}
{"title": "WALGREENS #07032", "url": "https://www.walgreens.com/schedulevaccine", "address": "2451 HAMPTON RD, HENDERSON, NV, 89052", "contact-phone": "(702) 614-8292", "lat": "36.00527", "lng": "-115.08386", "id": "walgreens-07032"}
{"title": "WALGREENS #07164 (12+)", "url": "https://www.walgreens.com/schedulevaccine", "address": "101 E LAKE MEAD PKWY, HENDERSON, NV, 89015", "contact-phone": "(702) 566-9706", "lat": "35.9536658", "lng": "-115.0934427", "id": "walgreens-07164"}
{"title": "WALGREENS #07450 (12+)", "url": "https://www.walgreens.com/schedulevaccine", "address": "4875 S FORT APACHE RD, LAS VEGAS, NV, 89147", "contact-phone": "(702) 873-5165", "lat": "35.9980787", "lng": "-115.2066942", "id": "walgreens-07450"}
{"title": "WALGREENS #07841 (12+)", "url": "https://www.walgreens.com/schedulevaccine", "address": "10510 SOUTHERN HIGHLANDS PKWY, LAS VEGAS, NV, 89141", "contact-phone": "(702) 260-1992", "lat": "36.3021149", "lng": "-115.2827861", "id": "walgreens-07841"}
{"title": "WALGREENS #07864 (12+)", "url": "https://www.walgreens.com/schedulevaccine", "address": "7755 N DURANGO DR, LAS VEGAS, NV, 89131", "contact-phone": "(702) 396-4728", "lat": "36.277743", "lng": "-115.2071643", "id": "walgreens-07864"}
{"title": "WALGREENS #09581", "url": "https://www.walgreens.com/schedulevaccine", "address": "2020 RENO HWY, FALLON, NV, 89406", "contact-phone": "(775) 428-6409", "lat": "36.115026", "lng": "-115.1387972", "id": "walgreens-09581"}
{"title": "WALGREENS #09864", "url": "https://www.walgreens.com/schedulevaccine", "address": "1342 US HIGHWAY 395 N, GARDNERVILLE, NV, 89410", "contact-phone": "(775) 782-0537", "lat": "39.4770225", "lng": "-118.8009568", "id": "walgreens-09864"}
{"title": "WALGREENS #09902", "url": "https://www.walgreens.com/schedulevaccine", "address": "292 LOS ALTOS PKWY, SPARKS, NV, 89436", "contact-phone": "(775) 354-0104", "lat": "38.9359637", "lng": "-119.7403418", "id": "walgreens-09902"}
{"title": "WALGREENS #10190 (12+)", "url": "https://www.walgreens.com/schedulevaccine", "address": "565 E CENTENNIAL PKWY, NORTH LAS VEGAS, NV, 89081", "contact-phone": "(702) 399-3405", "lat": "39.5843116", "lng": "-119.7400597", "id": "walgreens-10190"}
{"title": "WALGREENS #10215 (12+)", "url": "https://www.walgreens.com/schedulevaccine", "address": "8595 W WARM SPRINGS RD, LAS VEGAS, NV, 89113", "contact-phone": "(702) 262-6456", "lat": "36.2756861", "lng": "-115.1341648", "id": "walgreens-10215"}
{"title": "WALGREENS #10782 (12+)", "url": "https://www.walgreens.com/schedulevaccine", "address": "5610 CENTENNIAL CENTER BLVD, LAS VEGAS, NV, 89149", "contact-phone": "(702) 395-3282", "lat": "36.0549218", "lng": "-115.2784799", "id": "walgreens-10782"}
{"title": "WALGREENS #10783 (12+)", "url": "https://www.walgreens.com/schedulevaccine", "address": "6495 N DECATUR BLVD, LAS VEGAS, NV, 89131", "contact-phone": "(702) 395-4230", "lat": "36.2637347", "lng": "-115.2560682", "id": "walgreens-10783"}
{"title": "WALGREENS #10862 (12+)", "url": "https://www.walgreens.com/schedulevaccine", "address": "2421 E BONANZA RD, LAS VEGAS, NV, 89101", "contact-phone": "(702) 366-1556", "lat": "36.0208985", "lng": "-115.2782947", "id": "walgreens-10862"}
{"title": "WALGREENS #11206 (12+)", "url": "https://www.walgreens.com/schedulevaccine", "address": "8582 BLUE DIAMOND RD, LAS VEGAS, NV, 89178", "contact-phone": "(702) 260-0135", "lat": "39.614833", "lng": "-119.8492749", "id": "walgreens-11206"}
{"title": "WALGREENS #11226", "url": "https://www.walgreens.com/schedulevaccine", "address": "305 LEMMON DR, RENO, NV, 89506", "contact-phone": "(775) 677-6874", "lat": "39.5448852", "lng": "-119.7754432", "id": "walgreens-11226"}
{"title": "WALGREENS #11227", "url": "https://www.walgreens.com/schedulevaccine", "address": "2299 ODDIE BLVD, SPARKS, NV, 89431", "contact-phone": "(775) 358-4721", "lat": "36.0846369", "lng": "-115.0338561", "id": "walgreens-11227"}
{"title": "WALGREENS #11668 (12+)", "url": "https://www.walgreens.com/schedulevaccine", "address": "6390 BOULDER HWY, LAS VEGAS, NV, 89122", "contact-phone": "(702) 435-6263", "lat": "36.0328653", "lng": "-115.2087852", "id": "walgreens-11668"}
{"title": "WALGREENS #11766", "url": "https://www.walgreens.com/schedulevaccine", "address": "4930 BLUE DIAMOND RD, LAS VEGAS, NV, 89139", "contact-phone": "(702) 260-9695", "lat": "36.0707926", "lng": "-115.2984824", "id": "walgreens-11766"}
{"title": "WALGREENS #11899 (12+)", "url": "https://www.walgreens.com/schedulevaccine", "address": "6485 S FORT APACHE RD, LAS VEGAS, NV, 89148", "contact-phone": "(702) 262-1247", "lat": "36.1443033", "lng": "-115.1565852", "id": "walgreens-11899"}
{"title": "WALGREENS #12271 (12+)", "url": "https://www.walgreens.com/schedulevaccine", "address": "2427 S LAS VEGAS BLVD, LAS VEGAS, NV, 89104", "contact-phone": "(702) 545-9494", "lat": "36.038487", "lng": "-114.9822304", "id": "walgreens-12271"}
{"title": "WALGREENS #12488", "url": "https://www.walgreens.com/schedulevaccine", "address": "1280 US HIGHWAY 95A N, FERNLEY, NV, 89408", "contact-phone": "(775) 835-6427", "lat": "36.1748277", "lng": "-115.1169461", "id": "walgreens-12488"}
{"title": "WALGREENS #12539 (12+)", "url": "https://www.walgreens.com/schedulevaccine", "address": "6825 N DURANGO DR, LAS VEGAS, NV, 89149", "contact-phone": "(702) 260-8242", "lat": "39.607238", "lng": "-119.2245018", "id": "walgreens-12539"}
{"title": "WALGREENS #12540", "url": "https://www.walgreens.com/schedulevaccine", "address": "9705 PYRAMID WAY, SPARKS, NV, 89441", "contact-phone": "(775) 425-9400", "lat": "36.2850044", "lng": "-115.2884813", "id": "walgreens-12540"}
{"title": "WALGREENS #12641 (12+)", "url": "https://www.walgreens.com/schedulevaccine", "address": "9300 W SAHARA AVE, LAS VEGAS, NV, 89117", "contact-phone": "(702) 228-2480", "lat": "39.6392137", "lng": "-119.7121225", "id": "walgreens-12641"}
{"title": "WALGREENS #12646", "url": "https://www.walgreens.com/schedulevaccine", "address": "329 N SANDHILL BLVD, MESQUITE, NV, 89027", "contact-phone": "(702) 346-1416", "lat": "36.1450994", "lng": "-115.2982972", "id": "walgreens-12646"}
{"title": "WALGREENS #21159 (12+)", "url": "https://www.walgreens.com/schedulevaccine", "address": "3821 W FLAMINGO ROAD, LAS VEGAS, NV, 89103", "contact-phone": "(702) 854-2178", "lat": "36.8087126", "lng": "-114.0650605", "id": "walgreens-21159"}
{"title": "Walmart #1559", "url": "https://www.walmart.com/cp/1228302", "address": "201 N NELLIS BLVD, LAS VEGAS, NV, 89110", "lat": "39.60969469", "lng": "-119.220143", "id": "walmart-1559"}
{"title": "Walmart #1560", "url": "https://www.walmart.com/cp/1228302", "address": "6005 S EASTERN AVE, LAS VEGAS, NV, 89119", "lat": "36.27786936", "lng": "-115.2031019", "id": "walmart-1560"}
{"title": "Walmart #1648", "url": "https://www.walmart.com/cp/1228302", "address": "3770 US HIGHWAY 395 S, CARSON CITY, NV, 89705", "lat": "39.52907663", "lng": "-119.781624", "id": "walmart-1648"}
{"title": "Walmart #1838", "url": "https://www.walmart.com/cp/1228302", "address": "3041 N RAINBOW BLVD, LAS VEGAS, NV, 89108", "lat": "36.16539638", "lng": "-115.0634869", "id": "walmart-1838"}
{"title": "Walmart #2050", "url": "https://www.walmart.com/cp/1228302", "address": "300 E LAKE MEAD PKWY, HENDERSON, NV, 89015", "lat": "36.08052897", "lng": "-115.1219036", "id": "walmart-2050"}
{"title": "Walmart #2106", "url": "https://www.walmart.com/cp/1228302", "address": "2425 E 2ND ST, RENO, NV, 89502", "lat": "39.48106064", "lng": "-119.7985542", "id": "walmart-2106"}
{"title": "Walmart #2189 (12+)", "url": "https://www.walmart.com/cp/1228302", "address": "4855 KIETZKE LN, RENO, NV, 89509", "lat": "40.84101911", "lng": "-115.7924973", "id": "walmart-2189"}
{"title": "Walmart #2402", "url": "https://www.walmart.com/cp/1228302", "address": "2944 MOUNTAIN CITY HWY, ELKO, NV, 89801", "lat": "39.47582119", "lng": "-118.8062113", "id": "walmart-2402"}
{"title": "Walmart #2453", "url": "https://www.walmart.com/cp/1228302", "address": "2333 RENO HWY, FALLON, NV, 89406", "lat": "40.95369986", "lng": "-117.745692", "id": "walmart-2453"}
{"title": "Walmart #2483", "url": "https://www.walmart.com/cp/1228302", "address": "6973 BLUE DIAMOND RD, LAS VEGAS, NV, 89178", "lat": "36.06070138", "lng": "-115.0330791", "id": "walmart-2483"}
{"title": "Walmart #2592", "url": "https://www.walmart.com/cp/1228302", "address": "1807 W CRAIG RD, NORTH LAS VEGAS, NV, 89032", "lat": "36.02060404", "lng": "-115.2454067", "id": "walmart-2592"}
{"title": "Walmart #2617", "url": "https://www.walmart.com/cp/1228302", "address": "3010 POTATO RD, WINNEMUCCA, NV, 89445", "lat": "36.21523673", "lng": "-115.2445944", "id": "walmart-2617"}
{"title": "Walmart #2838", "url": "https://www.walmart.com/cp/1228302", "address": "540 MARKS ST, HENDERSON, NV, 89014", "lat": "36.06506813", "lng": "-115.2492537", "id": "walmart-2838"}
{"title": "Walmart #2884", "url": "https://www.walmart.com/cp/1228302", "address": "8060 W TROPICAL PKWY, LAS VEGAS, NV, 89149", "lat": "36.23683284", "lng": "-115.1679372", "id": "walmart-2884"}
{"title": "Walmart #3277", "url": "https://www.walmart.com/cp/1228302", "address": "155 DAMONTE RANCH PKWY, RENO, NV, 89521", "lat": "36.1153657", "lng": "-115.1916288", "id": "walmart-3277"}
{"title": "Walmart #3350", "url": "https://www.walmart.com/cp/1228302", "address": "5198 BOULDER HWY, LAS VEGAS, NV, 89122", "lat": "36.26966948", "lng": "-115.2661522", "id": "walmart-3350"}
{"title": "Walmart #3351", "url": "https://www.walmart.com/cp/1228302", "address": "6464 N DECATUR BLVD, LAS VEGAS, NV, 89131", "lat": "36.10876374", "lng": "-115.0630732", "id": "walmart-3351"}
{"title": "Walmart #3354", "url": "https://www.walmart.com/cp/1228302", "address": "1401 AMERICAN PACIFIC DR, HENDERSON, NV, 89074", "lat": "36.21525711", "lng": "-115.9950209", "id": "walmart-3354"}
{"title": "Walmart #3355 (12+)", "url": "https://www.walmart.com/cp/1228302", "address": "1400 S Lamb Blvd, Las Vegas, NV, 89104", "lat": "36.1569894", "lng": "-115.1269311", "id": "walmart-3355"}
{"title": "Walmart #3356", "url": "https://www.walmart.com/cp/1228302", "address": "7445 S EASTERN AVE, LAS VEGAS, NV, 89123", "lat": "36.04064736", "lng": "-115.0481639", "id": "walmart-3356"}
{"title": "Walmart #3408", "url": "https://www.walmart.com/cp/1228302", "address": "3200 MARKET ST, CARSON CITY, NV, 89706", "lat": "39.42296967", "lng": "-119.7567726", "id": "walmart-3408"}
{"title": "Walmart #3655", "url": "https://www.walmart.com/cp/1228302", "address": "10440 W CHEYENNE AVE, LAS VEGAS, NV, 89129", "lat": "36.05522333", "lng": "-115.1201139", "id": "walmart-3655"}
{"title": "Walmart #3788", "url": "https://www.walmart.com/cp/1228302", "address": "6310 W CHARLESTON BLVD, LAS VEGAS, NV, 89146", "lat": "36.19663571", "lng": "-115.0289476", "id": "walmart-3788"}
{"title": "Walmart #3847", "url": "https://www.walmart.com/cp/1228302", "address": "1120 W PIONEER BLVD, MESQUITE, NV, 89027", "lat": "39.1120558", "lng": "-119.7783458", "id": "walmart-3847"}
{"title": "Walmart #4339", "url": "https://www.walmart.com/cp/1228302", "address": "5940 LOSEE RD, NORTH LAS VEGAS, NV, 89081", "lat": "36.16039765", "lng": "-115.2318131", "id": "walmart-4339"}
{"title": "Walmart #4356", "url": "https://www.walmart.com/cp/1228302", "address": "7200 ARROYO CROSSING PKWY, LAS VEGAS, NV, 89113", "lat": "36.05524935", "lng": "-115.1201246", "id": "walmart-4356"}
{"title": "Walmart #4370", "url": "https://www.walmart.com/cp/1228302", "address": "1550 NEWLANDS DR E, FERNLEY, NV, 89408", "lat": "39.18724609", "lng": "-119.7575915", "id": "walmart-4370"}
{"title": "Walmart #4557", "url": "https://www.walmart.com/cp/1228302", "address": "3075 E TROPICANA AVE, LAS VEGAS, NV, 89121", "lat": "36.8050315", "lng": "-114.1093868", "id": "walmart-4557"}
{"title": "Walmart #5070", "url": "https://www.walmart.com/cp/1228302", "address": "5200 S FORT APACHE RD, LAS VEGAS, NV, 89148", "lat": "36.09805753", "lng": "-115.1083896", "id": "walmart-5070"}
{"title": "Walmart #5101", "url": "https://www.walmart.com/cp/1228302", "address": "300 S HIGHWAY 160, PAHRUMP, NV, 89048", "lat": "36.09392963", "lng": "-115.2940353", "id": "walmart-5101"}
{"title": "Walmart #5258", "url": "https://www.walmart.com/cp/1228302", "address": "5850 W CRAIG RD, LAS VEGAS, NV, 89130", "lat": "36.26782304", "lng": "-115.1155026", "id": "walmart-5258"}
{"title": "Walmart #5259", "url": "https://www.walmart.com/cp/1228302", "address": "6151 W LAKE MEAD BLVD, LAS VEGAS, NV, 89108", "lat": "36.2406332", "lng": "-115.2240222", "id": "walmart-5259"}
{"title": "Walmart #5269", "url": "https://www.walmart.com/cp/1228302", "address": "490 E SILVERADO RANCH BLVD, LAS VEGAS, NV, 89183", "lat": "36.19490666", "lng": "-115.2260492", "id": "walmart-5269"}
{"title": "Walmart #5306", "url": "https://www.walmart.com/cp/1228302", "address": "5545 SIMMONS ST, NORTH LAS VEGAS, NV, 89031", "lat": "36.01479924", "lng": "-115.1527692", "id": "walmart-5306"}
{"title": "Walmart #5423", "url": "https://www.walmart.com/cp/1228302", "address": "6570 E LAKE MEAD BLVD, LAS VEGAS, NV, 89156", "lat": "39.48102752", "lng": "-119.7986937", "id": "walmart-5423"}
